;GPS@@@
;Ver=1.1.0
;DIP=2009-00152-00
;Date=2026-Jan-12 12:43:07
;----------------------------------------------------------------------------------------------------------------------------------------------------------------------------------------
traces,odo_tick,pos(m),time_elapsed(s),GPS
2,0,0.000000,50.424135,"$GPGGA,182400.20,3721.9384100,N,07958.3306346,W,2,07,1.08,363.3718,M,-32.8285,M,1.4,0000*41"
2,0,0.000000,50.523275,"$GPGGA,182400.30,3721.9384132,N,07958.3306365,W,2,07,1.08,363.3795,M,-32.8285,M,1.5,0000*44"
2,0,0.000000,50.626061,"$GPGGA,182400.40,3721.9384222,N,07958.3306391,W,2,07,1.08,363.3783,M,-32.8285,M,0.4,0000*4D"
2,0,0.000000,50.726405,"$GPGGA,182400.50,3721.9384298,N,07958.3306419,W,2,07,1.08,363.3837,M,-32.8285,M,0.5,0000*4B"
3,0,0.000000,50.826022,"$GPGGA,182400.60,3721.9384409,N,07958.3306466,W,2,07,1.08,363.3874,M,-32.8285,M,0.6,0000*4A"
3,0,0.000000,50.927178,"$GPGGA,182400.70,3721.9384535,N,07958.3306578,W,2,07,1.08,363.3760,M,-32.8285,M,0.7,0000*40"
4,0,0.000000,51.026092,"$GPGGA,182400.80,3721.9384664,N,07958.3306665,W,2,07,1.08,363.3677,M,-32.8285,M,0.8,0000*4F"
5,0,0.000000,51.123798,"$GPGGA,182400.90,3721.9384804,N,07958.3306644,W,2,07,1.08,363.3578,M,-32.8285,M,0.9,0000*48"
7,0,0.000000,51.251871,"$GPGGA,182401.00,3721.9385126,N,07958.3307252,W,2,05,1.63,363.2933,M,-32.8285,M,1.0,0000*4F"
8,0,0.000000,51.327650,"$GPGGA,182401.10,3721.9385311,N,07958.3307382,W,2,05,1.63,363.2955,M,-32.8285,M,1.1,0000*45"
9,0,0.000000,51.428240,"$GPGGA,182401.20,3721.9385680,N,07958.3307173,W,2,05,1.63,363.3687,M,-32.8285,M,1.2,0000*45"
10,0,0.000000,51.525799,"$GPGGA,182401.30,3721.9385903,N,07958.3307221,W,2,05,1.63,363.3128,M,-32.8285,M,1.3,0000*47"
11,0,0.000000,51.626371,"$GPGGA,182401.40,3721.9386017,N,07958.3307312,W,2,07,1.08,363.3249,M,-32.8285,M,0.8,0000*4F"
12,0,0.000000,51.725628,"$GPGGA,182401.50,3721.9386182,N,07958.3307440,W,2,07,1.08,363.3600,M,-32.8285,M,0.9,0000*4B"
12,0,0.000000,51.824003,"$GPGGA,182401.60,3721.9386310,N,07958.3307517,W,2,07,1.08,363.3830,M,-32.8285,M,1.0,0000*47"
13,0,0.000000,51.923692,"$GPGGA,182401.70,3721.9386387,N,07958.3307599,W,2,07,1.08,363.3816,M,-32.8285,M,1.1,0000*4B"
14,0,0.000000,52.023093,"$GPGGA,182401.80,3721.9386585,N,07958.3307665,W,2,07,1.08,363.3853,M,-32.8285,M,1.2,0000*42"
15,0,0.000000,52.126236,"$GPGGA,182401.90,3721.9386854,N,07958.3307771,W,2,07,1.08,363.3682,M,-32.8285,M,1.3,0000*45"
16,0,0.000000,52.255210,"$GPGGA,182402.00,3721.9386892,N,07958.3307980,W,2,07,1.08,363.3411,M,-32.8285,M,1.4,0000*4A"
17,0,0.000000,52.327783,"$GPGGA,182402.10,3721.9387040,N,07958.3308126,W,2,07,1.08,363.3165,M,-32.8285,M,1.5,0000*41"
18,0,0.000000,52.426351,"$GPGGA,182402.20,3721.9387102,N,07958.3308355,W,2,07,1.08,363.2539,M,-32.8285,M,1.6,0000*4C"
19,0,0.000000,52.523451,"$GPGGA,182402.30,3721.9387110,N,07958.3308480,W,2,07,1.08,363.2203,M,-32.8285,M,0.5,0000*4D"
20,0,0.000000,52.623795,"$GPGGA,182402.40,3721.9387579,N,07958.3308422,W,2,07,1.08,363.3409,M,-32.8285,M,0.6,0000*47"
21,0,0.000000,52.727371,"$GPGGA,182402.50,3721.9387790,N,07958.3308570,W,2,07,1.08,363.3453,M,-32.8285,M,0.7,0000*4B"
22,0,0.000000,52.826311,"$GPGGA,182402.60,3721.9387798,N,07958.3308880,W,2,07,1.08,363.2338,M,-32.8285,M,0.8,0000*46"
23,0,0.000000,52.926962,"$GPGGA,182402.70,3721.9388367,N,07958.3308904,W,2,07,1.08,363.3160,M,-32.8285,M,0.9,0000*4E"
25,0,0.000000,53.026445,"$GPGGA,182402.80,3721.9388111,N,07958.3309284,W,2,05,1.63,363.1784,M,-32.8285,M,1.0,0000*49"
26,0,0.000000,53.125740,"$GPGGA,182402.90,3721.9388315,N,07958.3309405,W,2,07,1.08,363.1767,M,-32.8285,M,1.1,0000*42"
27,0,0.000000,53.254626,"$GPGGA,182403.00,3721.9389081,N,07958.3309243,W,2,07,1.08,363.3777,M,-32.8285,M,1.2,0000*41"
27,0,0.000000,53.326016,"$GPGGA,182403.10,3721.9389232,N,07958.3309411,W,2,05,1.63,363.3764,M,-32.8285,M,1.3,0000*47"
27,0,0.000000,53.423044,"$GPGGA,182403.20,3721.9389344,N,07958.3309761,W,2,05,1.63,363.3500,M,-32.8285,M,1.4,0000*47"
27,0,0.000000,53.526007,"$GPGGA,182403.30,3721.9389374,N,07958.3309760,W,2,05,1.63,363.3524,M,-32.8285,M,0.3,0000*44"
29,0,0.000000,53.627016,"$GPGGA,182403.40,3721.9389418,N,07958.3309640,W,2,06,1.43,363.3510,M,-32.8285,M,0.4,0000*4C"
29,0,0.000000,53.726703,"$GPGGA,182403.50,3721.9389444,N,07958.3309708,W,2,06,1.43,363.3551,M,-32.8285,M,0.5,0000*4D"
29,0,0.000000,53.826420,"$GPGGA,182403.60,3721.9389497,N,07958.3309622,W,2,06,1.43,363.3460,M,-32.8285,M,0.6,0000*49"
30,0,0.000000,53.923509,"$GPGGA,182403.70,3721.9389532,N,07958.3309592,W,2,06,1.43,363.3577,M,-32.8285,M,0.7,0000*48"
31,0,0.000000,54.022069,"$GPGGA,182403.80,3721.9389648,N,07958.3309574,W,2,06,1.43,363.3480,M,-32.8285,M,0.8,0000*47"
32,0,0.000000,54.122512,"$GPGGA,182403.90,3721.9389893,N,07958.3309492,W,2,06,1.43,363.3824,M,-32.8285,M,0.9,0000*44"
33,0,0.000000,54.253843,"$GPGGA,182404.00,3721.9390016,N,07958.3309671,W,2,06,1.43,363.3620,M,-32.8285,M,1.0,0000*4A"
34,0,0.000000,54.325754,"$GPGGA,182404.10,3721.9390170,N,07958.3309996,W,2,06,1.43,363.3214,M,-32.8285,M,1.1,0000*4E"
35,0,0.000000,54.425443,"$GPGGA,182404.20,3721.9390682,N,07958.3310041,W,2,06,1.43,363.3114,M,-32.8285,M,1.2,0000*4C"
36,0,0.000000,54.524919,"$GPGGA,182404.30,3721.9390847,N,07958.3310477,W,2,06,1.43,363.2875,M,-32.8285,M,0.7,0000*40"
37,0,0.000000,54.623954,"$GPGGA,182404.40,3721.9390734,N,07958.3310877,W,2,06,1.43,363.3946,M,-32.8285,M,0.8,0000*4F"
39,0,0.000000,54.723311,"$GPGGA,182404.50,3721.9390934,N,07958.3310794,W,2,06,1.43,363.4513,M,-32.8285,M,0.9,0000*48"
40,0,0.000000,54.827639,"$GPGGA,182404.60,3721.9391085,N,07958.3311077,W,2,06,1.43,363.4441,M,-32.8285,M,1.0,0000*4C"
41,0,0.000000,54.925866,"$GPGGA,182404.70,3721.9391509,N,07958.3310946,W,2,06,1.43,363.4115,M,-32.8285,M,1.1,0000*43"
43,0,0.000000,55.027433,"$GPGGA,182404.80,3721.9391959,N,07958.3311952,W,2,06,1.43,363.1784,M,-32.8285,M,1.2,0000*49"
44,0,0.000000,55.126853,"$GPGGA,182404.90,3721.9391949,N,07958.3311555,W,2,06,1.43,363.2995,M,-32.8285,M,1.3,0000*4E"
45,0,0.000000,55.255286,"$GPGGA,182405.00,3721.9392473,N,07958.3311503,W,2,06,1.43,363.4851,M,-32.8285,M,1.4,0000*4A"
46,0,0.000000,55.326788,"$GPGGA,182405.10,3721.9392546,N,07958.3311807,W,2,06,1.43,363.3783,M,-32.8285,M,1.5,0000*43"
46,0,0.000000,55.422707,"$GPGGA,182405.20,3721.9392904,N,07958.3311635,W,2,06,1.43,363.4734,M,-32.8285,M,1.6,0000*4D"
47,0,0.000000,55.523248,"$GPGGA,182405.30,3721.9393047,N,07958.3311550,W,2,06,1.43,363.4733,M,-32.8285,M,0.5,0000*46"
47,0,0.000000,55.626516,"$GPGGA,182405.40,3721.9393192,N,07958.3311460,W,2,06,1.43,363.4655,M,-32.8285,M,0.6,0000*48"
48,0,0.000000,55.726482,"$GPGGA,182405.50,3721.9393401,N,07958.3311446,W,2,06,1.43,363.4686,M,-32.8285,M,0.7,0000*4D"
48,0,0.000000,55.827263,"$GPGGA,182405.60,3721.9393579,N,07958.3311446,W,2,06,1.43,363.4861,M,-32.8285,M,0.8,0000*48"
49,0,0.000000,55.925387,"$GPGGA,182405.70,3721.9393797,N,07958.3311467,W,2,06,1.43,363.4967,M,-32.8285,M,0.9,0000*4E"
50,0,0.000000,56.023713,"$GPGGA,182405.80,3721.9394116,N,07958.3311505,W,2,06,1.43,363.5280,M,-32.8285,M,1.0,0000*47"
51,0,0.000000,56.122694,"$GPGGA,182405.90,3721.9394184,N,07958.3311505,W,2,06,1.43,363.5252,M,-32.8285,M,1.1,0000*43"
52,0,0.000000,56.250965,"$GPGGA,182406.00,3721.9394237,N,07958.3311542,W,2,06,1.43,363.5122,M,-32.8285,M,1.2,0000*46"
52,0,0.000000,56.326962,"$GPGGA,182406.10,3721.9394348,N,07958.3311566,W,2,06,1.43,363.5094,M,-32.8285,M,1.3,0000*45"
53,0,0.000000,56.426407,"$GPGGA,182406.20,3721.9394337,N,07958.3311894,W,2,06,1.43,363.4742,M,-32.8285,M,1.4,0000*44"
54,0,0.000000,56.526877,"$GPGGA,182406.30,3721.9394500,N,07958.3312081,W,2,06,1.43,363.4836,M,-32.8285,M,0.3,0000*42"
55,0,0.000000,56.626270,"$GPGGA,182406.40,3721.9394535,N,07958.3312196,W,2,06,1.43,363.4901,M,-32.8285,M,0.4,0000*46"
55,0,0.000000,56.723366,"$GPGGA,182406.50,3721.9394650,N,07958.3312305,W,2,06,1.43,363.5056,M,-32.8285,M,0.5,0000*44"
56,0,0.000000,56.821935,"$GPGGA,182406.60,3721.9394814,N,07958.3312477,W,2,06,1.43,363.4766,M,-32.8285,M,0.6,0000*4D"
58,0,0.000000,56.922260,"$GPGGA,182406.70,3721.9395003,N,07958.3312445,W,2,06,1.43,363.4758,M,-32.8285,M,0.7,0000*4E"
60,0,0.000000,57.026156,"$GPGGA,182406.80,3721.9395283,N,07958.3312385,W,2,06,1.43,363.4629,M,-32.8285,M,0.8,0000*48"
61,0,0.000000,57.125731,"$GPGGA,182406.90,3721.9395707,N,07958.3312182,W,2,06,1.43,363.5277,M,-32.8285,M,0.9,0000*4A"
63,0,0.000000,57.254384,"$GPGGA,182407.00,3721.9395904,N,07958.3312188,W,2,06,1.43,363.5499,M,-32.8285,M,1.0,0000*4B"
64,0,0.000000,57.326212,"$GPGGA,182407.10,3721.9395943,N,07958.3312542,W,2,06,1.43,363.6449,M,-32.8285,M,1.1,0000*44"
65,0,0.000000,57.424041,"$GPGGA,182407.20,3721.9396225,N,07958.3312645,W,2,06,1.43,363.6491,M,-32.8285,M,1.2,0000*4D"
66,0,0.000000,57.523624,"$GPGGA,182407.30,3721.9396531,N,07958.3312695,W,2,06,1.43,363.6762,M,-32.8285,M,0.7,0000*48"
67,0,0.000000,57.629522,"$GPGGA,182407.40,3721.9396703,N,07958.3312624,W,2,06,1.43,363.6633,M,-32.8285,M,0.8,0000*4C"
68,0,0.000000,57.727444,"$GPGGA,182407.50,3721.9397186,N,07958.3312648,W,2,06,1.43,363.6834,M,-32.8285,M,0.9,0000*45"
69,0,0.000000,57.827021,"$GPGGA,182407.60,3721.9397457,N,07958.3312734,W,2,06,1.43,363.6182,M,-32.8285,M,1.0,0000*49"
71,0,0.000000,57.927077,"$GPGGA,182407.70,3721.9397649,N,07958.3312802,W,2,06,1.43,363.6470,M,-32.8285,M,1.1,0000*46"
72,0,0.000000,58.027006,"$GPGGA,182407.80,3721.9397800,N,07958.3312869,W,2,06,1.43,363.6802,M,-32.8285,M,1.2,0000*4D"
73,0,0.000000,58.123745,"$GPGGA,182407.90,3721.9397930,N,07958.3312706,W,2,05,1.63,363.6138,M,-32.8285,M,1.3,0000*48"
75,0,0.000000,58.251535,"$GPGGA,182408.00,3721.9397813,N,07958.3312750,W,2,05,1.63,363.6126,M,-32.8285,M,1.4,0000*45"
76,0,0.000000,58.321901,"$GPGGA,182408.10,3721.9397953,N,07958.3312742,W,2,05,1.63,363.6128,M,-32.8285,M,1.5,0000*4D"
77,0,0.000000,58.425949,"$GPGGA,182408.20,3721.9398276,N,07958.3312840,W,2,05,1.63,363.6045,M,-32.8285,M,1.6,0000*49"
79,0,0.000000,58.525218,"$GPGGA,182408.30,3721.9398491,N,07958.3312933,W,2,05,1.63,363.5674,M,-32.8285,M,0.5,0000*47"
80,0,0.000000,58.625684,"$GPGGA,182408.40,3721.9398701,N,07958.3312984,W,2,05,1.63,363.5407,M,-32.8285,M,0.6,0000*43"
82,0,0.000000,58.726227,"$GPGGA,182408.50,3721.9399177,N,07958.3313139,W,2,05,1.63,363.6226,M,-32.8285,M,0.7,0000*4C"
83,0,0.000000,58.823954,"$GPGGA,182408.60,3721.9399344,N,07958.3313343,W,2,05,1.63,363.6846,M,-32.8285,M,0.8,0000*41"
84,0,0.000000,58.922874,"$GPGGA,182408.70,3721.9399666,N,07958.3313477,W,2,05,1.63,363.6564,M,-32.8285,M,0.9,0000*49"
86,0,0.000000,59.022416,"$GPGGA,182408.80,3721.9400232,N,07958.3313497,W,2,05,1.63,363.7011,M,-32.8285,M,1.0,0000*44"
88,0,0.000000,59.125637,"$GPGGA,182408.90,3721.9400543,N,07958.3313503,W,2,05,1.63,363.7037,M,-32.8285,M,1.1,0000*4D"
90,0,0.000000,59.265177,"$GPGGA,182409.00,3721.9400837,N,07958.3313507,W,2,05,1.63,363.6446,M,-32.8285,M,1.2,0000*4F"
91,0,0.000000,59.325996,"$GPGGA,182409.10,3721.9401188,N,07958.3313830,W,2,05,1.63,363.6006,M,-32.8285,M,1.3,0000*4A"
93,0,0.000000,59.426046,"$GPGGA,182409.20,3721.9401355,N,07958.3313925,W,2,05,1.63,363.5768,M,-32.8285,M,1.4,0000*45"
95,0,0.000000,59.523915,"$GPGGA,182409.30,3721.9401701,N,07958.3313914,W,2,05,1.63,363.5589,M,-32.8285,M,0.3,0000*48"
96,0,0.000000,59.622465,"$GPGGA,182409.40,3721.9402014,N,07958.3314163,W,2,05,1.63,363.5501,M,-32.8285,M,0.4,0000*47"
98,0,0.000000,59.721657,"$GPGGA,182409.50,3721.9402282,N,07958.3314336,W,2,05,1.63,363.5765,M,-32.8285,M,0.5,0000*48"
100,0,0.000000,59.821873,"$GPGGA,182409.60,3721.9402808,N,07958.3314442,W,2,05,1.63,363.6584,M,-32.8285,M,0.6,0000*4A"
101,0,0.000000,59.926041,"$GPGGA,182409.70,3721.9403261,N,07958.3314508,W,2,05,1.63,363.6969,M,-32.8285,M,0.7,0000*4E"
103,0,0.000000,60.024984,"$GPGGA,182409.80,3721.9403599,N,07958.3314628,W,2,05,1.63,363.7260,M,-32.8285,M,0.8,0000*4C"
104,0,0.000000,60.125097,"$GPGGA,182409.90,3721.9403893,N,07958.3314567,W,2,05,1.63,363.7530,M,-32.8285,M,0.9,0000*41"
106,0,0.000000,60.251219,"$GPGGA,182410.00,3721.9404253,N,07958.3314523,W,2,05,1.63,363.7286,M,-32.8285,M,1.0,0000*43"
107,0,0.000000,60.328442,"$GPGGA,182410.10,3721.9404608,N,07958.3314815,W,2,05,1.63,363.7147,M,-32.8285,M,1.1,0000*4F"
108,0,0.000000,60.422830,"$GPGGA,182410.20,3721.9404724,N,07958.3314918,W,2,05,1.63,363.7022,M,-32.8285,M,1.2,0000*4E"
109,0,0.000000,60.525138,"$GPGGA,182410.30,3721.9405014,N,07958.3315002,W,2,05,1.63,363.7319,M,-32.8285,M,0.7,0000*46"
110,0,0.000000,60.626426,"$GPGGA,182410.40,3721.9405198,N,07958.3315160,W,2,05,1.63,363.7341,M,-32.8285,M,0.8,0000*43"
111,0,0.000000,60.726403,"$GPGGA,182410.50,3721.9405390,N,07958.3315266,W,2,05,1.63,363.7275,M,-32.8285,M,0.9,0000*4A"
112,0,0.000000,60.825846,"$GPGGA,182410.60,3721.9405608,N,07958.3315350,W,2,05,1.63,363.7431,M,-32.8285,M,1.0,0000*47"
114,0,0.000000,60.923669,"$GPGGA,182410.70,3721.9405927,N,07958.3315352,W,2,05,1.63,363.7116,M,-32.8285,M,1.1,0000*47"
115,0,0.000000,61.021751,"$GPGGA,182410.80,3721.9406151,N,07958.3315491,W,2,05,1.63,363.7108,M,-32.8285,M,1.2,0000*46"
116,0,0.000000,61.122120,"$GPGGA,182410.90,3721.9406346,N,07958.3315624,W,2,06,1.43,363.7414,M,-32.8285,M,1.3,0000*47"
117,0,0.000000,61.253886,"$GPGGA,182411.00,3721.9406480,N,07958.3315676,W,2,06,1.43,363.7457,M,-32.8285,M,1.4,0000*45"
118,0,0.000000,61.325845,"$GPGGA,182411.10,3721.9406700,N,07958.3315576,W,2,06,1.43,363.6951,M,-32.8285,M,1.5,0000*47"
119,0,0.000000,61.425491,"$GPGGA,182411.20,3721.9407024,N,07958.3315726,W,2,06,1.43,363.7082,M,-32.8285,M,1.6,0000*46"
120,0,0.000000,61.525811,"$GPGGA,182411.30,3721.9407282,N,07958.3315731,W,2,06,1.43,363.7033,M,-32.8285,M,1.7,0000*44"
121,0,0.000000,61.624274,"$GPGGA,182411.40,3721.9407575,N,07958.3315669,W,2,06,1.43,363.7157,M,-32.8285,M,0.6,0000*43"
122,0,0.000000,61.723038,"$GPGGA,182411.50,3721.9407753,N,07958.3315712,W,2,06,1.43,363.7142,M,-32.8285,M,0.7,0000*4C"
123,0,0.000000,61.822703,"$GPGGA,182411.60,3721.9407929,N,07958.3315771,W,2,06,1.43,363.7165,M,-32.8285,M,0.8,0000*43"
125,0,0.000000,61.926285,"$GPGGA,182411.70,3721.9408215,N,07958.3315907,W,2,06,1.43,363.7482,M,-32.8285,M,0.9,0000*4B"
126,0,0.000000,62.029363,"$GPGGA,182411.80,3721.9408411,N,07958.3315980,W,2,06,1.43,363.7281,M,-32.8285,M,1.0,0000*44"
127,0,0.000000,62.126168,"$GPGGA,182411.90,3721.9408764,N,07958.3315983,W,2,06,1.43,363.7336,M,-32.8285,M,1.1,0000*4B"
129,0,0.000000,62.254608,"$GPGGA,182412.00,3721.9409089,N,07958.3316166,W,2,06,1.43,363.7313,M,-32.8285,M,1.2,0000*40"
130,0,0.000000,62.325991,"$GPGGA,182412.10,3721.9409285,N,07958.3316253,W,2,06,1.43,363.7452,M,-32.8285,M,1.3,0000*49"
131,0,0.000000,62.422228,"$GPGGA,182412.20,3721.9409601,N,07958.3316657,W,2,05,2.11,363.7579,M,-32.8285,M,1.4,0000*4A"
133,0,0.000000,62.525258,"$GPGGA,182412.30,3721.9409799,N,07958.3316891,W,2,05,2.11,363.7905,M,-32.8285,M,1.5,0000*49"
134,0,0.000000,62.622194,"$GPGGA,182412.40,3721.9410091,N,07958.3316977,W,2,05,2.11,363.8204,M,-32.8285,M,0.4,0000*45"
136,0,0.000000,62.725114,"$GPGGA,182412.50,3721.9410437,N,07958.3317087,W,2,05,2.11,363.7991,M,-32.8285,M,0.5,0000*42"
137,0,0.000000,62.825794,"$GPGGA,182412.60,3721.9410716,N,07958.3317091,W,2,05,2.11,363.7707,M,-32.8285,M,0.6,0000*44"
139,0,0.000000,62.925163,"$GPGGA,182412.70,3721.9410929,N,07958.3317091,W,2,05,2.11,363.7665,M,-32.8285,M,0.7,0000*43"
140,0,0.000000,63.024268,"$GPGGA,182412.80,3721.9411254,N,07958.3317176,W,2,05,2.11,363.8379,M,-32.8285,M,0.8,0000*4C"
141,0,0.000000,63.122382,"$GPGGA,182412.90,3721.9411468,N,07958.3317292,W,2,05,2.11,363.8348,M,-32.8285,M,0.9,0000*4E"
143,0,0.000000,63.249819,"$GPGGA,182413.00,3721.9411688,N,07958.3317390,W,2,05,2.11,363.8525,M,-32.8285,M,1.0,0000*4C"
144,0,0.000000,63.326288,"$GPGGA,182413.10,3721.9412107,N,07958.3317690,W,2,05,2.11,363.9813,M,-32.8285,M,1.1,0000*43"
146,0,0.000000,63.427702,"$GPGGA,182413.20,3721.9412239,N,07958.3318204,W,2,05,2.11,363.9505,M,-32.8285,M,1.2,0000*41"
147,0,0.000000,63.525833,"$GPGGA,182413.30,3721.9412577,N,07958.3318182,W,2,05,2.11,363.9621,M,-32.8285,M,0.7,0000*41"
148,0,0.000000,63.625905,"$GPGGA,182413.40,3721.9412867,N,07958.3318265,W,2,05,2.11,363.9573,M,-32.8285,M,0.8,0000*4B"
150,0,0.000000,63.724597,"$GPGGA,182413.50,3721.9413348,N,07958.3317503,W,2,05,2.11,363.8147,M,-32.8285,M,0.9,0000*46"
151,0,0.000000,63.822831,"$GPGGA,182413.60,3721.9413412,N,07958.3318436,W,2,05,2.11,363.9825,M,-32.8285,M,1.0,0000*41"
153,0,0.000000,63.922475,"$GPGGA,182413.70,3721.9413710,N,07958.3318568,W,2,05,2.11,363.9919,M,-32.8285,M,1.1,0000*44"
154,0,0.000000,64.022127,"$GPGGA,182413.80,3721.9414043,N,07958.3317960,W,2,05,2.11,363.8561,M,-32.8285,M,1.2,0000*47"
155,0,0.000000,64.125231,"$GPGGA,182413.90,3721.9414365,N,07958.3318423,W,2,05,2.11,364.0665,M,-32.8285,M,1.3,0000*4D"
156,0,0.000000,64.253123,"$GPGGA,182414.00,3721.9414475,N,07958.3318232,W,2,05,2.11,363.8148,M,-32.8285,M,1.4,0000*43"
157,0,0.000000,64.326043,"$GPGGA,182414.10,3721.9414629,N,07958.3318206,W,2,05,2.11,363.8291,M,-32.8285,M,1.5,0000*48"
158,0,0.000000,64.424172,"$GPGGA,182414.20,3721.9415178,N,07958.3318393,W,2,05,2.11,363.8820,M,-32.8285,M,1.6,0000*47"
159,0,0.000000,64.522729,"$GPGGA,182414.30,3721.9415271,N,07958.3318483,W,2,05,2.11,363.8713,M,-32.8285,M,0.5,0000*47"
161,0,0.000000,64.622392,"$GPGGA,182414.40,3721.9415507,N,07958.3318530,W,2,05,2.11,363.8591,M,-32.8285,M,0.6,0000*44"
162,0,0.000000,64.723818,"$GPGGA,182414.50,3721.9415991,N,07958.3318602,W,2,05,2.11,363.8514,M,-32.8285,M,0.7,0000*48"
164,0,0.000000,64.825634,"$GPGGA,182414.60,3721.9416194,N,07958.3318630,W,2,05,2.11,363.8662,M,-32.8285,M,0.8,0000*49"
165,0,0.000000,64.925732,"$GPGGA,182414.70,3721.9416598,N,07958.3318614,W,2,05,2.11,363.9149,M,-32.8285,M,0.9,0000*48"
167,0,0.000000,65.026164,"$GPGGA,182414.80,3721.9416946,N,07958.3318613,W,2,05,2.12,363.8643,M,-32.8285,M,1.0,0000*48"
168,0,0.000000,65.124355,"$GPGGA,182414.90,3721.9417212,N,07958.3318648,W,2,05,2.12,363.8520,M,-32.8285,M,1.1,0000*4B"
170,0,0.000000,65.250476,"$GPGGA,182415.00,3721.9417483,N,07958.3318590,W,2,05,2.12,363.8821,M,-32.8285,M,1.2,0000*44"
171,0,0.000000,65.321315,"$GPGGA,182415.10,3721.9417872,N,07958.3318726,W,2,05,2.12,363.9367,M,-32.8285,M,1.3,0000*41"
173,0,0.000000,65.421788,"$GPGGA,182415.20,3721.9418113,N,07958.3318748,W,2,05,2.12,363.8115,M,-32.8285,M,1.4,0000*4A"
174,0,0.000000,65.525446,"$GPGGA,182415.30,3721.9418274,N,07958.3318863,W,2,05,2.12,363.8465,M,-32.8285,M,1.5,0000*4C"
175,0,0.000000,65.624823,"$GPGGA,182415.40,3721.9418430,N,07958.3318918,W,2,05,2.12,363.8163,M,-32.8285,M,0.4,0000*43"
176,0,0.000000,65.725491,"$GPGGA,182415.50,3721.9418657,N,07958.3318952,W,2,05,2.12,363.8101,M,-32.8285,M,0.5,0000*4A"
177,0,0.000000,65.824975,"$GPGGA,182415.60,3721.9418877,N,07958.3319005,W,2,05,2.12,363.8231,M,-32.8285,M,0.6,0000*4C"
178,0,0.000000,65.923112,"$GPGGA,182415.70,3721.9419069,N,07958.3319060,W,2,05,2.12,363.8290,M,-32.8285,M,0.7,0000*42"
179,0,0.000000,66.022758,"$GPGGA,182415.80,3721.9419315,N,07958.3319081,W,2,05,2.12,363.8200,M,-32.8285,M,0.8,0000*4C"
180,0,0.000000,66.122344,"$GPGGA,182415.90,3721.9419508,N,07958.3319092,W,2,05,2.12,363.7951,M,-32.8285,M,0.9,0000*44"
181,0,0.000000,66.252816,"$GPGGA,182416.00,3721.9419675,N,07958.3319168,W,2,05,2.12,363.7936,M,-32.8285,M,1.0,0000*4A"
182,0,0.000000,66.324880,"$GPGGA,182416.10,3721.9419856,N,07958.3319226,W,2,05,2.12,363.8119,M,-32.8285,M,1.1,0000*46"
184,0,0.000000,66.425724,"$GPGGA,182416.20,3721.9420188,N,07958.3319303,W,2,05,2.12,363.8636,M,-32.8285,M,1.2,0000*4A"
185,0,0.000000,66.524747,"$GPGGA,182416.30,3721.9420834,N,07958.3319303,W,2,05,2.12,363.8803,M,-32.8285,M,0.7,0000*49"
187,0,0.000000,66.621894,"$GPGGA,182416.40,3721.9421103,N,07958.3319154,W,2,05,2.12,363.8882,M,-32.8285,M,0.8,0000*44"
188,0,0.000000,66.722004,"$GPGGA,182416.50,3721.9421329,N,07958.3319339,W,2,05,2.12,363.8618,M,-32.8285,M,0.9,0000*4A"
190,0,0.000000,66.821574,"$GPGGA,182416.60,3721.9421790,N,07958.3319584,W,2,05,2.12,363.8191,M,-32.8285,M,1.0,0000*41"
192,0,0.000000,66.925781,"$GPGGA,182416.70,3721.9422017,N,07958.3319693,W,2,06,1.43,363.8329,M,-32.8285,M,1.1,0000*4A"
193,0,0.000000,67.024784,"$GPGGA,182416.80,3721.9422292,N,07958.3319686,W,2,06,1.43,363.8682,M,-32.8285,M,1.2,0000*49"
195,0,0.000000,67.125515,"$GPGGA,182416.90,3721.9422635,N,07958.3319721,W,2,06,1.43,363.8865,M,-32.8285,M,1.3,0000*4B"
197,0,0.000000,67.252782,"$GPGGA,182417.00,3721.9422966,N,07958.3319767,W,2,06,1.43,363.8981,M,-32.8285,M,1.4,0000*44"
198,0,0.000000,67.324252,"$GPGGA,182417.10,3721.9423281,N,07958.3319900,W,2,06,1.43,363.8996,M,-32.8285,M,1.5,0000*4E"
200,0,0.000000,67.426068,"$GPGGA,182417.20,3721.9423662,N,07958.3320070,W,2,06,1.43,363.8868,M,-32.8285,M,1.6,0000*43"
202,0,0.000000,67.522623,"$GPGGA,182417.30,3721.9423974,N,07958.3320203,W,2,06,1.43,363.9017,M,-32.8285,M,1.7,0000*4C"
204,0,0.000000,67.625681,"$GPGGA,182417.40,3721.9424462,N,07958.3320377,W,2,06,1.43,363.8618,M,-32.8285,M,0.6,0000*4C"
205,0,0.000000,67.725437,"$GPGGA,182417.50,3721.9424814,N,07958.3320476,W,2,07,1.15,363.9159,M,-32.8285,M,0.7,0000*46"
207,0,0.000000,67.825626,"$GPGGA,182417.60,3721.9425288,N,07958.3320496,W,2,07,1.15,363.9198,M,-32.8285,M,0.8,0000*47"
208,0,0.000000,67.925234,"$GPGGA,182417.70,3721.9425555,N,07958.3320498,W,2,07,1.15,363.9537,M,-32.8285,M,0.9,0000*4F"
210,0,0.000000,68.022235,"$GPGGA,182417.80,3721.9425914,N,07958.3320603,W,2,07,1.15,363.9329,M,-32.8285,M,1.0,0000*48"
211,0,0.000000,68.122077,"$GPGGA,182417.90,3721.9426215,N,07958.3320590,W,2,07,1.15,363.9276,M,-32.8285,M,1.1,0000*43"
213,0,0.000000,68.252047,"$GPGGA,182418.00,3721.9426542,N,07958.3319811,W,2,07,1.15,363.9543,M,-32.8285,M,1.2,0000*4C"
214,0,0.000000,68.325788,"$GPGGA,182418.10,3721.9426884,N,07958.3319865,W,2,07,1.15,363.9659,M,-32.8285,M,1.3,0000*40"
215,0,0.000000,68.426067,"$GPGGA,182418.20,3721.9427142,N,07958.3319786,W,2,07,1.15,363.9667,M,-32.8285,M,1.4,0000*49"
217,0,0.000000,68.531890,"$GPGGA,182418.30,3721.9427463,N,07958.3319666,W,2,07,1.15,363.9898,M,-32.8285,M,1.5,0000*4E"
218,0,0.000000,68.625245,"$GPGGA,182418.40,3721.9427739,N,07958.3319722,W,2,07,1.15,363.9997,M,-32.8285,M,0.4,0000*4A"
220,0,0.000000,68.723173,"$GPGGA,182418.50,3721.9427857,N,07958.3319892,W,2,07,1.15,364.0007,M,-32.8285,M,0.5,0000*47"
222,0,0.000000,68.825877,"$GPGGA,182418.60,3721.9428028,N,07958.3319966,W,2,07,1.15,363.9767,M,-32.8285,M,0.6,0000*4D"
223,0,0.000000,68.922674,"$GPGGA,182418.70,3721.9428357,N,07958.3319902,W,2,07,1.15,364.0000,M,-32.8285,M,0.7,0000*4C"
225,0,0.000000,69.026154,"$GPGGA,182418.80,3721.9428832,N,07958.3319905,W,2,07,1.15,364.0194,M,-32.8285,M,0.8,0000*4F"
226,0,0.000000,69.135240,"$GPGGA,182418.90,3721.9429105,N,07958.3319909,W,2,07,1.15,364.0380,M,-32.8285,M,0.9,0000*48"
228,0,0.000000,69.254658,"$GPGGA,182419.00,3721.9429399,N,07958.3319758,W,2,07,1.15,364.0808,M,-32.8285,M,1.0,0000*4E"
228,0,0.000000,69.326144,"$GPGGA,182419.10,3721.9429766,N,07958.3319584,W,2,07,1.15,364.1251,M,-32.8285,M,1.1,0000*4E"
229,0,0.000000,69.423710,"$GPGGA,182419.20,3721.9430005,N,07958.3320034,W,2,07,1.15,364.0368,M,-32.8285,M,1.2,0000*4A"
230,0,0.000000,69.521691,"$GPGGA,182419.30,3721.9430169,N,07958.3320049,W,2,07,1.15,364.0101,M,-32.8285,M,0.7,0000*43"
231,0,0.000000,69.626791,"$GPGGA,182419.40,3721.9430341,N,07958.3320128,W,2,07,1.15,364.0016,M,-32.8285,M,0.8,0000*42"
233,0,0.000000,69.725614,"$GPGGA,182419.50,3721.9430610,N,07958.3320341,W,2,07,1.15,364.0422,M,-32.8285,M,0.9,0000*4D"
234,0,0.000000,69.825829,"$GPGGA,182419.60,3721.9430891,N,07958.3320275,W,2,07,1.15,364.1222,M,-32.8285,M,1.0,0000*40"
236,0,0.000000,69.926575,"$GPGGA,182419.70,3721.9431230,N,07958.3320286,W,2,07,1.15,364.0530,M,-32.8285,M,1.1,0000*49"
237,0,0.000000,70.025143,"$GPGGA,182419.80,3721.9431542,N,07958.3320259,W,2,07,1.15,364.1190,M,-32.8285,M,1.2,0000*4A"
238,0,0.000000,70.123463,"$GPGGA,182419.90,3721.9431809,N,07958.3320302,W,2,07,1.15,364.1703,M,-32.8285,M,1.3,0000*4B"
239,0,0.000000,70.252235,"$GPGGA,182420.00,3721.9431979,N,07958.3320489,W,2,07,1.15,364.1830,M,-32.8285,M,1.4,0000*42"
240,0,0.000000,70.323641,"$GPGGA,182420.10,3721.9432362,N,07958.3320444,W,2,07,1.15,364.1719,M,-32.8285,M,1.5,0000*44"
242,0,0.000000,70.425410,"$GPGGA,182420.20,3721.9432777,N,07958.3320333,W,2,07,1.15,364.1307,M,-32.8285,M,1.6,0000*48"
244,0,0.000000,70.525546,"$GPGGA,182420.30,3721.9433196,N,07958.3320328,W,2,07,1.15,364.1395,M,-32.8285,M,0.5,0000*42"
246,0,0.000000,70.625715,"$GPGGA,182420.40,3721.9433532,N,07958.3320226,W,2,07,1.15,364.1991,M,-32.8285,M,0.6,0000*4D"
247,0,0.000000,70.725475,"$GPGGA,182420.50,3721.9433713,N,07958.3320340,W,2,07,1.15,364.1553,M,-32.8285,M,0.7,0000*4F"
249,0,0.000000,70.823792,"$GPGGA,182420.60,3721.9434171,N,07958.3320635,W,2,07,1.15,364.1505,M,-32.8285,M,0.8,0000*42"
250,0,0.000000,70.921637,"$GPGGA,182420.70,3721.9434411,N,07958.3320766,W,2,07,1.15,364.1532,M,-32.8285,M,0.9,0000*42"
252,0,0.000000,71.025596,"$GPGGA,182420.80,3721.9434829,N,07958.3320830,W,2,07,1.15,364.1642,M,-32.8285,M,1.0,0000*4A"
254,0,0.000000,71.125356,"$GPGGA,182420.90,3721.9435222,N,07958.3320574,W,2,07,1.15,364.2275,M,-32.8285,M,1.1,0000*44"
255,0,0.000000,71.256169,"$GPGGA,182421.00,3721.9435634,N,07958.3321319,W,2,07,1.15,364.1078,M,-32.8285,M,1.2,0000*4C"
255,0,0.000000,71.327560,"$GPGGA,182421.10,3721.9435766,N,07958.3321383,W,2,06,1.27,364.1713,M,-32.8285,M,1.3,0000*43"
256,0,0.000000,71.425848,"$GPGGA,182421.20,3721.9435889,N,07958.3321309,W,2,07,1.15,364.1828,M,-32.8285,M,1.4,0000*4C"
257,0,0.000000,71.524467,"$GPGGA,182421.30,3721.9436097,N,07958.3321427,W,2,07,1.15,364.1858,M,-32.8285,M,0.3,0000*43"
258,0,0.000000,71.622620,"$GPGGA,182421.40,3721.9436360,N,07958.3321540,W,2,07,1.15,364.1438,M,-32.8285,M,0.4,0000*42"
260,0,0.000000,71.724000,"$GPGGA,182421.50,3721.9436624,N,07958.3321483,W,2,07,1.15,364.0936,M,-32.8285,M,0.5,0000*4B"
261,0,0.000000,71.828789,"$GPGGA,182421.60,3721.9436905,N,07958.3321316,W,2,07,1.15,364.1074,M,-32.8285,M,0.6,0000*42"
263,0,0.000000,71.925382,"$GPGGA,182421.70,3721.9437230,N,07958.3321432,W,2,07,1.15,364.1205,M,-32.8285,M,0.7,0000*4B"
264,0,0.000000,72.025460,"$GPGGA,182421.80,3721.9437630,N,07958.3321327,W,2,07,1.15,364.1391,M,-32.8285,M,0.8,0000*40"
266,0,0.000000,72.125223,"$GPGGA,182421.90,3721.9438074,N,07958.3321301,W,2,07,1.15,364.2052,M,-32.8285,M,0.9,0000*42"
268,0,0.000000,72.253003,"$GPGGA,182422.00,3721.9438205,N,07958.3320916,W,2,07,1.15,364.2929,M,-32.8285,M,1.0,0000*4C"
269,0,0.000000,72.324489,"$GPGGA,182422.10,3721.9438383,N,07958.3320861,W,2,07,1.15,364.3618,M,-32.8285,M,1.1,0000*4E"
270,0,0.000000,72.422247,"$GPGGA,182422.20,3721.9438476,N,07958.3321029,W,2,07,1.15,364.5534,M,-32.8285,M,1.2,0000*4D"
271,0,0.000000,72.525235,"$GPGGA,182422.30,3721.9438727,N,07958.3321002,W,2,07,1.15,364.5742,M,-32.8285,M,0.7,0000*45"
273,0,0.000000,72.625174,"$GPGGA,182422.40,3721.9439105,N,07958.3321026,W,2,07,1.15,364.4754,M,-32.8285,M,0.8,0000*4A"
274,0,0.000000,72.726093,"$GPGGA,182422.50,3721.9439447,N,07958.3321576,W,2,07,1.15,364.5120,M,-32.8285,M,0.9,0000*4D"
276,0,0.000000,72.826417,"$GPGGA,182422.60,3721.9439704,N,07958.3321990,W,2,07,1.15,364.5845,M,-32.8285,M,1.0,0000*4C"
277,0,0.000000,72.923189,"$GPGGA,182422.70,3721.9439911,N,07958.3322121,W,2,07,1.15,364.5830,M,-32.8285,M,1.1,0000*45"
278,0,0.000000,73.021786,"$GPGGA,182422.80,3721.9440218,N,07958.3322310,W,2,06,1.47,364.6239,M,-32.8285,M,1.2,0000*43"
280,0,0.000000,73.121379,"$GPGGA,182422.90,3721.9440520,N,07958.3322381,W,2,06,1.47,364.6349,M,-32.8285,M,1.3,0000*41"
281,0,0.000000,73.253704,"$GPGGA,182423.00,3721.9440708,N,07958.3322381,W,2,06,1.47,364.6207,M,-32.8285,M,1.4,0000*4D"
282,0,0.000000,73.325209,"$GPGGA,182423.10,3721.9440950,N,07958.3322211,W,2,06,1.47,364.6209,M,-32.8285,M,1.5,0000*48"
283,0,0.000000,73.431718,"$GPGGA,182423.20,3721.9441247,N,07958.3322710,W,2,06,1.47,364.6372,M,-32.8285,M,1.6,0000*4D"
284,0,0.000000,73.527092,"$GPGGA,182423.30,3721.9441568,N,07958.3322973,W,2,06,1.47,364.6378,M,-32.8285,M,1.7,0000*46"
284,0,0.000000,73.623231,"$GPGGA,182423.40,3721.9441719,N,07958.3323042,W,2,06,1.47,364.6287,M,-32.8285,M,0.6,0000*4E"
285,0,0.000000,73.722468,"$GPGGA,182423.50,3721.9441847,N,07958.3323059,W,2,06,1.47,364.6381,M,-32.8285,M,0.7,0000*47"
286,0,0.000000,73.822032,"$GPGGA,182423.60,3721.9441967,N,07958.3322982,W,2,06,1.47,364.6195,M,-32.8285,M,0.8,0000*41"
287,0,0.000000,73.924419,"$GPGGA,182423.70,3721.9442084,N,07958.3322985,W,2,06,1.47,364.6272,M,-32.8285,M,0.9,0000*4B"
288,0,0.000000,74.025146,"$GPGGA,182423.80,3721.9442253,N,07958.3323003,W,2,06,1.47,364.6312,M,-32.8285,M,1.0,0000*45"
289,0,0.000000,74.124590,"$GPGGA,182423.90,3721.9442449,N,07958.3323123,W,2,06,1.47,364.6268,M,-32.8285,M,1.1,0000*47"
291,0,0.000000,74.253995,"$GPGGA,182424.00,3721.9442764,N,07958.3323141,W,2,06,1.47,364.5645,M,-32.8285,M,1.2,0000*4A"
293,0,0.000000,74.325405,"$GPGGA,182424.10,3721.9442991,N,07958.3323590,W,2,06,1.47,364.5780,M,-32.8285,M,1.3,0000*4E"
294,0,0.000000,74.421570,"$GPGGA,182424.20,3721.9443173,N,07958.3323752,W,2,06,1.47,364.6076,M,-32.8285,M,1.4,0000*4E"
296,0,0.000000,74.521683,"$GPGGA,182424.30,3721.9443454,N,07958.3323932,W,2,06,1.47,364.6364,M,-32.8285,M,1.5,0000*46"
297,0,0.000000,74.620955,"$GPGGA,182424.40,3721.9443744,N,07958.3324048,W,2,06,1.47,364.6445,M,-32.8285,M,0.4,0000*44"
299,0,0.000000,74.724969,"$GPGGA,182424.50,3721.9443948,N,07958.3324269,W,2,07,1.00,364.6670,M,-32.8285,M,0.5,0000*41"
300,0,0.000000,74.824520,"$GPGGA,182424.60,3721.9444239,N,07958.3324445,W,2,07,1.00,364.6803,M,-32.8285,M,0.6,0000*49"
301,0,0.000000,74.924914,"$GPGGA,182424.70,3721.9444492,N,07958.3324389,W,2,07,1.00,364.6706,M,-32.8285,M,0.7,0000*43"
302,0,0.000000,75.022583,"$GPGGA,182424.80,3721.9444804,N,07958.3324645,W,2,06,1.13,364.6471,M,-32.8285,M,0.8,0000*45"
304,0,0.000000,75.121053,"$GPGGA,182424.90,3721.9445140,N,07958.3325246,W,2,06,1.13,364.6663,M,-32.8285,M,0.9,0000*4A"
306,0,0.000000,75.251611,"$GPGGA,182425.00,3721.9445500,N,07958.3324901,W,2,07,1.00,364.6260,M,-32.8285,M,1.0,0000*47"
307,0,0.000000,75.324558,"$GPGGA,182425.10,3721.9445825,N,07958.3325310,W,2,06,1.13,364.5162,M,-32.8285,M,1.1,0000*47"
309,0,0.000000,75.424911,"$GPGGA,182425.20,3721.9446059,N,07958.3325650,W,2,06,1.13,364.4857,M,-32.8285,M,1.2,0000*48"
310,0,0.000000,75.524575,"$GPGGA,182425.30,3721.9446467,N,07958.3325850,W,2,06,1.13,364.5262,M,-32.8285,M,1.3,0000*42"
312,0,0.000000,75.625544,"$GPGGA,182425.40,3721.9446925,N,07958.3325869,W,2,06,1.13,364.5565,M,-32.8285,M,0.8,0000*4E"
313,0,0.000000,75.723945,"$GPGGA,182425.50,3721.9447186,N,07958.3326044,W,2,06,1.13,364.5448,M,-32.8285,M,0.9,0000*44"
314,0,0.000000,75.821959,"$GPGGA,182425.60,3721.9447606,N,07958.3326270,W,2,07,1.08,364.5573,M,-32.8285,M,1.0,0000*47"
315,0,0.000000,75.921590,"$GPGGA,182425.70,3721.9447909,N,07958.3326312,W,2,07,1.08,364.6056,M,-32.8285,M,1.1,0000*43"
316,0,0.000000,76.020877,"$GPGGA,182425.80,3721.9448150,N,07958.3326379,W,2,07,1.08,364.6388,M,-32.8285,M,1.2,0000*49"
318,0,0.000000,76.124943,"$GPGGA,182425.90,3721.9448410,N,07958.3326481,W,2,07,1.08,364.6279,M,-32.8285,M,1.3,0000*47"
320,0,0.000000,76.253788,"$GPGGA,182426.00,3721.9448776,N,07958.3326520,W,2,07,1.08,364.6250,M,-32.8285,M,1.4,0000*48"
321,0,0.000000,76.325272,"$GPGGA,182426.10,3721.9449007,N,07958.3326442,W,2,07,1.08,364.6512,M,-32.8285,M,1.5,0000*4C"
323,0,0.000000,76.425404,"$GPGGA,182426.20,3721.9449262,N,07958.3326605,W,2,07,1.08,364.5914,M,-32.8285,M,1.6,0000*45"
324,0,0.000000,76.522101,"$GPGGA,182426.30,3721.9449587,N,07958.3326910,W,2,07,1.08,364.5713,M,-32.8285,M,0.5,0000*48"
326,0,0.000000,76.622479,"$GPGGA,182426.40,3721.9449730,N,07958.3327217,W,2,07,1.08,364.5148,M,-32.8285,M,0.6,0000*47"
328,0,0.000000,76.724991,"$GPGGA,182426.50,3721.9449944,N,07958.3327380,W,2,07,1.08,364.5143,M,-32.8285,M,0.7,0000*4E"
329,0,0.000000,76.835185,"$GPGGA,182426.60,3721.9450233,N,07958.3327590,W,2,07,1.08,364.5502,M,-32.8285,M,0.8,0000*47"
331,0,0.000000,76.925888,"$GPGGA,182426.70,3721.9450786,N,07958.3327648,W,2,07,1.08,364.5650,M,-32.8285,M,0.9,0000*4E"
333,0,0.000000,77.027193,"$GPGGA,182426.80,3721.9451163,N,07958.3328037,W,2,07,1.08,364.5718,M,-32.8285,M,1.0,0000*49"
334,0,0.000000,77.123095,"$GPGGA,182426.90,3721.9451370,N,07958.3328240,W,2,07,1.08,364.5251,M,-32.8285,M,1.1,0000*43"
336,0,0.000000,77.250398,"$GPGGA,182427.00,3721.9451643,N,07958.3328265,W,2,07,1.08,364.5554,M,-32.8285,M,1.2,0000*48"
337,0,0.000000,77.321819,"$GPGGA,182427.10,3721.9452023,N,07958.3328369,W,2,07,1.08,364.5861,M,-32.8285,M,1.3,0000*4D"
339,0,0.000000,77.425589,"$GPGGA,182427.20,3721.9452435,N,07958.3328211,W,2,07,1.08,364.5533,M,-32.8285,M,1.4,0000*4E"
340,0,0.000000,77.524815,"$GPGGA,182427.30,3721.9452951,N,07958.3328265,W,2,07,1.08,364.5756,M,-32.8285,M,0.3,0000*44"
342,0,0.000000,77.625178,"$GPGGA,182427.40,3721.9453250,N,07958.3328211,W,2,07,1.08,364.5952,M,-32.8285,M,0.4,0000*46"
343,0,0.000000,77.724700,"$GPGGA,182427.50,3721.9453615,N,07958.3328420,W,2,07,1.08,364.6135,M,-32.8285,M,0.5,0000*4D"
344,0,0.000000,77.824063,"$GPGGA,182427.60,3721.9453845,N,07958.3328790,W,2,07,1.08,364.6083,M,-32.8285,M,0.6,0000*42"
345,0,0.000000,77.921656,"$GPGGA,182427.70,3721.9454113,N,07958.3328801,W,2,07,1.08,364.6058,M,-32.8285,M,0.7,0000*4E"
347,0,0.000000,78.021970,"$GPGGA,182427.80,3721.9454396,N,07958.3328876,W,2,07,1.08,364.6786,M,-32.8285,M,0.8,0000*45"
348,0,0.000000,78.125575,"$GPGGA,182427.90,3721.9454598,N,07958.3329134,W,2,06,1.43,364.6594,M,-32.8285,M,0.9,0000*4C"
350,0,0.000000,78.253980,"$GPGGA,182428.00,3721.9454702,N,07958.3329319,W,2,06,1.43,364.6916,M,-32.8285,M,1.0,0000*48"
351,0,0.000000,78.326000,"$GPGGA,182428.10,3721.9455075,N,07958.3329479,W,2,07,1.08,364.7188,M,-32.8285,M,1.1,0000*4F"
353,0,0.000000,78.425184,"$GPGGA,182428.20,3721.9455100,N,07958.3329430,W,2,07,1.08,364.7941,M,-32.8285,M,1.2,0000*4C"
355,0,0.000000,78.525452,"$GPGGA,182428.30,3721.9455623,N,07958.3329302,W,2,07,1.08,364.5925,M,-32.8285,M,0.7,0000*49"
356,0,0.000000,78.625658,"$GPGGA,182428.40,3721.9456043,N,07958.3329622,W,2,07,1.08,364.6204,M,-32.8285,M,0.8,0000*4E"
358,0,0.000000,78.723338,"$GPGGA,182428.50,3721.9456296,N,07958.3329792,W,2,07,1.08,364.6408,M,-32.8285,M,0.9,0000*44"
360,0,0.000000,78.825652,"$GPGGA,182428.60,3721.9456444,N,07958.3330049,W,2,06,1.43,364.6929,M,-32.8285,M,1.0,0000*4F"
361,0,0.000000,78.925572,"$GPGGA,182428.70,3721.9456775,N,07958.3330313,W,2,07,1.08,364.6883,M,-32.8285,M,1.1,0000*4D"
362,0,0.000000,79.024761,"$GPGGA,182428.80,3721.9457163,N,07958.3330400,W,2,07,1.08,364.6988,M,-32.8285,M,1.2,0000*4E"
364,0,0.000000,79.125126,"$GPGGA,182428.90,3721.9457549,N,07958.3330610,W,2,07,1.08,364.7203,M,-32.8285,M,1.3,0000*48"
365,0,0.000000,79.253309,"$GPGGA,182429.00,3721.9457765,N,07958.3330718,W,2,07,1.08,364.7698,M,-32.8285,M,1.4,0000*44"
366,0,0.000000,79.326611,"$GPGGA,182429.10,3721.9457874,N,07958.3330908,W,2,07,1.08,364.8129,M,-32.8285,M,1.5,0000*46"
367,0,0.000000,79.422131,"$GPGGA,182429.20,3721.9458082,N,07958.3331176,W,2,06,1.43,364.8048,M,-32.8285,M,1.6,0000*40"
368,0,0.000000,79.525992,"$GPGGA,182429.30,3721.9458316,N,07958.3331379,W,2,06,1.43,364.8275,M,-32.8285,M,0.5,0000*4C"
369,0,0.000000,79.625693,"$GPGGA,182429.40,3721.9458567,N,07958.3331419,W,2,06,1.43,364.8500,M,-32.8285,M,0.6,0000*4C"
370,0,0.000000,79.724850,"$GPGGA,182429.50,3721.9458838,N,07958.3331454,W,2,06,1.43,364.8157,M,-32.8285,M,0.7,0000*44"
371,0,0.000000,79.824831,"$GPGGA,182429.60,3721.9459051,N,07958.3331463,W,2,06,1.43,364.7999,M,-32.8285,M,0.8,0000*4F"
372,0,0.000000,79.931801,"$GPGGA,182429.70,3721.9459254,N,07958.3331497,W,2,06,1.43,364.7828,M,-32.8285,M,0.9,0000*48"
373,0,0.000000,80.021756,"$GPGGA,182429.80,3721.9459350,N,07958.3331675,W,2,06,1.43,364.7734,M,-32.8285,M,1.0,0000*46"
375,0,0.000000,80.121037,"$GPGGA,182429.90,3721.9459573,N,07958.3332025,W,2,06,1.43,364.7912,M,-32.8285,M,1.1,0000*4B"
376,0,0.000000,80.249684,"$GPGGA,182430.00,3721.9459899,N,07958.3332146,W,2,06,1.43,364.8191,M,-32.8285,M,1.2,0000*48"
376,0,0.000000,80.325094,"$GPGGA,182430.10,3721.9459995,N,07958.3332273,W,2,06,1.43,364.8388,M,-32.8285,M,1.3,0000*4A"
377,0,0.000000,80.424600,"$GPGGA,182430.20,3721.9460018,N,07958.3332521,W,2,06,1.43,364.8162,M,-32.8285,M,1.4,0000*4E"
377,0,0.000000,80.524987,"$GPGGA,182430.30,3721.9460076,N,07958.3332661,W,2,06,1.43,364.8018,M,-32.8285,M,0.3,0000*4A"
378,0,0.000000,80.623661,"$GPGGA,182430.40,3721.9460244,N,07958.3332836,W,2,06,1.43,364.7774,M,-32.8285,M,0.4,0000*47"
380,0,0.000000,80.721627,"$GPGGA,182430.50,3721.9460386,N,07958.3332990,W,2,06,1.43,364.7648,M,-32.8285,M,0.5,0000*4B"
381,0,0.000000,80.822281,"$GPGGA,182430.60,3721.9460556,N,07958.3333034,W,2,06,1.43,364.7734,M,-32.8285,M,0.6,0000*4C"
382,0,0.000000,80.922296,"$GPGGA,182430.70,3721.9460853,N,07958.3333043,W,2,06,1.43,364.7933,M,-32.8285,M,0.7,0000*4D"
384,0,0.000000,81.025646,"$GPGGA,182430.80,3721.9461069,N,07958.3333232,W,2,06,1.43,364.8141,M,-32.8285,M,0.8,0000*4B"
386,0,0.000000,81.125174,"$GPGGA,182430.90,3721.9461419,N,07958.3333532,W,2,06,1.43,364.7654,M,-32.8285,M,0.9,0000*43"
388,0,0.000000,81.255686,"$GPGGA,182431.00,3721.9461805,N,07958.3333657,W,2,06,1.43,364.8142,M,-32.8285,M,1.0,0000*4D"
389,0,0.000000,81.325472,"$GPGGA,182431.10,3721.9461980,N,07958.3333822,W,2,06,1.43,364.8080,M,-32.8285,M,1.1,0000*42"
390,0,0.000000,81.421802,"$GPGGA,182431.20,3721.9462177,N,07958.3333962,W,2,06,1.43,364.7748,M,-32.8285,M,1.2,0000*48"
392,0,0.000000,81.521125,"$GPGGA,182431.30,3721.9462501,N,07958.3334042,W,2,06,1.43,364.8233,M,-32.8285,M,0.7,0000*42"
393,0,0.000000,81.621351,"$GPGGA,182431.40,3721.9462847,N,07958.3333942,W,2,06,1.43,364.8597,M,-32.8285,M,0.8,0000*42"
395,0,0.000000,81.725508,"$GPGGA,182431.50,3721.9463044,N,07958.3333868,W,2,06,1.43,365.0177,M,-32.8285,M,0.9,0000*42"
396,0,0.000000,81.825193,"$GPGGA,182431.60,3721.9463269,N,07958.3334116,W,2,06,1.43,365.0784,M,-32.8285,M,1.0,0000*49"
398,0,0.000000,81.925257,"$GPGGA,182431.70,3721.9463417,N,07958.3334420,W,2,06,1.43,365.0746,M,-32.8285,M,1.1,0000*48"
399,0,0.000000,82.024441,"$GPGGA,182431.80,3721.9463822,N,07958.3334607,W,2,06,1.43,365.0671,M,-32.8285,M,1.2,0000*4C"
401,0,0.000000,82.121734,"$GPGGA,182431.90,3721.9464028,N,07958.3335167,W,2,06,1.43,364.8835,M,-32.8285,M,1.3,0000*4E"
403,0,0.000000,82.250306,"$GPGGA,182432.00,3721.9464288,N,07958.3335342,W,2,06,1.43,364.8857,M,-32.8285,M,1.4,0000*4A"
404,0,0.000000,82.325694,"$GPGGA,182432.10,3721.9464559,N,07958.3335635,W,2,06,1.43,364.8763,M,-32.8285,M,1.5,0000*4C"
405,0,0.000000,82.425299,"$GPGGA,182432.20,3721.9464936,N,07958.3335717,W,2,06,1.43,364.8871,M,-32.8285,M,1.6,0000*44"
407,0,0.000000,82.525249,"$GPGGA,182432.30,3721.9465181,N,07958.3335938,W,2,06,1.43,364.8558,M,-32.8285,M,1.7,0000*44"
408,0,0.000000,82.624609,"$GPGGA,182432.40,3721.9465573,N,07958.3335959,W,2,06,1.43,364.8790,M,-32.8285,M,0.6,0000*4B"
410,0,0.000000,82.724359,"$GPGGA,182432.50,3721.9465993,N,07958.3335947,W,2,06,1.43,364.9172,M,-32.8285,M,0.7,0000*4D"
411,0,0.000000,82.821888,"$GPGGA,182432.60,3721.9466387,N,07958.3336149,W,2,06,1.43,364.9364,M,-32.8285,M,0.8,0000*4D"
412,0,0.000000,82.921009,"$GPGGA,182432.70,3721.9466515,N,07958.3336484,W,2,06,1.43,364.9474,M,-32.8285,M,0.9,0000*42"
414,0,0.000000,83.020760,"$GPGGA,182432.80,3721.9466749,N,07958.3336609,W,2,06,1.43,364.9688,M,-32.8285,M,1.0,0000*48"
415,0,0.000000,83.124981,"$GPGGA,182432.90,3721.9467034,N,07958.3336802,W,2,06,1.43,364.9737,M,-32.8285,M,1.1,0000*44"
417,0,0.000000,83.252585,"$GPGGA,182433.00,3721.9467193,N,07958.3337040,W,2,06,1.43,364.9674,M,-32.8285,M,1.2,0000*4A"
419,0,0.000000,83.324285,"$GPGGA,182433.10,3721.9467512,N,07958.3337027,W,2,06,1.43,365.0046,M,-32.8285,M,1.3,0000*49"
420,0,0.000000,83.424028,"$GPGGA,182433.20,3721.9467834,N,07958.3337274,W,2,06,1.43,364.9381,M,-32.8285,M,1.4,0000*40"
422,0,0.000000,83.522245,"$GPGGA,182433.30,3721.9468100,N,07958.3337385,W,2,06,1.43,364.9630,M,-32.8285,M,1.5,0000*41"
423,0,0.000000,83.621912,"$GPGGA,182433.40,3721.9468391,N,07958.3337577,W,2,06,1.43,364.9776,M,-32.8285,M,0.4,0000*44"
424,0,0.000000,83.721998,"$GPGGA,182433.50,3721.9468681,N,07958.3337703,W,2,06,1.43,364.9623,M,-32.8285,M,0.5,0000*40"
426,0,0.000000,83.825345,"$GPGGA,182433.60,3721.9469013,N,07958.3337919,W,2,06,1.43,365.0231,M,-32.8285,M,0.6,0000*46"
427,0,0.000000,83.925203,"$GPGGA,182433.70,3721.9469138,N,07958.3338164,W,2,06,1.43,365.0085,M,-32.8285,M,0.7,0000*4E"
429,0,0.000000,84.024413,"$GPGGA,182433.80,3721.9469359,N,07958.3338291,W,2,06,1.43,365.0104,M,-32.8285,M,0.8,0000*4A"
431,0,0.000000,84.123870,"$GPGGA,182433.90,3721.9469766,N,07958.3338537,W,2,06,1.43,364.9943,M,-32.8285,M,0.9,0000*4A"
433,0,0.000000,84.249608,"$GPGGA,182434.00,3721.9470110,N,07958.3338659,W,2,06,1.43,365.0089,M,-32.8285,M,1.0,0000*4F"
434,0,0.000000,84.321035,"$GPGGA,182434.10,3721.9470507,N,07958.3338914,W,2,06,1.43,364.9712,M,-32.8285,M,1.1,0000*46"
435,0,0.000000,84.421024,"$GPGGA,182434.20,3721.9470819,N,07958.3339084,W,2,06,1.43,364.9968,M,-32.8285,M,1.2,0000*46"
436,0,0.000000,84.524257,"$GPGGA,182434.30,3721.9471046,N,07958.3339242,W,2,06,1.43,365.0023,M,-32.8285,M,1.3,0000*43"
438,0,0.000000,84.624612,"$GPGGA,182434.40,3721.9471249,N,07958.3339389,W,2,06,1.43,365.0026,M,-32.8285,M,0.8,0000*40"
439,0,0.000000,84.724421,"$GPGGA,182434.50,3721.9471572,N,07958.3339462,W,2,06,1.43,365.0181,M,-32.8285,M,0.9,0000*41"
441,0,0.000000,84.824383,"$GPGGA,182434.60,3721.9471810,N,07958.3339594,W,2,06,1.43,365.0246,M,-32.8285,M,1.0,0000*43"
442,0,0.000000,84.922365,"$GPGGA,182434.70,3721.9472102,N,07958.3339736,W,2,06,1.43,365.0257,M,-32.8285,M,1.1,0000*40"
444,0,0.000000,85.023567,"$GPGGA,182434.80,3721.9472453,N,07958.3339894,W,2,06,1.43,365.0604,M,-32.8285,M,1.2,0000*48"
445,0,0.000000,85.121777,"$GPGGA,182434.90,3721.9472673,N,07958.3340148,W,2,06,1.43,365.1109,M,-32.8285,M,1.3,0000*45"
447,0,0.000000,85.253002,"$GPGGA,182435.00,3721.9472917,N,07958.3340340,W,2,06,1.43,365.1227,M,-32.8285,M,1.4,0000*42"
448,0,0.000000,85.324479,"$GPGGA,182435.10,3721.9473358,N,07958.3340431,W,2,06,1.43,365.1308,M,-32.8285,M,1.5,0000*4F"
450,0,0.000000,85.425013,"$GPGGA,182435.20,3721.9473467,N,07958.3340882,W,2,06,1.43,365.0436,M,-32.8285,M,1.6,0000*4B"
451,0,0.000000,85.524137,"$GPGGA,182435.30,3721.9473758,N,07958.3340749,W,2,06,1.43,365.0635,M,-32.8285,M,1.7,0000*4D"
453,0,0.000000,85.622059,"$GPGGA,182435.40,3721.9474306,N,07958.3340632,W,2,06,1.43,365.1504,M,-32.8285,M,0.6,0000*4F"
454,0,0.000000,85.720372,"$GPGGA,182435.50,3721.9474478,N,07958.3340868,W,2,06,1.43,365.1291,M,-32.8285,M,0.7,0000*4B"
455,0,0.000000,85.820897,"$GPGGA,182435.60,3721.9474753,N,07958.3340949,W,2,06,1.43,365.1043,M,-32.8285,M,0.8,0000*42"
456,0,0.000000,85.924734,"$GPGGA,182435.70,3721.9475095,N,07958.3341065,W,2,06,1.43,365.1570,M,-32.8285,M,0.9,0000*4D"
458,0,0.000000,86.024522,"$GPGGA,182435.80,3721.9475607,N,07958.3340983,W,2,06,1.43,365.2881,M,-32.8285,M,1.0,0000*47"
459,0,0.000000,86.124875,"$GPGGA,182435.90,3721.9476014,N,07958.3341239,W,2,06,1.43,365.4405,M,-32.8285,M,1.1,0000*4D"
460,0,0.000000,86.252467,"$GPGGA,182436.00,3721.9476308,N,07958.3341108,W,2,06,1.43,365.4120,M,-32.8285,M,1.2,0000*49"
461,0,0.000000,86.323957,"$GPGGA,182436.10,3721.9476527,N,07958.3341041,W,2,06,1.43,365.4375,M,-32.8285,M,1.3,0000*4C"
462,0,0.000000,86.421113,"$GPGGA,182436.20,3721.9476805,N,07958.3340945,W,2,05,2.39,365.4674,M,-32.8285,M,1.4,0000*40"
464,0,0.000000,86.521147,"$GPGGA,182436.30,3721.9477179,N,07958.3340917,W,2,05,2.39,365.5369,M,-32.8285,M,1.5,0000*4C"
465,0,0.000000,86.625598,"$GPGGA,182436.40,3721.9477338,N,07958.3341063,W,2,06,1.43,365.5765,M,-32.8285,M,0.4,0000*42"
466,0,0.000000,86.735211,"$GPGGA,182436.50,3721.9477559,N,07958.3341109,W,2,06,1.43,365.5594,M,-32.8285,M,0.5,0000*42"
468,0,0.000000,86.825418,"$GPGGA,182436.60,3721.9477691,N,07958.3341163,W,2,06,1.43,365.6246,M,-32.8285,M,0.6,0000*42"
469,0,0.000000,86.924883,"$GPGGA,182436.70,3721.9477485,N,07958.3341721,W,2,06,1.43,365.5131,M,-32.8285,M,0.7,0000*45"
470,0,0.000000,87.022089,"$GPGGA,182436.80,3721.9477556,N,07958.3341674,W,2,06,1.43,365.6403,M,-32.8285,M,0.8,0000*4C"
472,0,0.000000,87.121581,"$GPGGA,182436.90,3721.9477748,N,07958.3341815,W,2,06,1.43,365.6662,M,-32.8285,M,0.9,0000*4D"
473,0,0.000000,87.248742,"$GPGGA,182437.00,3721.9478293,N,07958.3341854,W,2,06,1.43,365.5725,M,-32.8285,M,1.0,0000*45"
473,0,0.000000,87.320784,"$GPGGA,182437.10,3721.9478451,N,07958.3341975,W,2,06,1.43,365.5748,M,-32.8285,M,1.1,0000*44"
474,0,0.000000,87.424268,"$GPGGA,182437.20,3721.9478556,N,07958.3342171,W,2,06,1.43,365.5645,M,-32.8285,M,1.2,0000*41"
475,0,0.000000,87.524484,"$GPGGA,182437.30,3721.9478627,N,07958.3342364,W,2,06,1.43,365.5635,M,-32.8285,M,0.7,0000*40"
475,0,0.000000,87.624577,"$GPGGA,182437.40,3721.9478732,N,07958.3342475,W,2,06,1.43,365.5686,M,-32.8285,M,0.8,0000*42"
476,0,0.000000,87.721789,"$GPGGA,182437.50,3721.9478928,N,07958.3342592,W,2,06,1.43,365.5730,M,-32.8285,M,0.9,0000*43"
478,0,0.000000,87.821834,"$GPGGA,182437.60,3721.9479014,N,07958.3342405,W,2,05,2.04,365.7343,M,-32.8285,M,1.0,0000*41"
479,0,0.000000,87.921830,"$GPGGA,182437.70,3721.9479642,N,07958.3342195,W,2,05,2.04,365.8676,M,-32.8285,M,1.1,0000*44"
481,0,0.000000,88.025216,"$GPGGA,182437.80,3721.9480521,N,07958.3344008,W,2,05,2.04,365.0591,M,-32.8285,M,1.2,0000*49"
482,0,0.000000,88.124641,"$GPGGA,182437.90,3721.9480727,N,07958.3344116,W,2,05,2.04,365.1050,M,-32.8285,M,1.3,0000*4A"
482,0,0.000000,88.251030,"$GPGGA,182438.00,3721.9480530,N,07958.3343473,W,2,05,2.04,365.5870,M,-32.8285,M,1.4,0000*40"
483,0,0.000000,88.337128,"$GPGGA,182438.10,3721.9480863,N,07958.3343371,W,2,05,2.04,365.6196,M,-32.8285,M,1.5,0000*4C"
484,0,0.000000,88.424997,"$GPGGA,182438.20,3721.9481186,N,07958.3343205,W,2,05,2.04,365.6852,M,-32.8285,M,1.6,0000*4C"
485,0,0.000000,88.520798,"$GPGGA,182438.30,3721.9481251,N,07958.3343477,W,2,05,2.04,365.6386,M,-32.8285,M,0.5,0000*47"
487,0,0.000000,88.620236,"$GPGGA,182438.40,3721.9481357,N,07958.3343654,W,2,05,2.04,365.6436,M,-32.8285,M,0.6,0000*4B"
488,0,0.000000,88.720512,"$GPGGA,182438.50,3721.9481582,N,07958.3343763,W,2,05,2.04,365.6439,M,-32.8285,M,0.7,0000*4F"
489,0,0.000000,88.827389,"$GPGGA,182438.60,3721.9481863,N,07958.3343848,W,2,05,2.04,365.6246,M,-32.8285,M,0.8,0000*49"
490,0,0.000000,88.924181,"$GPGGA,182438.70,3721.9482199,N,07958.3343921,W,2,05,2.04,365.5914,M,-32.8285,M,0.9,0000*47"
491,0,0.000000,89.023985,"$GPGGA,182438.80,3721.9482451,N,07958.3344261,W,2,05,2.04,365.5388,M,-32.8285,M,1.0,0000*46"
492,0,0.000000,89.122231,"$GPGGA,182438.90,3721.9482813,N,07958.3344493,W,2,05,2.04,365.4995,M,-32.8285,M,1.1,0000*40"
494,0,0.000000,89.248284,"$GPGGA,182439.00,3721.9483159,N,07958.3344484,W,2,05,2.04,365.4824,M,-32.8285,M,1.2,0000*40"
496,0,0.000000,89.320993,"$GPGGA,182439.10,3721.9483513,N,07958.3344182,W,2,05,2.04,365.5514,M,-32.8285,M,1.3,0000*46"
497,0,0.000000,89.420598,"$GPGGA,182439.20,3721.9483695,N,07958.3344246,W,2,05,2.04,365.6084,M,-32.8285,M,1.4,0000*4B"
499,0,0.000000,89.523980,"$GPGGA,182439.30,3721.9483897,N,07958.3344669,W,2,05,2.04,365.6042,M,-32.8285,M,0.3,0000*43"
501,0,0.000000,89.624448,"$GPGGA,182439.40,3721.9484131,N,07958.3344673,W,2,05,2.04,365.6342,M,-32.8285,M,0.4,0000*49"
502,0,0.000000,89.723933,"$GPGGA,182439.50,3721.9484324,N,07958.3344964,W,2,05,2.04,365.6482,M,-32.8285,M,0.5,0000*4D"
503,0,0.000000,89.821636,"$GPGGA,182439.60,3721.9484522,N,07958.3345536,W,2,05,2.04,365.6359,M,-32.8285,M,0.6,0000*46"
504,0,0.000000,89.920341,"$GPGGA,182439.70,3721.9484606,N,07958.3345612,W,2,05,2.04,365.7193,M,-32.8285,M,0.7,0000*43"
505,0,0.000000,90.020807,"$GPGGA,182439.80,3721.9484814,N,07958.3345811,W,2,05,2.04,365.7075,M,-32.8285,M,0.8,0000*4A"
506,0,0.000000,90.120297,"$GPGGA,182439.90,3721.9485102,N,07958.3345869,W,2,05,2.04,365.6579,M,-32.8285,M,0.9,0000*42"
507,0,0.000000,90.250768,"$GPGGA,182440.00,3721.9485399,N,07958.3345990,W,2,05,2.04,365.4996,M,-32.8285,M,1.0,0000*45"
508,0,0.000000,90.324135,"$GPGGA,182440.10,3721.9485396,N,07958.3346363,W,2,05,2.04,365.4736,M,-32.8285,M,1.1,0000*4B"
509,0,0.000000,90.424568,"$GPGGA,182440.20,3721.9485487,N,07958.3346637,W,2,05,2.04,365.4657,M,-32.8285,M,1.2,0000*4E"
510,0,0.000000,90.525475,"$GPGGA,182440.30,3721.9485583,N,07958.3346866,W,2,05,2.04,365.4859,M,-32.8285,M,0.7,0000*44"
511,0,0.000000,90.624632,"$GPGGA,182440.40,3721.9485666,N,07958.3346550,W,2,05,2.04,365.3118,M,-32.8285,M,0.8,0000*47"
512,0,0.000000,90.721143,"$GPGGA,182440.50,3721.9485214,N,07958.3346299,W,2,05,2.04,365.5766,M,-32.8285,M,0.9,0000*4D"
513,0,0.000000,90.820314,"$GPGGA,182440.60,3721.9485632,N,07958.3346419,W,2,05,2.04,365.4472,M,-32.8285,M,1.0,0000*4F"
514,0,0.000000,90.925295,"$GPGGA,182440.70,3721.9486042,N,07958.3346464,W,2,05,2.04,365.4788,M,-32.8285,M,1.1,0000*41"
515,0,0.000000,91.024002,"$GPGGA,182440.80,3721.9486071,N,07958.3346714,W,2,05,2.04,365.4747,M,-32.8285,M,1.2,0000*4A"
516,0,0.000000,91.124078,"$GPGGA,182440.90,3721.9486379,N,07958.3347055,W,2,05,2.04,365.4084,M,-32.8285,M,1.3,0000*4A"
517,0,0.000000,91.250367,"$GPGGA,182441.00,3721.9487578,N,07958.3346402,W,2,05,2.04,365.4211,M,-32.8285,M,1.4,0000*4A"
518,0,0.000000,91.321892,"$GPGGA,182441.10,3721.9487879,N,07958.3346466,W,2,05,2.04,365.4140,M,-32.8285,M,1.5,0000*43"
518,0,0.000000,91.420661,"$GPGGA,182441.20,3721.9487979,N,07958.3346640,W,2,05,2.04,365.3870,M,-32.8285,M,1.6,0000*49"
520,0,0.000000,91.520210,"$GPGGA,182441.30,3721.9488250,N,07958.3346963,W,2,05,2.04,365.4081,M,-32.8285,M,0.5,0000*4A"
521,0,0.000000,91.635328,"$GPGGA,182441.40,3721.9488298,N,07958.3347256,W,2,05,2.04,365.4499,M,-32.8285,M,0.6,0000*4B"
523,0,0.000000,91.724637,"$GPGGA,182441.50,3721.9488122,N,07958.3347759,W,2,05,2.04,365.4399,M,-32.8285,M,0.7,0000*44"
525,0,0.000000,91.824252,"$GPGGA,182441.60,3721.9488238,N,07958.3347663,W,2,05,2.04,365.4567,M,-32.8285,M,0.8,0000*4F"
526,0,0.000000,91.922100,"$GPGGA,182441.70,3721.9488521,N,07958.3347844,W,2,05,2.04,365.4653,M,-32.8285,M,0.9,0000*4F"
527,0,0.000000,92.020960,"$GPGGA,182441.80,3721.9488709,N,07958.3347890,W,2,05,2.04,365.4326,M,-32.8285,M,1.0,0000*4E"
529,0,0.000000,92.121170,"$GPGGA,182441.90,3721.9489050,N,07958.3347991,W,2,05,2.04,365.4136,M,-32.8285,M,1.1,0000*47"
530,0,0.000000,92.254278,"$GPGGA,182442.00,3721.9489253,N,07958.3348191,W,2,05,2.04,365.3925,M,-32.8285,M,1.2,0000*45"
531,0,0.000000,92.324287,"$GPGGA,182442.10,3721.9488996,N,07958.3348203,W,2,05,2.04,365.2633,M,-32.8285,M,1.3,0000*47"
532,0,0.000000,92.424517,"$GPGGA,182442.20,3721.9489810,N,07958.3348375,W,2,05,2.04,365.4268,M,-32.8285,M,1.4,0000*41"
533,0,0.000000,92.524214,"$GPGGA,182442.30,3721.9489741,N,07958.3348436,W,2,05,2.04,365.4027,M,-32.8285,M,1.5,0000*43"
533,0,0.000000,92.622943,"$GPGGA,182442.40,3721.9489637,N,07958.3348577,W,2,05,2.04,365.3883,M,-32.8285,M,0.4,0000*41"
535,0,0.000000,92.722283,"$GPGGA,182442.50,3721.9489806,N,07958.3348746,W,2,05,2.04,365.4024,M,-32.8285,M,0.5,0000*4F"
536,0,0.000000,92.824016,"$GPGGA,182442.60,3721.9490179,N,07958.3348968,W,2,05,2.04,365.4271,M,-32.8285,M,0.6,0000*46"
537,0,0.000000,92.921423,"$GPGGA,182442.70,3721.9490264,N,07958.3348978,W,2,05,2.04,365.4231,M,-32.8285,M,0.7,0000*4C"
538,0,0.000000,93.024144,"$GPGGA,182442.80,3721.9490484,N,07958.3349225,W,2,05,2.04,365.4242,M,-32.8285,M,0.8,0000*42"
540,0,0.000000,93.124355,"$GPGGA,182442.90,3721.9490784,N,07958.3349675,W,2,05,2.04,365.4372,M,-32.8285,M,0.9,0000*42"
541,0,0.000000,93.250640,"$GPGGA,182443.00,3721.9490982,N,07958.3349737,W,2,05,2.04,365.4813,M,-32.8285,M,1.0,0000*41"
542,0,0.000000,93.324321,"$GPGGA,182443.10,3721.9491450,N,07958.3350025,W,2,05,2.04,365.4585,M,-32.8285,M,1.1,0000*4C"
543,0,0.000000,93.420626,"$GPGGA,182443.20,3721.9491385,N,07958.3350043,W,2,05,2.04,365.4417,M,-32.8285,M,1.2,0000*49"
543,0,0.000000,93.520303,"$GPGGA,182443.30,3721.9491430,N,07958.3350173,W,2,05,2.04,365.4397,M,-32.8285,M,1.3,0000*4D"
544,0,0.000000,93.620709,"$GPGGA,182443.40,3721.9491579,N,07958.3350331,W,2,05,2.04,365.4410,M,-32.8285,M,0.8,0000*40"
545,0,0.000000,93.723223,"$GPGGA,182443.50,3721.9491729,N,07958.3350476,W,2,05,2.04,365.4398,M,-32.8285,M,0.9,0000*44"
546,0,0.000000,93.824353,"$GPGGA,182443.60,3721.9491874,N,07958.3350597,W,2,05,2.04,365.4133,M,-32.8285,M,1.0,0000*45"
547,0,0.000000,93.925647,"$GPGGA,182443.70,3721.9491881,N,07958.3350589,W,2,05,2.04,365.3696,M,-32.8285,M,1.1,0000*4F"
548,0,0.000000,94.023522,"$GPGGA,182443.80,3721.9492410,N,07958.3350698,W,2,05,2.04,365.4689,M,-32.8285,M,1.2,0000*4E"
549,0,0.000000,94.120584,"$GPGGA,182443.90,3721.9492858,N,07958.3350650,W,2,05,2.04,365.5320,M,-32.8285,M,1.3,0000*4D"
550,0,0.000000,94.247557,"$GPGGA,182444.00,3721.9493142,N,07958.3350663,W,2,05,2.04,365.5144,M,-32.8285,M,1.4,0000*47"
551,0,0.000000,94.321306,"$GPGGA,182444.10,3721.9493242,N,07958.3350934,W,2,05,2.04,365.4728,M,-32.8285,M,1.5,0000*44"
553,0,0.000000,94.423869,"$GPGGA,182444.20,3721.9493592,N,07958.3350940,W,2,05,2.04,365.4858,M,-32.8285,M,1.6,0000*45"
554,0,0.000000,94.524086,"$GPGGA,182444.30,3721.9494011,N,07958.3351163,W,2,05,2.04,365.5555,M,-32.8285,M,1.7,0000*45"
555,0,0.000000,94.623923,"$GPGGA,182444.40,3721.9494383,N,07958.3351350,W,2,05,2.04,365.5938,M,-32.8285,M,0.6,0000*4F"
556,0,0.000000,94.724668,"$GPGGA,182444.50,3721.9494347,N,07958.3351543,W,2,05,2.04,365.5505,M,-32.8285,M,0.7,0000*41"
557,0,0.000000,94.820376,"$GPGGA,182444.60,3721.9494464,N,07958.3351628,W,2,05,2.04,365.5543,M,-32.8285,M,0.8,0000*47"
559,0,0.000000,94.920253,"$GPGGA,182444.70,3721.9494845,N,07958.3351930,W,2,05,2.04,365.5668,M,-32.8285,M,0.9,0000*44"
560,0,0.000000,95.020410,"$GPGGA,182444.80,3721.9495159,N,07958.3352209,W,2,05,2.04,365.5972,M,-32.8285,M,1.0,0000*40"
561,0,0.000000,95.124406,"$GPGGA,182444.90,3721.9495318,N,07958.3352278,W,2,04,2.18,365.6341,M,-32.8285,M,1.1,0000*44"
563,0,0.000000,95.250260,"$GPGGA,182445.00,3721.9495445,N,07958.3352538,W,2,04,2.18,365.6316,M,-32.8285,M,1.2,0000*41"
564,0,0.000000,95.324354,"$GPGGA,182445.10,3721.9495614,N,07958.3352883,W,2,04,2.18,365.6227,M,-32.8285,M,1.3,0000*49"
565,0,0.000000,95.422918,"$GPGGA,182445.20,3721.9495684,N,07958.3353061,W,2,04,2.18,365.6066,M,-32.8285,M,1.4,0000*46"
566,0,0.000000,95.521491,"$GPGGA,182445.30,3721.9496131,N,07958.3353052,W,2,04,2.18,365.6135,M,-32.8285,M,0.3,0000*4C"
568,0,0.000000,95.621523,"$GPGGA,182445.40,3721.9496373,N,07958.3353033,W,2,04,2.18,365.6301,M,-32.8285,M,0.4,0000*4A"
569,0,0.000000,95.720798,"$GPGGA,182445.50,3721.9496775,N,07958.3353224,W,2,04,2.18,365.7019,M,-32.8285,M,0.5,0000*47"
571,0,0.000000,95.825185,"$GPGGA,182445.60,3721.9497371,N,07958.3353526,W,2,05,2.04,365.8081,M,-32.8285,M,0.6,0000*41"
573,0,0.000000,95.923873,"$GPGGA,182445.70,3721.9497345,N,07958.3353547,W,2,05,2.04,365.7649,M,-32.8285,M,0.7,0000*4C"
576,0,0.000000,96.025380,"$GPGGA,182445.80,3721.9497485,N,07958.3353770,W,2,05,2.04,365.6835,M,-32.8285,M,0.8,0000*45"
577,0,0.000000,96.123357,"$GPGGA,182445.90,3721.9497657,N,07958.3353945,W,2,05,2.04,365.6723,M,-32.8285,M,0.9,0000*48"
579,0,0.000000,96.248233,"$GPGGA,182446.00,3721.9497837,N,07958.3354433,W,2,05,2.04,365.6085,M,-32.8285,M,1.0,0000*42"
581,0,0.000000,96.320713,"$GPGGA,182446.10,3721.9497394,N,07958.3354653,W,2,05,2.04,365.4558,M,-32.8285,M,1.1,0000*43"
582,0,0.000000,96.420224,"$GPGGA,182446.20,3721.9497890,N,07958.3355204,W,2,05,2.04,365.5293,M,-32.8285,M,1.2,0000*4A"
584,0,0.000000,96.524280,"$GPGGA,182446.30,3721.9498544,N,07958.3355425,W,2,05,2.04,365.6349,M,-32.8285,M,0.7,0000*44"
585,0,0.000000,96.623411,"$GPGGA,182446.40,3721.9498630,N,07958.3355573,W,2,05,2.04,365.5695,M,-32.8285,M,0.8,0000*49"
586,0,0.000000,96.723771,"$GPGGA,182446.50,3721.9499426,N,07958.3355616,W,2,05,2.03,365.6219,M,-32.8285,M,0.9,0000*49"
588,0,0.000000,96.823171,"$GPGGA,182446.60,3721.9499504,N,07958.3355812,W,2,04,2.41,365.6179,M,-32.8285,M,1.0,0000*4B"
589,0,0.000000,96.921402,"$GPGGA,182446.70,3721.9499686,N,07958.3355933,W,2,05,2.03,365.6363,M,-32.8285,M,1.1,0000*4E"
591,0,0.000000,97.021152,"$GPGGA,182446.80,3721.9499809,N,07958.3356382,W,2,05,2.03,365.6345,M,-32.8285,M,1.2,0000*4C"
592,0,0.000000,97.120689,"$GPGGA,182446.90,3721.9499926,N,07958.3356617,W,2,05,2.03,365.6371,M,-32.8285,M,1.3,0000*4E"
593,0,0.000000,97.251440,"$GPGGA,182447.00,3721.9500092,N,07958.3356618,W,2,05,2.03,365.6344,M,-32.8285,M,1.4,0000*4F"
594,0,0.000000,97.324068,"$GPGGA,182447.10,3721.9500447,N,07958.3356836,W,2,05,2.03,365.6508,M,-32.8285,M,1.5,0000*4F"
596,0,0.000000,97.423338,"$GPGGA,182447.20,3721.9500819,N,07958.3357092,W,2,05,2.03,365.6503,M,-32.8285,M,1.6,0000*44"
597,0,0.000000,97.523311,"$GPGGA,182447.30,3721.9501071,N,07958.3357404,W,2,05,2.03,365.6982,M,-32.8285,M,0.5,0000*4E"
598,0,0.000000,97.621156,"$GPGGA,182447.40,3721.9501420,N,07958.3357911,W,2,05,2.03,365.7928,M,-32.8285,M,0.6,0000*42"
600,0,0.000000,97.720606,"$GPGGA,182447.50,3721.9501554,N,07958.3358013,W,2,05,2.03,365.8052,M,-32.8285,M,0.7,0000*4F"
602,0,0.000000,97.819937,"$GPGGA,182447.60,3721.9502254,N,07958.3358242,W,2,05,2.03,365.8782,M,-32.8285,M,0.8,0000*4B"
604,0,0.000000,97.923583,"$GPGGA,182447.70,3721.9502677,N,07958.3358615,W,2,05,2.03,365.9646,M,-32.8285,M,0.9,0000*40"
605,0,0.000000,98.023897,"$GPGGA,182447.80,3721.9503066,N,07958.3358840,W,2,05,2.03,366.0392,M,-32.8285,M,1.0,0000*48"
607,0,0.000000,98.123455,"$GPGGA,182447.90,3721.9501916,N,07958.3358871,W,2,05,2.03,365.6283,M,-32.8285,M,1.1,0000*42"
608,0,0.000000,98.250359,"$GPGGA,182448.00,3721.9502547,N,07958.3359172,W,2,05,2.03,365.7429,M,-32.8285,M,1.2,0000*40"
609,0,0.000000,98.321768,"$GPGGA,182448.10,3721.9502675,N,07958.3359521,W,2,05,2.03,365.7642,M,-32.8285,M,1.3,0000*4F"
610,0,0.000000,98.420864,"$GPGGA,182448.20,3721.9502622,N,07958.3360152,W,2,05,1.64,365.7210,M,-32.8285,M,1.4,0000*42"
612,0,0.000000,98.521082,"$GPGGA,182448.30,3721.9502816,N,07958.3360215,W,2,05,2.03,365.7185,M,-32.8285,M,0.3,0000*41"
613,0,0.000000,98.623469,"$GPGGA,182448.40,3721.9503161,N,07958.3360313,W,2,05,2.03,365.7811,M,-32.8285,M,0.4,0000*4A"
614,0,0.000000,98.723633,"$GPGGA,182448.50,3721.9503572,N,07958.3360529,W,2,05,2.03,365.8511,M,-32.8285,M,0.5,0000*41"
615,0,0.000000,98.823354,"$GPGGA,182448.60,3721.9503610,N,07958.3360581,W,2,04,2.41,365.7931,M,-32.8285,M,0.6,0000*42"
616,0,0.000000,98.926495,"$GPGGA,182448.70,3721.9503562,N,07958.3360723,W,2,04,2.41,365.7499,M,-32.8285,M,0.7,0000*41"
616,0,0.000000,99.021095,"$GPGGA,182448.80,3721.9503756,N,07958.3360790,W,2,04,2.41,365.7757,M,-32.8285,M,0.8,0000*4D"
617,0,0.000000,99.120067,"$GPGGA,182448.90,3721.9503922,N,07958.3360938,W,2,04,2.41,365.7747,M,-32.8285,M,0.9,0000*4D"
618,0,0.000000,99.246038,"$GPGGA,182449.00,3721.9504033,N,07958.3361111,W,2,04,2.41,365.7776,M,-32.8285,M,1.0,0000*43"
618,0,0.000000,99.320021,"$GPGGA,182449.10,3721.9504103,N,07958.3361253,W,2,04,2.41,365.7752,M,-32.8285,M,1.1,0000*42"
618,0,0.000000,99.423080,"$GPGGA,182449.20,3721.9504154,N,07958.3361362,W,2,04,2.41,365.7814,M,-32.8285,M,1.2,0000*4E"
618,0,0.000000,99.523331,"$GPGGA,182449.30,3721.9504199,N,07958.3361447,W,2,05,2.13,365.7866,M,-32.8285,M,0.7,0000*49"
618,0,0.000000,99.623415,"$GPGGA,182449.40,3721.9504227,N,07958.3361483,W,2,05,2.13,365.7945,M,-32.8285,M,0.8,0000*4F"
618,0,0.000000,99.721146,"$GPGGA,182449.50,3721.9504249,N,07958.3361492,W,2,05,2.13,365.7954,M,-32.8285,M,0.9,0000*47"
618,0,0.000000,99.820733,"$GPGGA,182449.60,3721.9504239,N,07958.3361463,W,2,05,2.13,365.7964,M,-32.8285,M,1.0,0000*46"
618,0,0.000000,99.921041,"$GPGGA,182449.70,3721.9504199,N,07958.3361411,W,2,05,2.13,365.7925,M,-32.8285,M,1.1,0000*4F"
618,0,0.000000,100.023681,"$GPGGA,182449.80,3721.9504159,N,07958.3361356,W,2,05,2.13,365.7886,M,-32.8285,M,1.2,0000*43"
618,0,0.000000,100.123469,"$GPGGA,182449.90,3721.9504135,N,07958.3361319,W,2,05,2.13,365.7828,M,-32.8285,M,1.3,0000*46"
618,0,0.000000,100.250998,"$GPGGA,182450.00,3721.9504123,N,07958.3361302,W,2,05,2.13,365.7804,M,-32.8285,M,1.4,0000*43"
620,0,0.000000,100.824038,"$GPGGA,182450.60,3721.9504241,N,07958.3361372,W,2,06,1.43,365.7964,M,-32.8285,M,0.8,0000*4A"
620,0,0.000000,100.925856,"$GPGGA,182450.70,3721.9504310,N,07958.3361450,W,2,06,1.43,365.7962,M,-32.8285,M,0.9,0000*4E"
621,0,0.000000,101.024169,"$GPGGA,182450.80,3721.9504468,N,07958.3361615,W,2,06,1.43,365.8053,M,-32.8285,M,1.0,0000*46"
