;GPS@@@
;Ver=1.1.0
;DIP=2009-00152-00
;Date=2026-Jan-12 12:18:27
;----------------------------------------------------------------------------------------------------------------------------------------------------------------------------------------
traces,odo_tick,pos(m),time_elapsed(s),GPS
2,0,0.000000,3.117227,"$GPGGA,175832.90,3721.9436345,N,07958.3798428,W,2,05,1.64,362.6503,M,-32.8285,M,1.1,0000*4F"
2,0,0.000000,3.243206,"$GPGGA,175833.00,3721.9436277,N,07958.3798299,W,2,05,1.64,362.6493,M,-32.8285,M,1.2,0000*40"
3,0,0.000000,3.314698,"$GPGGA,175833.10,3721.9436170,N,07958.3798066,W,2,05,1.64,362.6719,M,-32.8285,M,1.3,0000*47"
3,0,0.000000,3.412177,"$GPGGA,175833.20,3721.9436142,N,07958.3797887,W,2,05,1.64,362.6651,M,-32.8285,M,1.4,0000*47"
4,0,0.000000,3.512792,"$GPGGA,175833.30,3721.9436072,N,07958.3797712,W,2,05,1.64,362.6555,M,-32.8285,M,1.5,0000*41"
5,0,0.000000,3.612245,"$GPGGA,175833.40,3721.9436004,N,07958.3797523,W,2,05,1.64,362.6549,M,-32.8285,M,0.4,0000*4A"
7,0,0.000000,3.716139,"$GPGGA,175833.50,3721.9435933,N,07958.3797342,W,2,05,1.64,362.6403,M,-32.8285,M,0.5,0000*4A"
7,0,0.000000,3.816259,"$GPGGA,175833.60,3721.9435646,N,07958.3797139,W,2,05,1.64,362.6397,M,-32.8285,M,0.6,0000*43"
8,0,0.000000,3.917210,"$GPGGA,175833.70,3721.9435265,N,07958.3796869,W,2,05,1.64,362.6619,M,-32.8285,M,0.7,0000*48"
9,0,0.000000,4.014228,"$GPGGA,175833.80,3721.9435263,N,07958.3796272,W,2,05,1.64,362.7199,M,-32.8285,M,0.8,0000*40"
10,0,0.000000,4.112575,"$GPGGA,175833.90,3721.9435177,N,07958.3796196,W,2,05,1.64,362.7119,M,-32.8285,M,0.9,0000*47"
12,0,0.000000,4.244648,"$GPGGA,175834.00,3721.9434893,N,07958.3796067,W,2,05,1.64,362.7274,M,-32.8285,M,1.0,0000*44"
13,0,0.000000,4.312387,"$GPGGA,175834.10,3721.9434757,N,07958.3795630,W,2,05,1.64,362.6772,M,-32.8285,M,1.1,0000*46"
15,0,0.000000,4.416506,"$GPGGA,175834.20,3721.9434573,N,07958.3795346,W,2,05,1.64,362.6818,M,-32.8285,M,1.2,0000*45"
16,0,0.000000,4.516285,"$GPGGA,175834.30,3721.9434447,N,07958.3795070,W,2,05,1.64,362.6847,M,-32.8285,M,1.3,0000*4F"
18,0,0.000000,4.625907,"$GPGGA,175834.40,3721.9434326,N,07958.3794721,W,2,05,1.64,362.6584,M,-32.8285,M,0.8,0000*42"
19,0,0.000000,4.714272,"$GPGGA,175834.50,3721.9434102,N,07958.3794280,W,2,05,1.64,362.6674,M,-32.8285,M,0.9,0000*44"
19,0,0.000000,4.814868,"$GPGGA,175834.60,3721.9433912,N,07958.3794174,W,2,05,1.64,362.6605,M,-32.8285,M,1.0,0000*4F"
20,0,0.000000,4.912708,"$GPGGA,175834.70,3721.9433877,N,07958.3794084,W,2,05,1.64,362.6627,M,-32.8285,M,1.1,0000*43"
20,0,0.000000,5.016785,"$GPGGA,175834.80,3721.9433839,N,07958.3794052,W,2,05,1.64,362.6737,M,-32.8285,M,1.2,0000*4E"
21,0,0.000000,5.116323,"$GPGGA,175834.90,3721.9433866,N,07958.3793999,W,2,05,1.64,362.6736,M,-32.8285,M,1.3,0000*4C"
21,0,0.000000,5.243663,"$GPGGA,175835.00,3721.9433821,N,07958.3793984,W,2,05,1.64,362.6818,M,-32.8285,M,1.4,0000*4F"
21,0,0.000000,5.316366,"$GPGGA,175835.10,3721.9433750,N,07958.3793822,W,2,05,1.64,362.6971,M,-32.8285,M,1.5,0000*45"
22,0,0.000000,5.414610,"$GPGGA,175835.20,3721.9433687,N,07958.3793682,W,2,05,1.64,362.7110,M,-32.8285,M,1.6,0000*44"
23,0,0.000000,5.513564,"$GPGGA,175835.30,3721.9433547,N,07958.3793525,W,2,05,1.64,362.7389,M,-32.8285,M,1.7,0000*47"
25,0,0.000000,5.614879,"$GPGGA,175835.40,3721.9433250,N,07958.3793402,W,2,05,1.64,362.7198,M,-32.8285,M,0.6,0000*47"
27,0,0.000000,5.717618,"$GPGGA,175835.50,3721.9433049,N,07958.3793154,W,2,05,1.64,362.6813,M,-32.8285,M,0.7,0000*40"
28,0,0.000000,5.816360,"$GPGGA,175835.60,3721.9432911,N,07958.3792657,W,2,05,1.64,362.6953,M,-32.8285,M,0.8,0000*49"
29,0,0.000000,5.917338,"$GPGGA,175835.70,3721.9432765,N,07958.3792492,W,2,05,1.64,362.6380,M,-32.8285,M,0.9,0000*4B"
30,0,0.000000,6.017356,"$GPGGA,175835.80,3721.9432735,N,07958.3792380,W,2,05,1.64,362.5700,M,-32.8285,M,1.0,0000*42"
31,0,0.000000,6.114949,"$GPGGA,175835.90,3721.9432603,N,07958.3791779,W,2,05,1.64,362.6356,M,-32.8285,M,1.1,0000*43"
32,0,0.000000,6.241267,"$GPGGA,175836.00,3721.9432362,N,07958.3791731,W,2,05,1.64,362.6181,M,-32.8285,M,1.2,0000*4C"
33,0,0.000000,6.312561,"$GPGGA,175836.10,3721.9432198,N,07958.3791579,W,2,05,1.64,362.6264,M,-32.8285,M,1.3,0000*4D"
34,0,0.000000,6.413818,"$GPGGA,175836.20,3721.9432102,N,07958.3791483,W,2,05,1.64,362.6374,M,-32.8285,M,1.4,0000*4E"
35,0,0.000000,6.515754,"$GPGGA,175836.30,3721.9431917,N,07958.3791314,W,2,05,1.64,362.6648,M,-32.8285,M,1.5,0000*42"
35,0,0.000000,6.616673,"$GPGGA,175836.40,3721.9431690,N,07958.3791215,W,2,05,1.64,362.6907,M,-32.8285,M,0.4,0000*41"
37,0,0.000000,6.725977,"$GPGGA,175836.50,3721.9431429,N,07958.3791153,W,2,05,1.64,362.7084,M,-32.8285,M,0.5,0000*43"
38,0,0.000000,6.814441,"$GPGGA,175836.60,3721.9431090,N,07958.3791082,W,2,05,1.64,362.6709,M,-32.8285,M,0.6,0000*4B"
39,0,0.000000,6.913374,"$GPGGA,175836.70,3721.9431028,N,07958.3790838,W,2,05,1.64,362.6575,M,-32.8285,M,0.7,0000*49"
40,0,0.000000,7.012472,"$GPGGA,175836.80,3721.9430801,N,07958.3790372,W,2,05,1.64,362.7278,M,-32.8285,M,0.8,0000*45"
42,0,0.000000,7.113272,"$GPGGA,175836.90,3721.9430667,N,07958.3790192,W,2,05,1.64,362.6830,M,-32.8285,M,0.9,0000*40"
44,0,0.000000,7.243421,"$GPGGA,175837.00,3721.9430428,N,07958.3790040,W,2,05,1.64,362.6593,M,-32.8285,M,1.0,0000*43"
45,0,0.000000,7.315944,"$GPGGA,175837.10,3721.9430090,N,07958.3789670,W,2,05,1.64,362.6829,M,-32.8285,M,1.1,0000*45"
46,0,0.000000,7.416550,"$GPGGA,175837.20,3721.9429952,N,07958.3789468,W,2,05,1.64,362.6710,M,-32.8285,M,1.2,0000*44"
48,0,0.000000,7.514440,"$GPGGA,175837.30,3721.9429782,N,07958.3789110,W,2,05,1.64,362.6972,M,-32.8285,M,1.3,0000*47"
49,0,0.000000,7.615079,"$GPGGA,175837.40,3721.9429739,N,07958.3789036,W,2,05,1.64,362.7005,M,-32.8285,M,0.8,0000*47"
50,0,0.000000,7.712236,"$GPGGA,175837.50,3721.9429488,N,07958.3789117,W,2,05,1.64,362.6993,M,-32.8285,M,0.9,0000*4B"
52,0,0.000000,7.812557,"$GPGGA,175837.60,3721.9429054,N,07958.3788974,W,2,05,1.64,362.6407,M,-32.8285,M,1.0,0000*49"
53,0,0.000000,7.916041,"$GPGGA,175837.70,3721.9429064,N,07958.3789134,W,2,05,1.64,362.6120,M,-32.8285,M,1.1,0000*47"
54,0,0.000000,8.015990,"$GPGGA,175837.80,3721.9428918,N,07958.3788974,W,2,05,1.64,362.6351,M,-32.8285,M,1.2,0000*41"
56,0,0.000000,8.116630,"$GPGGA,175837.90,3721.9428738,N,07958.3788663,W,2,05,1.64,362.6544,M,-32.8285,M,1.3,0000*46"
58,0,0.000000,8.242510,"$GPGGA,175838.00,3721.9428579,N,07958.3787854,W,2,05,1.64,362.8088,M,-32.8285,M,1.4,0000*4E"
58,0,0.000000,8.314008,"$GPGGA,175838.10,3721.9428404,N,07958.3787400,W,2,05,1.64,362.8769,M,-32.8285,M,1.5,0000*40"
60,0,0.000000,8.413439,"$GPGGA,175838.20,3721.9428252,N,07958.3787252,W,2,05,1.64,362.8780,M,-32.8285,M,1.6,0000*43"
61,0,0.000000,8.513057,"$GPGGA,175838.30,3721.9428103,N,07958.3787009,W,2,05,1.64,362.9137,M,-32.8285,M,1.7,0000*43"
62,0,0.000000,8.616224,"$GPGGA,175838.40,3721.9428034,N,07958.3787188,W,2,05,1.64,362.8927,M,-32.8285,M,0.6,0000*41"
63,0,0.000000,8.716447,"$GPGGA,175838.50,3721.9427005,N,07958.3787081,W,2,05,1.64,362.7564,M,-32.8285,M,0.7,0000*40"
64,0,0.000000,8.816469,"$GPGGA,175838.60,3721.9426798,N,07958.3787032,W,2,05,1.64,362.7483,M,-32.8285,M,0.8,0000*4E"
65,0,0.000000,8.914389,"$GPGGA,175838.70,3721.9426319,N,07958.3787020,W,2,05,1.64,362.7299,M,-32.8285,M,0.9,0000*4D"
66,0,0.000000,9.012650,"$GPGGA,175838.80,3721.9426322,N,07958.3786951,W,2,05,1.64,362.8518,M,-32.8285,M,1.0,0000*4D"
67,0,0.000000,9.112308,"$GPGGA,175838.90,3721.9426183,N,07958.3786831,W,2,05,1.64,362.8750,M,-32.8285,M,1.1,0000*4D"
68,0,0.000000,9.239528,"$GPGGA,175839.00,3721.9427169,N,07958.3786749,W,2,05,1.64,362.9758,M,-32.8285,M,1.2,0000*4A"
69,0,0.000000,9.316477,"$GPGGA,175839.10,3721.9426971,N,07958.3786551,W,2,05,1.64,363.0551,M,-32.8285,M,1.3,0000*42"
70,0,0.000000,9.415714,"$GPGGA,175839.20,3721.9426753,N,07958.3786357,W,2,05,1.64,363.0521,M,-32.8285,M,1.4,0000*4F"
71,0,0.000000,9.516209,"$GPGGA,175839.30,3721.9426652,N,07958.3786096,W,2,05,1.64,363.1220,M,-32.8285,M,1.5,0000*46"
72,0,0.000000,9.615898,"$GPGGA,175839.40,3721.9426524,N,07958.3785966,W,2,05,1.64,363.1736,M,-32.8285,M,0.4,0000*44"
73,0,0.000000,9.712997,"$GPGGA,175839.50,3721.9426298,N,07958.3785734,W,2,05,1.64,363.1395,M,-32.8285,M,0.5,0000*40"
75,0,0.000000,9.813212,"$GPGGA,175839.60,3721.9426106,N,07958.3785348,W,2,05,1.64,363.1075,M,-32.8285,M,0.6,0000*46"
76,0,0.000000,9.912518,"$GPGGA,175839.70,3721.9426076,N,07958.3785170,W,2,05,1.64,363.1253,M,-32.8285,M,0.7,0000*4F"
77,0,0.000000,10.015786,"$GPGGA,175839.80,3721.9425873,N,07958.3784960,W,2,05,1.64,363.1590,M,-32.8285,M,0.8,0000*41"
78,0,0.000000,10.115499,"$GPGGA,175839.90,3721.9425669,N,07958.3784715,W,2,05,1.64,363.1694,M,-32.8285,M,0.9,0000*4F"
79,0,0.000000,10.244779,"$GPGGA,175840.00,3721.9425558,N,07958.3784410,W,2,05,1.64,363.1186,M,-32.8285,M,1.0,0000*43"
80,0,0.000000,10.315014,"$GPGGA,175840.10,3721.9425131,N,07958.3784061,W,2,05,1.64,363.1095,M,-32.8285,M,1.1,0000*49"
81,0,0.000000,10.412523,"$GPGGA,175840.20,3721.9424953,N,07958.3783944,W,2,05,1.64,363.1063,M,-32.8285,M,1.2,0000*44"
82,0,0.000000,10.512573,"$GPGGA,175840.30,3721.9424864,N,07958.3783790,W,2,05,1.64,363.1106,M,-32.8285,M,1.3,0000*44"
83,0,0.000000,10.612755,"$GPGGA,175840.40,3721.9424736,N,07958.3783635,W,2,05,1.64,363.0915,M,-32.8285,M,0.8,0000*44"
84,0,0.000000,10.715829,"$GPGGA,175840.50,3721.9424458,N,07958.3782963,W,2,05,1.64,363.0747,M,-32.8285,M,0.9,0000*4B"
86,0,0.000000,10.816210,"$GPGGA,175840.60,3721.9424526,N,07958.3782589,W,2,05,1.64,363.1077,M,-32.8285,M,1.0,0000*45"
87,0,0.000000,10.916211,"$GPGGA,175840.70,3721.9424337,N,07958.3782394,W,2,05,1.64,363.0379,M,-32.8285,M,1.1,0000*45"
87,0,0.000000,11.014544,"$GPGGA,175840.80,3721.9424112,N,07958.3782122,W,2,05,1.64,363.0455,M,-32.8285,M,1.2,0000*4A"
88,0,0.000000,11.112822,"$GPGGA,175840.90,3721.9423905,N,07958.3781927,W,2,05,1.64,363.0325,M,-32.8285,M,1.3,0000*4D"
90,0,0.000000,11.240294,"$GPGGA,175841.00,3721.9423865,N,07958.3781573,W,2,05,1.64,363.0020,M,-32.8285,M,1.4,0000*4E"
91,0,0.000000,11.313318,"$GPGGA,175841.10,3721.9423820,N,07958.3781150,W,2,05,1.64,362.9704,M,-32.8285,M,1.5,0000*43"
92,0,0.000000,11.416342,"$GPGGA,175841.20,3721.9423708,N,07958.3780785,W,2,05,1.64,363.0187,M,-32.8285,M,1.6,0000*4C"
94,0,0.000000,11.516526,"$GPGGA,175841.30,3721.9423505,N,07958.3780609,W,2,05,1.64,362.9651,M,-32.8285,M,1.7,0000*42"
95,0,0.000000,11.616021,"$GPGGA,175841.40,3721.9423391,N,07958.3780475,W,2,05,1.64,362.9447,M,-32.8285,M,0.6,0000*42"
97,0,0.000000,11.715640,"$GPGGA,175841.50,3721.9423227,N,07958.3780435,W,2,05,1.64,362.9190,M,-32.8285,M,0.7,0000*45"
98,0,0.000000,11.813389,"$GPGGA,175841.60,3721.9422786,N,07958.3779780,W,2,04,3.89,363.0312,M,-32.8285,M,0.8,0000*4D"
99,0,0.000000,11.912487,"$GPGGA,175841.70,3721.9422248,N,07958.3779471,W,2,05,1.64,363.1040,M,-32.8285,M,0.9,0000*42"
100,0,0.000000,12.013212,"$GPGGA,175841.80,3721.9422112,N,07958.3779208,W,2,05,1.64,363.1221,M,-32.8285,M,1.0,0000*44"
101,0,0.000000,12.116347,"$GPGGA,175841.90,3721.9421960,N,07958.3778954,W,2,05,1.64,363.0592,M,-32.8285,M,1.1,0000*47"
103,0,0.000000,12.244168,"$GPGGA,175842.00,3721.9421760,N,07958.3778759,W,2,05,1.64,363.0482,M,-32.8285,M,1.2,0000*43"
104,0,0.000000,12.316710,"$GPGGA,175842.10,3721.9421251,N,07958.3778414,W,2,05,1.64,363.1754,M,-32.8285,M,1.3,0000*47"
106,0,0.000000,12.415082,"$GPGGA,175842.20,3721.9421580,N,07958.3778009,W,2,05,1.64,363.1042,M,-32.8285,M,1.4,0000*40"
107,0,0.000000,12.525811,"$GPGGA,175842.30,3721.9421516,N,07958.3777830,W,2,05,1.64,363.1137,M,-32.8285,M,1.5,0000*41"
108,0,0.000000,12.613089,"$GPGGA,175842.40,3721.9420989,N,07958.3777633,W,2,05,1.64,363.1481,M,-32.8285,M,0.4,0000*48"
110,0,0.000000,12.713183,"$GPGGA,175842.50,3721.9421013,N,07958.3777227,W,2,05,1.64,363.1617,M,-32.8285,M,0.5,0000*4F"
111,0,0.000000,12.816797,"$GPGGA,175842.60,3721.9420757,N,07958.3776754,W,2,04,3.88,363.0461,M,-32.8285,M,0.6,0000*4A"
113,0,0.000000,12.916808,"$GPGGA,175842.70,3721.9420914,N,07958.3776290,W,2,04,3.88,363.1379,M,-32.8285,M,0.7,0000*41"
114,0,0.000000,13.017294,"$GPGGA,175842.80,3721.9420579,N,07958.3776112,W,2,04,3.88,363.0628,M,-32.8285,M,0.8,0000*4F"
116,0,0.000000,13.116250,"$GPGGA,175842.90,3721.9420084,N,07958.3776194,W,2,04,3.88,362.9273,M,-32.8285,M,0.9,0000*44"
117,0,0.000000,13.240666,"$GPGGA,175843.00,3721.9417670,N,07958.3775641,W,2,04,3.88,362.7665,M,-32.8285,M,1.0,0000*4C"
118,0,0.000000,13.312254,"$GPGGA,175843.10,3721.9417334,N,07958.3775575,W,2,04,3.88,362.8264,M,-32.8285,M,1.1,0000*47"
120,0,0.000000,13.412542,"$GPGGA,175843.20,3721.9416974,N,07958.3775496,W,2,04,3.88,362.8256,M,-32.8285,M,1.2,0000*45"
123,0,0.000000,13.616067,"$GPGGA,175843.40,3721.9417122,N,07958.3774889,W,2,04,3.88,362.7969,M,-32.8285,M,0.8,0000*49"
124,0,0.000000,13.718318,"$GPGGA,175843.50,3721.9416801,N,07958.3774090,W,2,04,3.88,362.7985,M,-32.8285,M,0.9,0000*42"
125,0,0.000000,13.815553,"$GPGGA,175843.60,3721.9416520,N,07958.3773826,W,2,04,3.88,362.8253,M,-32.8285,M,1.0,0000*4A"
126,0,0.000000,13.913167,"$GPGGA,175843.70,3721.9416484,N,07958.3773584,W,2,04,3.88,362.7883,M,-32.8285,M,1.1,0000*48"
127,0,0.000000,14.013445,"$GPGGA,175843.80,3721.9416305,N,07958.3773385,W,2,04,3.88,362.8022,M,-32.8285,M,1.2,0000*41"
128,0,0.000000,14.112960,"$GPGGA,175843.90,3721.9415926,N,07958.3773228,W,2,05,1.64,362.8230,M,-32.8285,M,1.3,0000*4F"
130,0,0.000000,14.243612,"$GPGGA,175844.00,3721.9415793,N,07958.3772897,W,2,05,1.64,362.8114,M,-32.8285,M,1.4,0000*4C"
131,0,0.000000,14.316175,"$GPGGA,175844.10,3721.9415774,N,07958.3772552,W,2,05,1.64,362.8055,M,-32.8285,M,1.5,0000*45"
132,0,0.000000,14.415729,"$GPGGA,175844.20,3721.9415629,N,07958.3772098,W,2,05,1.64,362.8177,M,-32.8285,M,1.6,0000*4E"
134,0,0.000000,14.515320,"$GPGGA,175844.30,3721.9415555,N,07958.3771841,W,2,05,1.64,362.7727,M,-32.8285,M,1.7,0000*45"
135,0,0.000000,14.613051,"$GPGGA,175844.40,3721.9415362,N,07958.3771656,W,2,05,1.64,362.7860,M,-32.8285,M,0.6,0000*44"
136,0,0.000000,14.712759,"$GPGGA,175844.50,3721.9415067,N,07958.3771427,W,2,05,1.64,362.8106,M,-32.8285,M,0.7,0000*40"
138,0,0.000000,14.812185,"$GPGGA,175844.60,3721.9414573,N,07958.3771361,W,2,05,1.64,362.7952,M,-32.8285,M,0.8,0000*4E"
140,0,0.000000,14.916068,"$GPGGA,175844.70,3721.9414526,N,07958.3770876,W,2,05,1.64,362.7760,M,-32.8285,M,0.9,0000*4D"
142,0,0.000000,15.017849,"$GPGGA,175844.80,3721.9414506,N,07958.3770497,W,2,05,1.64,362.7424,M,-32.8285,M,1.0,0000*48"
143,0,0.000000,15.115849,"$GPGGA,175844.90,3721.9414441,N,07958.3770194,W,2,05,1.64,362.7156,M,-32.8285,M,1.1,0000*4C"
145,0,0.000000,15.249285,"$GPGGA,175845.00,3721.9414274,N,07958.3769830,W,2,05,1.64,362.7087,M,-32.8285,M,1.2,0000*45"
147,0,0.000000,15.314604,"$GPGGA,175845.10,3721.9413759,N,07958.3769509,W,2,05,1.64,362.7375,M,-32.8285,M,1.3,0000*41"
148,0,0.000000,15.413074,"$GPGGA,175845.20,3721.9413549,N,07958.3769020,W,2,05,1.64,362.8112,M,-32.8285,M,1.4,0000*44"
150,0,0.000000,15.512681,"$GPGGA,175845.30,3721.9413283,N,07958.3769007,W,2,05,1.64,362.7614,M,-32.8285,M,1.5,0000*4E"
152,0,0.000000,15.616357,"$GPGGA,175845.40,3721.9413221,N,07958.3768862,W,2,04,2.81,362.6671,M,-32.8285,M,0.4,0000*40"
153,0,0.000000,15.716594,"$GPGGA,175845.50,3721.9412759,N,07958.3769433,W,2,04,2.81,362.2690,M,-32.8285,M,0.5,0000*49"
155,0,0.000000,15.816107,"$GPGGA,175845.60,3721.9412781,N,07958.3767718,W,2,04,2.81,362.7517,M,-32.8285,M,0.6,0000*41"
156,0,0.000000,15.915245,"$GPGGA,175845.70,3721.9412594,N,07958.3767817,W,2,04,2.81,362.4392,M,-32.8285,M,0.7,0000*4F"
157,0,0.000000,16.012976,"$GPGGA,175845.80,3721.9412406,N,07958.3767641,W,2,04,2.81,362.3940,M,-32.8285,M,0.8,0000*4A"
159,0,0.000000,16.112479,"$GPGGA,175845.90,3721.9412218,N,07958.3767254,W,2,04,2.81,362.4162,M,-32.8285,M,0.9,0000*4C"
161,0,0.000000,16.239877,"$GPGGA,175846.00,3721.9412418,N,07958.3766008,W,2,05,1.64,362.6988,M,-32.8285,M,1.0,0000*45"
162,0,0.000000,16.316222,"$GPGGA,175846.10,3721.9412120,N,07958.3765806,W,2,04,2.81,362.7279,M,-32.8285,M,1.1,0000*43"
164,0,0.000000,16.429503,"$GPGGA,175846.20,3721.9411617,N,07958.3765755,W,2,04,2.81,362.7326,M,-32.8285,M,1.2,0000*41"
165,0,0.000000,16.515921,"$GPGGA,175846.30,3721.9411569,N,07958.3765437,W,2,04,2.81,362.6919,M,-32.8285,M,1.3,0000*4B"
166,0,0.000000,16.615235,"$GPGGA,175846.40,3721.9411340,N,07958.3764983,W,2,04,2.81,362.6997,M,-32.8285,M,0.8,0000*4E"
168,0,0.000000,16.712899,"$GPGGA,175846.50,3721.9411236,N,07958.3764501,W,2,05,1.64,362.7384,M,-32.8285,M,0.9,0000*48"
170,0,0.000000,16.813029,"$GPGGA,175846.60,3721.9411371,N,07958.3764238,W,2,05,1.64,362.6381,M,-32.8285,M,1.0,0000*48"
171,0,0.000000,16.912453,"$GPGGA,175846.70,3721.9411359,N,07958.3763967,W,2,04,2.81,362.6323,M,-32.8285,M,1.1,0000*45"
173,0,0.000000,17.015078,"$GPGGA,175846.80,3721.9411795,N,07958.3763603,W,2,04,2.81,362.6877,M,-32.8285,M,1.2,0000*4A"
175,0,0.000000,17.115195,"$GPGGA,175846.90,3721.9411648,N,07958.3763169,W,2,04,2.81,362.6192,M,-32.8285,M,1.3,0000*42"
177,0,0.000000,17.240917,"$GPGGA,175847.00,3721.9411497,N,07958.3762817,W,2,04,2.81,362.5642,M,-32.8285,M,1.4,0000*45"
178,0,0.000000,17.315533,"$GPGGA,175847.10,3721.9411338,N,07958.3762535,W,2,04,2.81,362.5683,M,-32.8285,M,1.5,0000*47"
180,0,0.000000,17.414565,"$GPGGA,175847.20,3721.9411014,N,07958.3762343,W,2,04,2.81,362.5610,M,-32.8285,M,1.6,0000*47"
181,0,0.000000,17.512198,"$GPGGA,175847.30,3721.9410808,N,07958.3761909,W,2,04,2.81,362.6124,M,-32.8285,M,1.7,0000*47"
183,0,0.000000,17.613724,"$GPGGA,175847.40,3721.9410530,N,07958.3761397,W,2,04,2.81,362.6079,M,-32.8285,M,0.6,0000*42"
184,0,0.000000,17.712105,"$GPGGA,175847.50,3721.9410994,N,07958.3761088,W,2,04,2.81,362.7563,M,-32.8285,M,0.7,0000*42"
186,0,0.000000,17.815249,"$GPGGA,175847.60,3721.9410732,N,07958.3760754,W,2,05,1.65,362.7685,M,-32.8285,M,0.8,0000*48"
187,0,0.000000,17.915955,"$GPGGA,175847.70,3721.9410470,N,07958.3760486,W,2,05,1.65,362.7316,M,-32.8285,M,0.9,0000*4E"
188,0,0.000000,18.016268,"$GPGGA,175847.80,3721.9409466,N,07958.3760277,W,2,05,1.65,362.6403,M,-32.8285,M,1.0,0000*4C"
190,0,0.000000,18.113247,"$GPGGA,175847.90,3721.9409237,N,07958.3760130,W,2,05,1.65,362.6482,M,-32.8285,M,1.1,0000*47"
191,0,0.000000,18.241107,"$GPGGA,175848.00,3721.9409045,N,07958.3759879,W,2,06,1.19,362.6624,M,-32.8285,M,1.2,0000*4D"
192,0,0.000000,18.312593,"$GPGGA,175848.10,3721.9408887,N,07958.3759572,W,2,06,1.19,362.6925,M,-32.8285,M,1.3,0000*42"
192,0,0.000000,18.416091,"$GPGGA,175848.20,3721.9408879,N,07958.3759366,W,2,06,1.19,362.6881,M,-32.8285,M,1.4,0000*4B"
193,0,0.000000,18.515466,"$GPGGA,175848.30,3721.9408858,N,07958.3759174,W,2,06,1.19,362.6938,M,-32.8285,M,1.5,0000*4A"
194,0,0.000000,18.616353,"$GPGGA,175848.40,3721.9408779,N,07958.3758995,W,2,06,1.19,362.6995,M,-32.8285,M,0.4,0000*40"
195,0,0.000000,18.716016,"$GPGGA,175848.50,3721.9408656,N,07958.3758840,W,2,06,1.19,362.7005,M,-32.8285,M,0.5,0000*44"
196,0,0.000000,18.816073,"$GPGGA,175848.60,3721.9408538,N,07958.3758703,W,2,06,1.19,362.7002,M,-32.8285,M,0.6,0000*40"
197,0,0.000000,18.912299,"$GPGGA,175848.70,3721.9408430,N,07958.3758608,W,2,06,1.19,362.6939,M,-32.8285,M,0.7,0000*43"
198,0,0.000000,19.012355,"$GPGGA,175848.80,3721.9408269,N,07958.3758506,W,2,06,1.19,362.6808,M,-32.8285,M,0.8,0000*47"
199,0,0.000000,19.116514,"$GPGGA,175848.90,3721.9408157,N,07958.3758325,W,2,06,1.19,362.6763,M,-32.8285,M,0.9,0000*4C"
201,0,0.000000,19.244688,"$GPGGA,175849.00,3721.9407971,N,07958.3758019,W,2,06,1.19,362.6663,M,-32.8285,M,1.0,0000*42"
203,0,0.000000,19.316335,"$GPGGA,175849.10,3721.9407797,N,07958.3757691,W,2,06,1.19,362.6551,M,-32.8285,M,1.1,0000*4F"
204,0,0.000000,19.415583,"$GPGGA,175849.20,3721.9407676,N,07958.3757376,W,2,06,1.19,362.5552,M,-32.8285,M,1.2,0000*4D"
206,0,0.000000,19.513902,"$GPGGA,175849.30,3721.9407638,N,07958.3757230,W,2,06,1.19,362.4475,M,-32.8285,M,1.3,0000*41"
208,0,0.000000,19.612730,"$GPGGA,175849.40,3721.9407307,N,07958.3757000,W,2,06,1.19,362.4656,M,-32.8285,M,0.8,0000*47"
209,0,0.000000,19.712866,"$GPGGA,175849.50,3721.9406973,N,07958.3756795,W,2,06,1.19,362.4805,M,-32.8285,M,0.9,0000*4D"
211,0,0.000000,19.816475,"$GPGGA,175849.60,3721.9406668,N,07958.3756402,W,2,06,1.19,362.4585,M,-32.8285,M,1.0,0000*4B"
212,0,0.000000,19.916043,"$GPGGA,175849.70,3721.9406423,N,07958.3756049,W,2,06,1.19,362.5129,M,-32.8285,M,1.1,0000*4E"
213,0,0.000000,20.015878,"$GPGGA,175849.80,3721.9406239,N,07958.3755850,W,2,06,1.19,362.5198,M,-32.8285,M,1.2,0000*46"
215,0,0.000000,20.115762,"$GPGGA,175849.90,3721.9406193,N,07958.3755435,W,2,06,1.19,362.5093,M,-32.8285,M,1.3,0000*40"
216,0,0.000000,20.242324,"$GPGGA,175850.00,3721.9406072,N,07958.3755176,W,2,06,1.19,362.4910,M,-32.8285,M,1.4,0000*49"
217,0,0.000000,20.315269,"$GPGGA,175850.10,3721.9405748,N,07958.3754858,W,2,06,1.19,362.5340,M,-32.8285,M,1.5,0000*4E"
218,0,0.000000,20.414458,"$GPGGA,175850.20,3721.9405505,N,07958.3754643,W,2,06,1.19,362.5698,M,-32.8285,M,1.6,0000*41"
219,0,0.000000,20.517299,"$GPGGA,175850.30,3721.9405189,N,07958.3754259,W,2,06,1.19,362.6122,M,-32.8285,M,1.7,0000*4B"
221,0,0.000000,20.616871,"$GPGGA,175850.40,3721.9405632,N,07958.3754088,W,2,06,1.19,362.3605,M,-32.8285,M,0.6,0000*42"
222,0,0.000000,20.716233,"$GPGGA,175850.50,3721.9405256,N,07958.3754269,W,2,06,1.19,362.3759,M,-32.8285,M,0.7,0000*41"
224,0,0.000000,20.817082,"$GPGGA,175850.60,3721.9404896,N,07958.3753476,W,2,06,1.19,362.5497,M,-32.8285,M,0.8,0000*42"
226,0,0.000000,20.914108,"$GPGGA,175850.70,3721.9404539,N,07958.3753809,W,2,06,1.19,362.4429,M,-32.8285,M,0.9,0000*4A"
227,0,0.000000,21.013198,"$GPGGA,175850.80,3721.9404242,N,07958.3752904,W,2,06,1.19,362.5760,M,-32.8285,M,1.0,0000*44"
228,0,0.000000,21.112253,"$GPGGA,175850.90,3721.9404019,N,07958.3753234,W,2,06,1.19,362.4229,M,-32.8285,M,1.1,0000*48"
231,0,0.000000,21.240645,"$GPGGA,175851.00,3721.9403919,N,07958.3753026,W,2,06,1.19,362.4036,M,-32.8285,M,1.2,0000*40"
232,0,0.000000,21.316058,"$GPGGA,175851.10,3721.9403823,N,07958.3752779,W,2,06,1.19,362.4186,M,-32.8285,M,1.3,0000*4E"
233,0,0.000000,21.416251,"$GPGGA,175851.20,3721.9403712,N,07958.3752165,W,2,06,1.19,362.4310,M,-32.8285,M,1.4,0000*41"
235,0,0.000000,21.516618,"$GPGGA,175851.30,3721.9403476,N,07958.3751785,W,2,06,1.19,362.3400,M,-32.8285,M,1.5,0000*4A"
237,0,0.000000,21.614644,"$GPGGA,175851.40,3721.9403322,N,07958.3751545,W,2,06,1.19,362.3240,M,-32.8285,M,0.4,0000*47"
238,0,0.000000,21.713629,"$GPGGA,175851.50,3721.9403071,N,07958.3751292,W,2,06,1.19,362.3149,M,-32.8285,M,0.5,0000*45"
239,0,0.000000,21.812155,"$GPGGA,175851.60,3721.9402759,N,07958.3751122,W,2,06,1.19,362.2864,M,-32.8285,M,0.6,0000*46"
241,0,0.000000,21.915866,"$GPGGA,175851.70,3721.9402468,N,07958.3750762,W,2,06,1.19,362.3250,M,-32.8285,M,0.7,0000*48"
242,0,0.000000,22.016473,"$GPGGA,175851.80,3721.9402204,N,07958.3750510,W,2,06,1.19,362.2975,M,-32.8285,M,0.8,0000*4E"
244,0,0.000000,22.115641,"$GPGGA,175851.90,3721.9402093,N,07958.3750223,W,2,06,1.19,362.2902,M,-32.8285,M,0.9,0000*45"
245,0,0.000000,22.247630,"$GPGGA,175852.00,3721.9401697,N,07958.3750081,W,2,06,1.19,362.3475,M,-32.8285,M,1.0,0000*40"
246,0,0.000000,22.316538,"$GPGGA,175852.10,3721.9401658,N,07958.3749482,W,2,06,1.19,362.2675,M,-32.8285,M,1.1,0000*4F"
247,0,0.000000,22.412646,"$GPGGA,175852.20,3721.9401471,N,07958.3749234,W,2,06,1.19,362.2575,M,-32.8285,M,1.2,0000*4E"
249,0,0.000000,22.512481,"$GPGGA,175852.30,3721.9401135,N,07958.3749107,W,2,06,1.19,362.2621,M,-32.8285,M,1.3,0000*4A"
250,0,0.000000,22.612299,"$GPGGA,175852.40,3721.9400916,N,07958.3748905,W,2,06,1.19,362.2644,M,-32.8285,M,0.8,0000*47"
252,0,0.000000,22.716872,"$GPGGA,175852.50,3721.9400653,N,07958.3748589,W,2,06,1.19,362.3054,M,-32.8285,M,0.9,0000*47"
254,0,0.000000,22.816071,"$GPGGA,175852.60,3721.9400364,N,07958.3748299,W,2,06,1.19,362.3201,M,-32.8285,M,1.0,0000*49"
256,0,0.000000,22.916111,"$GPGGA,175852.70,3721.9400133,N,07958.3747985,W,2,06,1.19,362.2654,M,-32.8285,M,1.1,0000*45"
257,0,0.000000,23.014596,"$GPGGA,175852.80,3721.9400040,N,07958.3747572,W,2,06,1.19,362.2418,M,-32.8285,M,1.2,0000*42"
259,0,0.000000,23.118259,"$GPGGA,175852.90,3721.9399745,N,07958.3747324,W,2,06,1.19,362.2594,M,-32.8285,M,1.3,0000*47"
261,0,0.000000,23.241910,"$GPGGA,175853.00,3721.9399762,N,07958.3746944,W,2,06,1.19,362.1926,M,-32.8285,M,1.4,0000*46"
262,0,0.000000,23.316058,"$GPGGA,175853.10,3721.9399549,N,07958.3746857,W,2,06,1.19,362.1920,M,-32.8285,M,1.5,0000*48"
264,0,0.000000,23.417527,"$GPGGA,175853.20,3721.9399482,N,07958.3746829,W,2,06,1.19,362.0413,M,-32.8285,M,1.6,0000*4B"
266,0,0.000000,23.515853,"$GPGGA,175853.30,3721.9399522,N,07958.3746447,W,2,06,1.19,361.9003,M,-32.8285,M,1.7,0000*4B"
268,0,0.000000,23.617372,"$GPGGA,175853.40,3721.9399025,N,07958.3746188,W,2,06,1.19,361.9741,M,-32.8285,M,0.6,0000*49"
269,0,0.000000,23.714531,"$GPGGA,175853.50,3721.9398967,N,07958.3745748,W,2,06,1.19,361.9538,M,-32.8285,M,0.7,0000*42"
271,0,0.000000,23.812608,"$GPGGA,175853.60,3721.9398654,N,07958.3745721,W,2,06,1.19,361.9114,M,-32.8285,M,0.8,0000*44"
272,0,0.000000,23.912514,"$GPGGA,175853.70,3721.9398383,N,07958.3745539,W,2,06,1.19,361.9209,M,-32.8285,M,0.9,0000*4F"
274,0,0.000000,24.012114,"$GPGGA,175853.80,3721.9398215,N,07958.3745350,W,2,06,1.19,361.9399,M,-32.8285,M,1.0,0000*47"
275,0,0.000000,24.116155,"$GPGGA,175853.90,3721.9398354,N,07958.3745006,W,2,06,1.19,361.9115,M,-32.8285,M,1.1,0000*45"
276,0,0.000000,24.244119,"$GPGGA,175854.00,3721.9397416,N,07958.3744950,W,2,06,1.19,362.1940,M,-32.8285,M,1.2,0000*4E"
277,0,0.000000,24.315924,"$GPGGA,175854.10,3721.9397193,N,07958.3744592,W,2,06,1.19,362.2091,M,-32.8285,M,1.3,0000*42"
278,0,0.000000,24.414830,"$GPGGA,175854.20,3721.9396924,N,07958.3744339,W,2,06,1.19,362.2301,M,-32.8285,M,1.4,0000*4E"
279,0,0.000000,24.513095,"$GPGGA,175854.30,3721.9396749,N,07958.3744051,W,2,06,1.19,362.2401,M,-32.8285,M,1.5,0000*41"
279,0,0.000000,24.613412,"$GPGGA,175854.40,3721.9396632,N,07958.3743856,W,2,06,1.19,362.2433,M,-32.8285,M,0.4,0000*42"
279,0,0.000000,24.712988,"$GPGGA,175854.50,3721.9396601,N,07958.3743682,W,2,06,1.19,362.2387,M,-32.8285,M,0.5,0000*4D"
279,0,0.000000,24.815868,"$GPGGA,175854.60,3721.9396631,N,07958.3743525,W,2,06,1.19,362.2218,M,-32.8285,M,0.6,0000*47"
279,0,0.000000,24.916581,"$GPGGA,175854.70,3721.9396685,N,07958.3743408,W,2,06,1.19,362.2256,M,-32.8285,M,0.7,0000*4C"
279,0,0.000000,25.015317,"$GPGGA,175854.80,3721.9396737,N,07958.3743330,W,2,06,1.19,362.2344,M,-32.8285,M,0.8,0000*4A"
279,0,0.000000,25.114083,"$GPGGA,175854.90,3721.9396789,N,07958.3743322,W,2,06,1.19,362.2467,M,-32.8285,M,0.9,0000*4A"
279,0,0.000000,25.240185,"$GPGGA,175855.00,3721.9396819,N,07958.3743360,W,2,06,1.19,362.2514,M,-32.8285,M,1.0,0000*4F"
279,0,0.000000,25.312059,"$GPGGA,175855.10,3721.9396849,N,07958.3743465,W,2,06,1.19,362.2719,M,-32.8285,M,1.1,0000*47"
279,0,0.000000,25.412596,"$GPGGA,175855.20,3721.9396834,N,07958.3743557,W,2,06,1.19,362.2667,M,-32.8285,M,1.2,0000*45"
280,0,0.000000,25.515850,"$GPGGA,175855.30,3721.9396834,N,07958.3743548,W,2,06,1.19,362.2775,M,-32.8285,M,1.3,0000*49"
280,0,0.000000,25.616190,"$GPGGA,175855.40,3721.9396799,N,07958.3743478,W,2,06,1.19,362.2884,M,-32.8285,M,0.8,0000*4F"
280,0,0.000000,25.715775,"$GPGGA,175855.50,3721.9396760,N,07958.3743371,W,2,06,1.19,362.2952,M,-32.8285,M,0.9,0000*4D"
281,0,0.000000,25.912986,"$GPGGA,175855.70,3721.9396841,N,07958.3743094,W,2,06,1.19,362.2888,M,-32.8285,M,1.1,0000*44"
281,0,0.000000,26.017827,"$GPGGA,175855.80,3721.9396836,N,07958.3742983,W,2,06,1.19,362.2919,M,-32.8285,M,1.2,0000*4F"
282,0,0.000000,26.113678,"$GPGGA,175855.90,3721.9396819,N,07958.3742874,W,2,06,1.19,362.2909,M,-32.8285,M,1.3,0000*4A"
282,0,0.000000,26.243589,"$GPGGA,175856.00,3721.9396824,N,07958.3742723,W,2,06,1.19,362.2906,M,-32.8285,M,1.4,0000*4B"
283,0,0.000000,26.315512,"$GPGGA,175856.10,3721.9396760,N,07958.3742629,W,2,06,1.19,362.3079,M,-32.8285,M,1.5,0000*4F"
283,0,0.000000,26.416340,"$GPGGA,175856.20,3721.9396758,N,07958.3742561,W,2,06,1.19,362.3105,M,-32.8285,M,1.6,0000*41"
283,0,0.000000,26.514591,"$GPGGA,175856.30,3721.9396762,N,07958.3742430,W,2,06,1.19,362.3115,M,-32.8285,M,1.7,0000*4C"
283,0,0.000000,26.612503,"$GPGGA,175856.40,3721.9396725,N,07958.3742337,W,2,06,1.19,362.3118,M,-32.8285,M,0.6,0000*45"
284,0,0.000000,26.712924,"$GPGGA,175856.50,3721.9396727,N,07958.3742214,W,2,06,1.19,362.3125,M,-32.8285,M,0.7,0000*49"
284,0,0.000000,26.815925,"$GPGGA,175856.60,3721.9396614,N,07958.3742089,W,2,06,1.19,362.3214,M,-32.8285,M,0.8,0000*43"
285,0,0.000000,26.915792,"$GPGGA,175856.70,3721.9396597,N,07958.3742023,W,2,06,1.19,362.3181,M,-32.8285,M,0.9,0000*44"
285,0,0.000000,27.016031,"$GPGGA,175856.80,3721.9396488,N,07958.3741990,W,2,06,1.19,362.3174,M,-32.8285,M,1.0,0000*44"
285,0,0.000000,27.116374,"$GPGGA,175856.90,3721.9396088,N,07958.3741989,W,2,06,1.19,362.2961,M,-32.8285,M,1.1,0000*45"
286,0,0.000000,27.243377,"$GPGGA,175857.00,3721.9395894,N,07958.3742182,W,2,06,1.19,362.3044,M,-32.8285,M,1.2,0000*47"
286,0,0.000000,27.314773,"$GPGGA,175857.10,3721.9395824,N,07958.3742194,W,2,06,1.19,362.3033,M,-32.8285,M,1.3,0000*4B"
286,0,0.000000,27.412575,"$GPGGA,175857.20,3721.9395625,N,07958.3742298,W,2,06,1.19,362.3137,M,-32.8285,M,1.4,0000*4A"
286,0,0.000000,27.512669,"$GPGGA,175857.30,3721.9395414,N,07958.3742386,W,2,06,1.19,362.3170,M,-32.8285,M,1.5,0000*47"
287,0,0.000000,27.615444,"$GPGGA,175857.40,3721.9395402,N,07958.3742247,W,2,06,1.19,362.3068,M,-32.8285,M,0.4,0000*43"
287,0,0.000000,27.716593,"$GPGGA,175857.50,3721.9395383,N,07958.3742155,W,2,06,1.19,362.2970,M,-32.8285,M,0.5,0000*4C"
287,0,0.000000,27.816455,"$GPGGA,175857.60,3721.9395324,N,07958.3742137,W,2,06,1.19,362.2791,M,-32.8285,M,0.6,0000*44"
287,0,0.000000,27.920794,"$GPGGA,175857.70,3721.9395259,N,07958.3742092,W,2,06,1.19,362.2823,M,-32.8285,M,0.7,0000*47"
287,0,0.000000,28.012686,"$GPGGA,175857.80,3721.9395261,N,07958.3742127,W,2,06,1.19,362.2794,M,-32.8285,M,0.8,0000*40"
287,0,0.000000,28.111715,"$GPGGA,175857.90,3721.9395309,N,07958.3742219,W,2,06,1.19,362.2995,M,-32.8285,M,0.9,0000*4E"
287,0,0.000000,28.240275,"$GPGGA,175858.00,3721.9395401,N,07958.3742217,W,2,06,1.19,362.3134,M,-32.8285,M,1.0,0000*43"
287,0,0.000000,28.316142,"$GPGGA,175858.10,3721.9395312,N,07958.3742139,W,2,06,1.19,362.3183,M,-32.8285,M,1.1,0000*45"
287,0,0.000000,28.415168,"$GPGGA,175858.20,3721.9395232,N,07958.3742027,W,2,06,1.19,362.2934,M,-32.8285,M,1.2,0000*4D"
290,0,0.000000,33.811288,"$GPGGA,175903.60,3721.9395397,N,07958.3741790,W,2,05,1.51,362.2879,M,-32.8285,M,0.6,0000*42"
290,0,0.000000,33.911616,"$GPGGA,175903.70,3721.9395293,N,07958.3741645,W,2,05,1.51,362.3058,M,-32.8285,M,0.7,0000*44"
290,0,0.000000,34.014995,"$GPGGA,175903.80,3721.9395156,N,07958.3741530,W,2,05,1.51,362.3262,M,-32.8285,M,0.8,0000*44"
290,0,0.000000,34.114665,"$GPGGA,175903.90,3721.9394929,N,07958.3741693,W,2,05,1.51,362.4351,M,-32.8285,M,0.9,0000*49"
292,0,0.000000,34.242288,"$GPGGA,175904.00,3721.9394790,N,07958.3741465,W,2,05,1.51,362.4397,M,-32.8285,M,1.0,0000*42"
292,0,0.000000,34.314593,"$GPGGA,175904.10,3721.9394794,N,07958.3741158,W,2,05,1.51,362.3837,M,-32.8285,M,1.1,0000*4B"
294,0,0.000000,34.411569,"$GPGGA,175904.20,3721.9394577,N,07958.3740932,W,2,05,1.51,362.3781,M,-32.8285,M,1.2,0000*43"
296,0,0.000000,34.512105,"$GPGGA,175904.30,3721.9394436,N,07958.3740497,W,2,05,1.51,362.3062,M,-32.8285,M,1.3,0000*4F"
297,0,0.000000,34.611647,"$GPGGA,175904.40,3721.9394377,N,07958.3740159,W,2,05,1.51,362.3169,M,-32.8285,M,0.8,0000*4D"
298,0,0.000000,34.714371,"$GPGGA,175904.50,3721.9394320,N,07958.3739670,W,2,05,1.51,362.3076,M,-32.8285,M,0.9,0000*42"
300,0,0.000000,34.815728,"$GPGGA,175904.60,3721.9394211,N,07958.3739254,W,2,05,1.51,362.2973,M,-32.8285,M,1.0,0000*45"
301,0,0.000000,34.913782,"$GPGGA,175904.70,3721.9394081,N,07958.3738958,W,2,05,1.51,362.2776,M,-32.8285,M,1.1,0000*43"
302,0,0.000000,35.013109,"$GPGGA,175904.80,3721.9393891,N,07958.3738840,W,2,05,1.51,362.2644,M,-32.8285,M,1.2,0000*49"
304,0,0.000000,35.114066,"$GPGGA,175904.90,3721.9393674,N,07958.3738809,W,2,05,1.51,362.2377,M,-32.8285,M,1.3,0000*44"
306,0,0.000000,35.238807,"$GPGGA,175905.00,3721.9393357,N,07958.3738689,W,2,05,1.51,362.2445,M,-32.8285,M,1.4,0000*4F"
307,0,0.000000,35.312044,"$GPGGA,175905.10,3721.9393243,N,07958.3738207,W,2,05,1.51,362.2195,M,-32.8285,M,1.5,0000*41"
309,0,0.000000,35.414980,"$GPGGA,175905.20,3721.9392996,N,07958.3737730,W,2,05,1.51,362.2047,M,-32.8285,M,1.6,0000*43"
311,0,0.000000,35.515363,"$GPGGA,175905.30,3721.9392750,N,07958.3737416,W,2,05,1.51,362.2015,M,-32.8285,M,1.7,0000*47"
313,0,0.000000,35.615476,"$GPGGA,175905.40,3721.9392537,N,07958.3737175,W,2,05,1.51,362.2032,M,-32.8285,M,0.6,0000*46"
314,0,0.000000,35.713166,"$GPGGA,175905.50,3721.9392294,N,07958.3736852,W,2,06,1.19,362.1739,M,-32.8285,M,0.7,0000*45"
315,0,0.000000,35.812696,"$GPGGA,175905.60,3721.9392130,N,07958.3736570,W,2,06,1.19,362.1464,M,-32.8285,M,0.8,0000*42"
317,0,0.000000,35.912618,"$GPGGA,175905.70,3721.9391879,N,07958.3736378,W,2,06,1.19,362.1069,M,-32.8285,M,0.9,0000*42"
318,0,0.000000,36.015796,"$GPGGA,175905.80,3721.9391699,N,07958.3736103,W,2,06,1.19,362.0957,M,-32.8285,M,1.0,0000*4E"
319,0,0.000000,36.115876,"$GPGGA,175905.90,3721.9391477,N,07958.3735880,W,2,06,1.19,362.0879,M,-32.8285,M,1.1,0000*40"
320,0,0.000000,36.243883,"$GPGGA,175906.00,3721.9391251,N,07958.3735857,W,2,06,1.19,362.0913,M,-32.8285,M,1.2,0000*4C"
321,0,0.000000,36.323168,"$GPGGA,175906.10,3721.9391155,N,07958.3735796,W,2,06,1.19,362.0886,M,-32.8285,M,1.3,0000*44"
322,0,0.000000,36.414315,"$GPGGA,175906.20,3721.9390877,N,07958.3735656,W,2,06,1.19,362.1076,M,-32.8285,M,1.4,0000*43"
324,0,0.000000,36.512003,"$GPGGA,175906.30,3721.9390541,N,07958.3735391,W,2,06,1.19,362.1475,M,-32.8285,M,1.5,0000*42"
326,0,0.000000,36.611522,"$GPGGA,175906.40,3721.9390616,N,07958.3734949,W,2,06,1.19,362.1219,M,-32.8285,M,0.4,0000*46"
328,0,0.000000,36.712848,"$GPGGA,175906.50,3721.9390412,N,07958.3734584,W,2,06,1.19,362.0749,M,-32.8285,M,0.5,0000*4C"
330,0,0.000000,36.816011,"$GPGGA,175906.60,3721.9389965,N,07958.3734242,W,2,06,1.19,362.0244,M,-32.8285,M,0.6,0000*4C"
331,0,0.000000,36.915359,"$GPGGA,175906.70,3721.9389783,N,07958.3734030,W,2,06,1.19,361.9929,M,-32.8285,M,0.7,0000*47"
333,0,0.000000,37.015825,"$GPGGA,175906.80,3721.9389635,N,07958.3733828,W,2,06,1.19,361.9973,M,-32.8285,M,0.8,0000*42"
335,0,0.000000,37.113976,"$GPGGA,175906.90,3721.9389372,N,07958.3733585,W,2,06,1.19,362.0354,M,-32.8285,M,0.9,0000*4B"
337,0,0.000000,37.240857,"$GPGGA,175907.00,3721.9389147,N,07958.3733213,W,2,06,1.19,362.0321,M,-32.8285,M,1.0,0000*45"
338,0,0.000000,37.312313,"$GPGGA,175907.10,3721.9389096,N,07958.3732774,W,2,06,1.19,362.0025,M,-32.8285,M,1.1,0000*4A"
339,0,0.000000,37.412274,"$GPGGA,175907.20,3721.9388870,N,07958.3732442,W,2,06,1.19,362.0115,M,-32.8285,M,1.2,0000*4F"
341,0,0.000000,37.515763,"$GPGGA,175907.30,3721.9388523,N,07958.3732283,W,2,06,1.19,361.9859,M,-32.8285,M,1.3,0000*44"
342,0,0.000000,37.615449,"$GPGGA,175907.40,3721.9388101,N,07958.3732086,W,2,06,1.19,362.0326,M,-32.8285,M,0.8,0000*43"
344,0,0.000000,37.715253,"$GPGGA,175907.50,3721.9387945,N,07958.3732024,W,2,06,1.19,361.9931,M,-32.8285,M,0.9,0000*4A"
345,0,0.000000,37.814172,"$GPGGA,175907.60,3721.9387734,N,07958.3731878,W,2,06,1.19,361.9835,M,-32.8285,M,1.0,0000*4E"
346,0,0.000000,37.911886,"$GPGGA,175907.70,3721.9387361,N,07958.3731684,W,2,06,1.19,362.0454,M,-32.8285,M,1.1,0000*46"
347,0,0.000000,38.012161,"$GPGGA,175907.80,3721.9387211,N,07958.3731467,W,2,06,1.19,362.0396,M,-32.8285,M,1.2,0000*4A"
349,0,0.000000,38.116261,"$GPGGA,175907.90,3721.9388705,N,07958.3731013,W,2,06,1.19,362.1804,M,-32.8285,M,1.3,0000*43"
349,0,0.000000,38.244051,"$GPGGA,175908.00,3721.9389304,N,07958.3730732,W,2,06,1.19,362.3535,M,-32.8285,M,1.4,0000*4E"
350,0,0.000000,38.315555,"$GPGGA,175908.10,3721.9388898,N,07958.3730452,W,2,06,1.19,362.3280,M,-32.8285,M,1.5,0000*4D"
351,0,0.000000,38.417157,"$GPGGA,175908.20,3721.9388683,N,07958.3730464,W,2,06,1.19,362.3639,M,-32.8285,M,1.6,0000*4A"
353,0,0.000000,38.514229,"$GPGGA,175908.30,3721.9388506,N,07958.3730365,W,2,06,1.19,362.3648,M,-32.8285,M,1.7,0000*44"
354,0,0.000000,38.612493,"$GPGGA,175908.40,3721.9388218,N,07958.3730060,W,2,06,1.19,362.4110,M,-32.8285,M,0.6,0000*40"
356,0,0.000000,38.712581,"$GPGGA,175908.50,3721.9387906,N,07958.3729692,W,2,06,1.19,362.4663,M,-32.8285,M,0.7,0000*4B"
357,0,0.000000,38.811508,"$GPGGA,175908.60,3721.9387997,N,07958.3729282,W,2,06,1.19,362.3956,M,-32.8285,M,0.8,0000*44"
358,0,0.000000,38.915807,"$GPGGA,175908.70,3721.9387843,N,07958.3729087,W,2,06,1.19,362.4032,M,-32.8285,M,0.9,0000*47"
359,0,0.000000,39.015465,"$GPGGA,175908.80,3721.9387620,N,07958.3728882,W,2,06,1.19,362.4117,M,-32.8285,M,1.0,0000*41"
361,0,0.000000,39.115614,"$GPGGA,175908.90,3721.9387296,N,07958.3728810,W,2,06,1.19,362.4053,M,-32.8285,M,1.1,0000*42"
363,0,0.000000,39.242690,"$GPGGA,175909.00,3721.9387039,N,07958.3728583,W,2,06,1.19,362.3524,M,-32.8285,M,1.2,0000*4B"
364,0,0.000000,39.314825,"$GPGGA,175909.10,3721.9386807,N,07958.3728271,W,2,06,1.19,362.3184,M,-32.8285,M,1.3,0000*4B"
365,0,0.000000,39.412031,"$GPGGA,175909.20,3721.9386244,N,07958.3728285,W,2,06,1.19,362.3799,M,-32.8285,M,1.4,0000*43"
367,0,0.000000,39.512594,"$GPGGA,175909.30,3721.9386171,N,07958.3727975,W,2,06,1.19,362.3346,M,-32.8285,M,1.5,0000*4B"
369,0,0.000000,39.615833,"$GPGGA,175909.40,3721.9386065,N,07958.3727399,W,2,06,1.19,362.3367,M,-32.8285,M,0.4,0000*43"
370,0,0.000000,39.715141,"$GPGGA,175909.50,3721.9385588,N,07958.3727249,W,2,06,1.19,362.3235,M,-32.8285,M,0.5,0000*4C"
372,0,0.000000,39.814360,"$GPGGA,175909.60,3721.9385201,N,07958.3727135,W,2,05,1.64,362.2940,M,-32.8285,M,0.6,0000*43"
374,0,0.000000,39.914445,"$GPGGA,175909.70,3721.9385087,N,07958.3726663,W,2,06,1.19,362.3371,M,-32.8285,M,0.7,0000*4A"
376,0,0.000000,40.012339,"$GPGGA,175909.80,3721.9384992,N,07958.3726202,W,2,06,1.19,362.3057,M,-32.8285,M,0.8,0000*42"
377,0,0.000000,40.112412,"$GPGGA,175909.90,3721.9384707,N,07958.3725955,W,2,06,1.19,362.3093,M,-32.8285,M,0.9,0000*42"
379,0,0.000000,40.240759,"$GPGGA,175910.00,3721.9384396,N,07958.3725871,W,2,06,1.19,362.2939,M,-32.8285,M,1.0,0000*48"
380,0,0.000000,40.315711,"$GPGGA,175910.10,3721.9384187,N,07958.3725541,W,2,06,1.19,362.2966,M,-32.8285,M,1.1,0000*4E"
381,0,0.000000,40.415942,"$GPGGA,175910.20,3721.9384021,N,07958.3725077,W,2,06,1.19,362.3151,M,-32.8285,M,1.2,0000*4E"
383,0,0.000000,40.515540,"$GPGGA,175910.30,3721.9383800,N,07958.3724874,W,2,06,1.19,362.2955,M,-32.8285,M,1.3,0000*45"
384,0,0.000000,40.614310,"$GPGGA,175910.40,3721.9383522,N,07958.3724851,W,2,06,1.19,362.2710,M,-32.8285,M,0.8,0000*4D"
385,0,0.000000,40.713430,"$GPGGA,175910.50,3721.9383359,N,07958.3724682,W,2,06,1.19,362.2751,M,-32.8285,M,0.9,0000*42"
386,0,0.000000,40.812881,"$GPGGA,175910.60,3721.9383186,N,07958.3724402,W,2,06,1.19,362.2679,M,-32.8285,M,1.0,0000*48"
387,0,0.000000,40.915860,"$GPGGA,175910.70,3721.9383037,N,07958.3724101,W,2,06,1.19,362.2555,M,-32.8285,M,1.1,0000*48"
388,0,0.000000,41.026114,"$GPGGA,175910.80,3721.9382670,N,07958.3724154,W,2,06,1.19,362.2485,M,-32.8285,M,1.2,0000*4C"
389,0,0.000000,41.116068,"$GPGGA,175910.90,3721.9383226,N,07958.3722939,W,2,06,1.19,362.3422,M,-32.8285,M,1.3,0000*43"
391,0,0.000000,41.244763,"$GPGGA,175911.00,3721.9382244,N,07958.3723711,W,2,06,1.19,362.2686,M,-32.8285,M,1.4,0000*41"
391,0,0.000000,41.316270,"$GPGGA,175911.10,3721.9382124,N,07958.3723389,W,2,06,1.19,362.2707,M,-32.8285,M,1.5,0000*49"
392,0,0.000000,41.412564,"$GPGGA,175911.20,3721.9382016,N,07958.3723092,W,2,06,1.19,362.2647,M,-32.8285,M,1.6,0000*45"
393,0,0.000000,41.512189,"$GPGGA,175911.30,3721.9381943,N,07958.3722891,W,2,06,1.19,362.2498,M,-32.8285,M,1.7,0000*45"
394,0,0.000000,41.611953,"$GPGGA,175911.40,3721.9381838,N,07958.3722720,W,2,06,1.19,362.2539,M,-32.8285,M,0.6,0000*40"
395,0,0.000000,41.714558,"$GPGGA,175911.50,3721.9381664,N,07958.3722544,W,2,05,1.64,362.2727,M,-32.8285,M,0.7,0000*43"
396,0,0.000000,41.815138,"$GPGGA,175911.60,3721.9381452,N,07958.3722450,W,2,05,1.64,362.2767,M,-32.8285,M,0.8,0000*48"
397,0,0.000000,41.916125,"$GPGGA,175911.70,3721.9381172,N,07958.3722518,W,2,06,1.19,362.2089,M,-32.8285,M,0.9,0000*4C"
397,0,0.000000,42.014736,"$GPGGA,175911.80,3721.9381124,N,07958.3722361,W,2,06,1.19,362.2101,M,-32.8285,M,1.0,0000*41"
398,0,0.000000,42.113709,"$GPGGA,175911.90,3721.9381148,N,07958.3722008,W,2,06,1.19,362.2395,M,-32.8285,M,1.1,0000*48"
399,0,0.000000,42.239795,"$GPGGA,175912.00,3721.9381223,N,07958.3721834,W,2,05,1.64,362.2653,M,-32.8285,M,1.2,0000*4D"
399,0,0.000000,42.312546,"$GPGGA,175912.10,3721.9381467,N,07958.3721665,W,2,05,1.64,362.2938,M,-32.8285,M,1.3,0000*43"
400,0,0.000000,42.415077,"$GPGGA,175912.20,3721.9381447,N,07958.3721548,W,2,05,1.64,362.3057,M,-32.8285,M,1.4,0000*48"
400,0,0.000000,42.515443,"$GPGGA,175912.30,3721.9381421,N,07958.3721476,W,2,05,1.64,362.3025,M,-32.8285,M,1.5,0000*41"
401,0,0.000000,42.615376,"$GPGGA,175912.40,3721.9381215,N,07958.3721547,W,2,05,1.64,362.3352,M,-32.8285,M,0.4,0000*47"
402,0,0.000000,42.716542,"$GPGGA,175912.50,3721.9381190,N,07958.3721298,W,2,05,1.64,362.3751,M,-32.8285,M,0.5,0000*4B"
402,0,0.000000,42.812323,"$GPGGA,175912.60,3721.9381083,N,07958.3721170,W,2,05,1.64,362.3916,M,-32.8285,M,0.6,0000*40"
403,0,0.000000,42.911882,"$GPGGA,175912.70,3721.9380962,N,07958.3721017,W,2,05,1.64,362.3957,M,-32.8285,M,0.7,0000*42"
404,0,0.000000,43.012037,"$GPGGA,175912.80,3721.9380870,N,07958.3720853,W,2,05,1.64,362.4141,M,-32.8285,M,0.8,0000*41"
404,0,0.000000,43.116040,"$GPGGA,175912.90,3721.9380719,N,07958.3720788,W,2,05,1.64,362.4381,M,-32.8285,M,0.9,0000*46"
406,0,0.000000,43.242666,"$GPGGA,175913.00,3721.9380258,N,07958.3720728,W,2,05,1.64,362.2356,M,-32.8285,M,1.0,0000*40"
406,0,0.000000,43.315218,"$GPGGA,175913.10,3721.9380177,N,07958.3720866,W,2,05,1.64,362.3082,M,-32.8285,M,1.1,0000*40"
407,0,0.000000,43.413573,"$GPGGA,175913.20,3721.9380346,N,07958.3720345,W,2,05,1.64,362.3193,M,-32.8285,M,1.2,0000*4B"
408,0,0.000000,43.512871,"$GPGGA,175913.30,3721.9380377,N,07958.3720068,W,2,05,1.64,362.3111,M,-32.8285,M,1.3,0000*4F"
409,0,0.000000,43.612610,"$GPGGA,175913.40,3721.9380308,N,07958.3719953,W,2,05,1.64,362.3067,M,-32.8285,M,0.8,0000*41"
409,0,0.000000,43.712746,"$GPGGA,175913.50,3721.9380248,N,07958.3719711,W,2,05,1.64,362.2873,M,-32.8285,M,0.9,0000*40"
410,0,0.000000,43.815801,"$GPGGA,175913.60,3721.9380173,N,07958.3719282,W,2,05,1.64,362.2176,M,-32.8285,M,1.0,0000*43"
411,0,0.000000,43.915697,"$GPGGA,175913.70,3721.9380196,N,07958.3719087,W,2,05,1.64,362.2291,M,-32.8285,M,1.1,0000*45"
412,0,0.000000,44.015785,"$GPGGA,175913.80,3721.9380177,N,07958.3718900,W,2,05,1.64,362.2590,M,-32.8285,M,1.2,0000*47"
413,0,0.000000,44.115819,"$GPGGA,175913.90,3721.9379532,N,07958.3718517,W,2,05,1.64,362.1406,M,-32.8285,M,1.3,0000*43"
413,0,0.000000,44.238179,"$GPGGA,175914.00,3721.9379580,N,07958.3718260,W,2,04,1.82,362.1150,M,-32.8285,M,1.4,0000*4B"
414,0,0.000000,44.311839,"$GPGGA,175914.10,3721.9379573,N,07958.3717891,W,2,04,1.82,362.0954,M,-32.8285,M,1.5,0000*41"
415,0,0.000000,44.411567,"$GPGGA,175914.20,3721.9379514,N,07958.3717664,W,2,04,1.82,362.0951,M,-32.8285,M,1.6,0000*41"
416,0,0.000000,44.514983,"$GPGGA,175914.30,3721.9379427,N,07958.3717500,W,2,04,1.82,362.1018,M,-32.8285,M,1.7,0000*44"
417,0,0.000000,44.615233,"$GPGGA,175914.40,3721.9379279,N,07958.3717372,W,2,04,1.82,362.1192,M,-32.8285,M,0.6,0000*4E"
418,0,0.000000,44.715483,"$GPGGA,175914.50,3721.9379160,N,07958.3717118,W,2,04,1.82,362.0936,M,-32.8285,M,0.7,0000*4C"
419,0,0.000000,44.814700,"$GPGGA,175914.60,3721.9379079,N,07958.3716881,W,2,05,1.64,362.0867,M,-32.8285,M,0.8,0000*4D"
420,0,0.000000,44.912933,"$GPGGA,175914.70,3721.9378957,N,07958.3716666,W,2,05,1.64,362.0871,M,-32.8285,M,0.9,0000*49"
421,0,0.000000,45.012459,"$GPGGA,175914.80,3721.9378816,N,07958.3716427,W,2,05,1.64,362.0832,M,-32.8285,M,1.0,0000*4A"
422,0,0.000000,45.110875,"$GPGGA,175914.90,3721.9378751,N,07958.3716110,W,2,05,1.64,362.0489,M,-32.8285,M,1.1,0000*4B"
423,0,0.000000,45.241567,"$GPGGA,175915.00,3721.9378702,N,07958.3715706,W,2,05,1.64,362.0261,M,-32.8285,M,1.2,0000*44"
424,0,0.000000,45.316490,"$GPGGA,175915.10,3721.9378788,N,07958.3715165,W,2,05,1.64,362.0641,M,-32.8285,M,1.3,0000*43"
425,0,0.000000,45.415195,"$GPGGA,175915.20,3721.9378592,N,07958.3714970,W,2,05,1.64,362.0225,M,-32.8285,M,1.4,0000*45"
426,0,0.000000,45.515488,"$GPGGA,175915.30,3721.9378627,N,07958.3714510,W,2,05,1.64,361.8919,M,-32.8285,M,1.5,0000*4D"
427,0,0.000000,45.612651,"$GPGGA,175915.40,3721.9378513,N,07958.3714369,W,2,05,1.64,361.9298,M,-32.8285,M,0.4,0000*45"
428,0,0.000000,45.711828,"$GPGGA,175915.50,3721.9378407,N,07958.3714161,W,2,05,1.64,362.0080,M,-32.8285,M,0.5,0000*4A"
429,0,0.000000,45.811472,"$GPGGA,175915.60,3721.9378154,N,07958.3714404,W,2,05,1.64,362.1964,M,-32.8285,M,0.6,0000*4D"
430,0,0.000000,45.915326,"$GPGGA,175915.70,3721.9378129,N,07958.3714262,W,2,05,1.64,362.1900,M,-32.8285,M,0.7,0000*43"
431,0,0.000000,46.015194,"$GPGGA,175915.80,3721.9378010,N,07958.3714032,W,2,05,1.64,362.1614,M,-32.8285,M,0.8,0000*45"
433,0,0.000000,46.114696,"$GPGGA,175915.90,3721.9377984,N,07958.3713644,W,2,05,1.64,362.1438,M,-32.8285,M,0.9,0000*42"
434,0,0.000000,46.243582,"$GPGGA,175916.00,3721.9377608,N,07958.3713497,W,2,05,1.64,362.1458,M,-32.8285,M,1.0,0000*41"
435,0,0.000000,46.314800,"$GPGGA,175916.10,3721.9377343,N,07958.3713261,W,2,05,1.64,362.1735,M,-32.8285,M,1.1,0000*4C"
436,0,0.000000,46.412800,"$GPGGA,175916.20,3721.9377376,N,07958.3712853,W,2,05,1.64,362.2123,M,-32.8285,M,1.2,0000*42"
437,0,0.000000,46.512564,"$GPGGA,175916.30,3721.9377640,N,07958.3712958,W,2,05,1.64,361.9895,M,-32.8285,M,1.3,0000*44"
439,0,0.000000,46.615407,"$GPGGA,175916.40,3721.9377539,N,07958.3712767,W,2,05,1.64,361.9998,M,-32.8285,M,0.8,0000*4A"
441,0,0.000000,46.716955,"$GPGGA,175916.50,3721.9377555,N,07958.3711818,W,2,05,1.64,362.1673,M,-32.8285,M,0.9,0000*45"
442,0,0.000000,46.816428,"$GPGGA,175916.60,3721.9377468,N,07958.3711414,W,2,05,1.64,362.1835,M,-32.8285,M,1.0,0000*4D"
443,0,0.000000,46.915668,"$GPGGA,175916.70,3721.9377262,N,07958.3712028,W,2,05,1.64,362.1260,M,-32.8285,M,1.1,0000*43"
445,0,0.000000,47.013279,"$GPGGA,175916.80,3721.9377221,N,07958.3711627,W,2,05,1.64,362.1408,M,-32.8285,M,1.2,0000*4A"
446,0,0.000000,47.112246,"$GPGGA,175916.90,3721.9377140,N,07958.3711160,W,2,05,1.64,362.1457,M,-32.8285,M,1.3,0000*40"
448,0,0.000000,47.240186,"$GPGGA,175917.00,3721.9377032,N,07958.3710961,W,2,05,1.64,362.1497,M,-32.8285,M,1.4,0000*4F"
449,0,0.000000,47.315333,"$GPGGA,175917.10,3721.9376975,N,07958.3710762,W,2,05,1.64,362.1473,M,-32.8285,M,1.5,0000*43"
451,0,0.000000,47.415052,"$GPGGA,175917.20,3721.9376677,N,07958.3710772,W,2,05,1.64,362.1545,M,-32.8285,M,1.6,0000*4B"
452,0,0.000000,47.514314,"$GPGGA,175917.30,3721.9376550,N,07958.3710303,W,2,05,1.64,362.1690,M,-32.8285,M,1.7,0000*44"
454,0,0.000000,47.616165,"$GPGGA,175917.40,3721.9376565,N,07958.3709819,W,2,05,1.64,362.1817,M,-32.8285,M,0.6,0000*4C"
455,0,0.000000,47.713033,"$GPGGA,175917.50,3721.9376680,N,07958.3709353,W,2,05,1.64,362.1917,M,-32.8285,M,0.7,0000*40"
456,0,0.000000,47.812567,"$GPGGA,175917.60,3721.9376238,N,07958.3709359,W,2,05,1.64,362.2675,M,-32.8285,M,0.8,0000*49"
457,0,0.000000,47.912296,"$GPGGA,175917.70,3721.9376099,N,07958.3708897,W,2,05,1.64,362.1536,M,-32.8285,M,0.9,0000*4F"
458,0,0.000000,48.011281,"$GPGGA,175917.80,3721.9375958,N,07958.3708662,W,2,05,1.64,362.1645,M,-32.8285,M,1.0,0000*4C"
460,0,0.000000,48.115007,"$GPGGA,175917.90,3721.9375974,N,07958.3708411,W,2,05,1.64,362.1535,M,-32.8285,M,1.1,0000*40"
462,0,0.000000,48.243022,"$GPGGA,175918.00,3721.9376119,N,07958.3708068,W,2,05,1.64,362.1441,M,-32.8285,M,1.2,0000*4D"
463,0,0.000000,48.315167,"$GPGGA,175918.10,3721.9376188,N,07958.3707685,W,2,05,1.64,362.1948,M,-32.8285,M,1.3,0000*4B"
464,0,0.000000,48.412996,"$GPGGA,175918.20,3721.9376420,N,07958.3706861,W,2,05,1.64,362.0852,M,-32.8285,M,1.4,0000*46"
464,0,0.000000,48.511508,"$GPGGA,175918.30,3721.9376392,N,07958.3706430,W,2,05,1.64,362.0966,M,-32.8285,M,1.5,0000*46"
465,0,0.000000,48.613348,"$GPGGA,175918.40,3721.9375880,N,07958.3706496,W,2,04,3.82,362.1202,M,-32.8285,M,0.4,0000*45"
465,0,0.000000,48.715618,"$GPGGA,175918.50,3721.9376130,N,07958.3706046,W,2,05,1.64,362.0673,M,-32.8285,M,0.5,0000*45"
466,0,0.000000,48.815325,"$GPGGA,175918.60,3721.9375641,N,07958.3706448,W,2,05,1.64,362.1348,M,-32.8285,M,0.6,0000*41"
467,0,0.000000,48.915913,"$GPGGA,175918.70,3721.9375517,N,07958.3706356,W,2,05,1.64,362.1359,M,-32.8285,M,0.7,0000*49"
468,0,0.000000,49.014691,"$GPGGA,175918.80,3721.9375360,N,07958.3706252,W,2,05,1.64,362.1335,M,-32.8285,M,0.8,0000*40"
470,0,0.000000,49.112718,"$GPGGA,175918.90,3721.9375241,N,07958.3706111,W,2,05,1.64,362.1366,M,-32.8285,M,0.9,0000*40"
472,0,0.000000,49.239030,"$GPGGA,175919.00,3721.9375248,N,07958.3705963,W,2,05,1.64,362.1462,M,-32.8285,M,1.0,0000*44"
473,0,0.000000,49.311815,"$GPGGA,175919.10,3721.9375253,N,07958.3705627,W,2,05,1.64,362.1750,M,-32.8285,M,1.1,0000*43"
475,0,0.000000,49.416259,"$GPGGA,175919.20,3721.9375503,N,07958.3705034,W,2,05,1.64,362.0966,M,-32.8285,M,1.2,0000*4F"
476,0,0.000000,49.518228,"$GPGGA,175919.30,3721.9375342,N,07958.3704799,W,2,05,1.64,362.1440,M,-32.8285,M,1.3,0000*45"
477,0,0.000000,49.615544,"$GPGGA,175919.40,3721.9374720,N,07958.3704549,W,2,05,1.64,362.0193,M,-32.8285,M,0.8,0000*4C"
479,0,0.000000,49.715211,"$GPGGA,175919.50,3721.9374920,N,07958.3703998,W,2,05,1.64,361.9814,M,-32.8285,M,0.9,0000*49"
480,0,0.000000,49.813640,"$GPGGA,175919.60,3721.9374771,N,07958.3703779,W,2,05,1.64,362.0101,M,-32.8285,M,1.0,0000*4E"
482,0,0.000000,49.911709,"$GPGGA,175919.70,3721.9374749,N,07958.3703513,W,2,05,1.64,362.0445,M,-32.8285,M,1.1,0000*4E"
484,0,0.000000,50.011558,"$GPGGA,175919.80,3721.9375054,N,07958.3702778,W,2,05,1.64,361.9286,M,-32.8285,M,1.2,0000*45"
484,0,0.000000,50.113870,"$GPGGA,175919.90,3721.9375033,N,07958.3702199,W,2,05,1.64,361.9598,M,-32.8285,M,1.3,0000*45"
486,0,0.000000,50.242355,"$GPGGA,175920.00,3721.9374962,N,07958.3701733,W,2,05,1.64,361.9324,M,-32.8285,M,1.4,0000*49"
487,0,0.000000,50.315604,"$GPGGA,175920.10,3721.9374728,N,07958.3701546,W,2,05,1.64,361.9655,M,-32.8285,M,1.5,0000*4A"
488,0,0.000000,50.415264,"$GPGGA,175920.20,3721.9374652,N,07958.3701346,W,2,05,1.64,361.9464,M,-32.8285,M,1.6,0000*40"
490,0,0.000000,50.513201,"$GPGGA,175920.30,3721.9374808,N,07958.3700979,W,2,05,1.64,361.9005,M,-32.8285,M,1.7,0000*45"
492,0,0.000000,50.612217,"$GPGGA,175920.40,3721.9374821,N,07958.3700710,W,2,05,1.64,361.9074,M,-32.8285,M,0.6,0000*4E"
494,0,0.000000,50.713916,"$GPGGA,175920.50,3721.9374811,N,07958.3700247,W,2,05,1.64,361.9239,M,-32.8285,M,0.7,0000*41"
495,0,0.000000,50.814716,"$GPGGA,175920.60,3721.9374752,N,07958.3699910,W,2,05,1.64,361.9450,M,-32.8285,M,0.8,0000*44"
497,0,0.000000,50.913763,"$GPGGA,175920.70,3721.9374622,N,07958.3699645,W,2,05,1.64,361.9566,M,-32.8285,M,0.9,0000*49"
498,0,0.000000,51.015351,"$GPGGA,175920.80,3721.9374517,N,07958.3699371,W,2,05,1.64,361.9623,M,-32.8285,M,1.0,0000*4B"
499,0,0.000000,51.116251,"$GPGGA,175920.90,3721.9374534,N,07958.3698867,W,2,05,1.64,361.9195,M,-32.8285,M,1.1,0000*4D"
500,0,0.000000,51.241761,"$GPGGA,175921.00,3721.9374621,N,07958.3698496,W,2,05,1.64,361.9118,M,-32.8285,M,1.2,0000*46"
500,0,0.000000,51.313189,"$GPGGA,175921.10,3721.9374469,N,07958.3698308,W,2,05,1.64,361.9763,M,-32.8285,M,1.3,0000*42"
501,0,0.000000,51.411174,"$GPGGA,175921.20,3721.9374298,N,07958.3698192,W,2,05,1.64,362.0009,M,-32.8285,M,1.4,0000*4E"
503,0,0.000000,51.511618,"$GPGGA,175921.30,3721.9374327,N,07958.3697939,W,2,05,1.64,361.9721,M,-32.8285,M,1.5,0000*4A"
504,0,0.000000,51.615064,"$GPGGA,175921.40,3721.9374331,N,07958.3697665,W,2,05,1.64,361.9367,M,-32.8285,M,0.4,0000*4A"
505,0,0.000000,51.714674,"$GPGGA,175921.50,3721.9374060,N,07958.3697432,W,2,05,1.64,361.9585,M,-32.8285,M,0.5,0000*47"
506,0,0.000000,51.819530,"$GPGGA,175921.60,3721.9374074,N,07958.3696950,W,2,05,1.64,361.9697,M,-32.8285,M,0.6,0000*4A"
507,0,0.000000,51.913114,"$GPGGA,175921.70,3721.9374153,N,07958.3696527,W,2,05,1.64,361.9269,M,-32.8285,M,0.7,0000*47"
508,0,0.000000,52.011615,"$GPGGA,175921.80,3721.9374312,N,07958.3696227,W,2,05,1.64,361.9270,M,-32.8285,M,0.8,0000*4F"
509,0,0.000000,52.113958,"$GPGGA,175921.90,3721.9374694,N,07958.3695782,W,2,05,1.64,361.9552,M,-32.8285,M,0.9,0000*4A"
511,0,0.000000,52.243074,"$GPGGA,175922.00,3721.9375064,N,07958.3695446,W,2,05,1.64,362.0399,M,-32.8285,M,1.0,0000*40"
512,0,0.000000,52.315612,"$GPGGA,175922.10,3721.9374960,N,07958.3695216,W,2,05,1.64,362.0613,M,-32.8285,M,1.1,0000*48"
513,0,0.000000,52.415001,"$GPGGA,175922.20,3721.9374774,N,07958.3694796,W,2,05,1.64,361.9898,M,-32.8285,M,1.2,0000*48"
515,0,0.000000,52.515250,"$GPGGA,175922.30,3721.9374725,N,07958.3694576,W,2,05,1.64,361.9846,M,-32.8285,M,1.3,0000*43"
516,0,0.000000,52.613227,"$GPGGA,175922.40,3721.9374524,N,07958.3694325,W,2,05,1.64,361.9982,M,-32.8285,M,0.8,0000*44"
517,0,0.000000,52.711288,"$GPGGA,175922.50,3721.9374471,N,07958.3693895,W,2,05,1.64,361.9963,M,-32.8285,M,0.9,0000*4D"
518,0,0.000000,52.811715,"$GPGGA,175922.60,3721.9374695,N,07958.3693520,W,2,05,1.64,361.9531,M,-32.8285,M,1.0,0000*46"
520,0,0.000000,52.911237,"$GPGGA,175922.70,3721.9374535,N,07958.3693398,W,2,05,1.64,361.9855,M,-32.8285,M,1.1,0000*45"
521,0,0.000000,53.014847,"$GPGGA,175922.80,3721.9374405,N,07958.3693118,W,2,05,1.64,362.0210,M,-32.8285,M,1.2,0000*40"
522,0,0.000000,53.115152,"$GPGGA,175922.90,3721.9374219,N,07958.3692826,W,2,05,1.64,362.0699,M,-32.8285,M,1.3,0000*4B"
523,0,0.000000,53.243062,"$GPGGA,175923.00,3721.9374202,N,07958.3692548,W,2,05,1.64,362.0020,M,-32.8285,M,1.4,0000*4F"
524,0,0.000000,53.313916,"$GPGGA,175923.10,3721.9373954,N,07958.3692315,W,2,05,1.64,361.9679,M,-32.8285,M,1.5,0000*4E"
525,0,0.000000,53.412208,"$GPGGA,175923.20,3721.9373866,N,07958.3692115,W,2,05,1.64,362.0807,M,-32.8285,M,1.6,0000*41"
527,0,0.000000,53.512169,"$GPGGA,175923.30,3721.9373754,N,07958.3691860,W,2,05,1.64,361.9842,M,-32.8285,M,1.7,0000*4C"
528,0,0.000000,53.616094,"$GPGGA,175923.40,3721.9373729,N,07958.3691571,W,2,05,1.64,361.9194,M,-32.8285,M,0.6,0000*4E"
529,0,0.000000,53.714112,"$GPGGA,175923.50,3721.9373623,N,07958.3691257,W,2,05,1.64,361.8617,M,-32.8285,M,0.7,0000*4B"
530,0,0.000000,53.815539,"$GPGGA,175923.60,3721.9373606,N,07958.3690677,W,2,05,1.64,361.9743,M,-32.8285,M,0.8,0000*46"
531,0,0.000000,53.915077,"$GPGGA,175923.70,3721.9373641,N,07958.3690615,W,2,05,1.64,361.9880,M,-32.8285,M,0.9,0000*41"
532,0,0.000000,54.014232,"$GPGGA,175923.80,3721.9373526,N,07958.3690471,W,2,05,1.64,361.9387,M,-32.8285,M,1.0,0000*48"
533,0,0.000000,54.111210,"$GPGGA,175923.90,3721.9373428,N,07958.3690292,W,2,05,1.64,361.9212,M,-32.8285,M,1.1,0000*41"
535,0,0.000000,54.238658,"$GPGGA,175924.00,3721.9373326,N,07958.3690056,W,2,05,1.64,361.9093,M,-32.8285,M,1.2,0000*44"
536,0,0.000000,54.311111,"$GPGGA,175924.10,3721.9373331,N,07958.3689882,W,2,05,1.64,361.8771,M,-32.8285,M,1.3,0000*41"
537,0,0.000000,54.415165,"$GPGGA,175924.20,3721.9373268,N,07958.3689552,W,2,05,1.64,361.8830,M,-32.8285,M,1.4,0000*42"
538,0,0.000000,54.515442,"$GPGGA,175924.30,3721.9373145,N,07958.3689360,W,2,05,1.64,361.8910,M,-32.8285,M,1.5,0000*4A"
539,0,0.000000,54.614805,"$GPGGA,175924.40,3721.9373058,N,07958.3689334,W,2,05,1.64,361.8501,M,-32.8285,M,0.4,0000*4D"
539,0,0.000000,54.713339,"$GPGGA,175924.50,3721.9373027,N,07958.3689501,W,2,05,1.64,361.7879,M,-32.8285,M,0.5,0000*48"
540,0,0.000000,54.812443,"$GPGGA,175924.60,3721.9372949,N,07958.3688806,W,2,05,1.64,361.9270,M,-32.8285,M,0.6,0000*4E"
541,0,0.000000,54.912873,"$GPGGA,175924.70,3721.9372779,N,07958.3688642,W,2,05,1.64,361.9350,M,-32.8285,M,0.7,0000*4E"
542,0,0.000000,55.012424,"$GPGGA,175924.80,3721.9372461,N,07958.3689765,W,2,05,1.64,361.4687,M,-32.8285,M,0.8,0000*43"
543,0,0.000000,55.115591,"$GPGGA,175924.90,3721.9372643,N,07958.3688172,W,2,05,1.64,361.8907,M,-32.8285,M,0.9,0000*4B"
545,0,0.000000,55.243175,"$GPGGA,175925.00,3721.9372716,N,07958.3688043,W,2,05,1.64,361.8584,M,-32.8285,M,1.0,0000*4E"
545,0,0.000000,55.314871,"$GPGGA,175925.10,3721.9372498,N,07958.3688039,W,2,05,1.64,361.9809,M,-32.8285,M,1.1,0000*4F"
547,0,0.000000,55.414573,"$GPGGA,175925.20,3721.9372391,N,07958.3687331,W,2,05,1.64,361.8929,M,-32.8285,M,1.2,0000*47"
548,0,0.000000,55.514998,"$GPGGA,175925.30,3721.9372494,N,07958.3687142,W,2,05,1.64,361.8817,M,-32.8285,M,1.3,0000*4F"
549,0,0.000000,55.613439,"$GPGGA,175925.40,3721.9372512,N,07958.3686896,W,2,05,1.64,361.9008,M,-32.8285,M,0.8,0000*4B"
551,0,0.000000,55.716257,"$GPGGA,175925.50,3721.9372524,N,07958.3686242,W,2,05,1.64,361.8182,M,-32.8285,M,0.9,0000*4F"
552,0,0.000000,55.815873,"$GPGGA,175925.60,3721.9372377,N,07958.3685933,W,2,05,1.64,361.8176,M,-32.8285,M,1.0,0000*41"
552,0,0.000000,55.918428,"$GPGGA,175925.70,3721.9372287,N,07958.3685599,W,2,05,1.64,361.8480,M,-32.8285,M,1.1,0000*4F"
553,0,0.000000,56.017741,"$GPGGA,175925.80,3721.9372212,N,07958.3685528,W,2,05,1.64,361.8402,M,-32.8285,M,1.2,0000*4F"
554,0,0.000000,56.114719,"$GPGGA,175925.90,3721.9372192,N,07958.3685418,W,2,05,1.64,361.8308,M,-32.8285,M,1.3,0000*4B"
554,0,0.000000,56.240045,"$GPGGA,175926.00,3721.9372216,N,07958.3685256,W,2,05,1.64,361.8210,M,-32.8285,M,1.4,0000*4D"
555,0,0.000000,56.311864,"$GPGGA,175926.10,3721.9371980,N,07958.3685142,W,2,05,1.64,361.8667,M,-32.8285,M,1.5,0000*48"
555,0,0.000000,56.411562,"$GPGGA,175926.20,3721.9371737,N,07958.3684959,W,2,05,1.64,361.9110,M,-32.8285,M,1.6,0000*4F"
555,0,0.000000,56.513097,"$GPGGA,175926.30,3721.9371648,N,07958.3684910,W,2,05,1.64,361.9113,M,-32.8285,M,1.7,0000*48"
555,0,0.000000,56.614728,"$GPGGA,175926.40,3721.9371689,N,07958.3684767,W,2,05,1.64,361.8929,M,-32.8285,M,0.6,0000*4C"
556,0,0.000000,56.714988,"$GPGGA,175926.50,3721.9371723,N,07958.3684633,W,2,05,1.64,361.8875,M,-32.8285,M,0.7,0000*45"
556,0,0.000000,56.813857,"$GPGGA,175926.60,3721.9371742,N,07958.3684540,W,2,05,1.64,361.8924,M,-32.8285,M,0.8,0000*4C"
557,0,0.000000,56.911495,"$GPGGA,175926.70,3721.9371757,N,07958.3684516,W,2,05,1.64,361.8873,M,-32.8285,M,0.9,0000*48"
557,0,0.000000,57.011112,"$GPGGA,175926.80,3721.9371756,N,07958.3684473,W,2,05,1.64,361.8916,M,-32.8285,M,1.0,0000*4E"
558,0,0.000000,57.111369,"$GPGGA,175926.90,3721.9371924,N,07958.3684520,W,2,05,1.64,361.8036,M,-32.8285,M,1.1,0000*49"
558,0,0.000000,57.249503,"$GPGGA,175927.00,3721.9371943,N,07958.3684428,W,2,05,1.64,361.8034,M,-32.8285,M,1.2,0000*48"
559,0,0.000000,57.314645,"$GPGGA,175927.10,3721.9371928,N,07958.3684357,W,2,05,1.64,361.8235,M,-32.8285,M,1.3,0000*49"
560,0,0.000000,57.414707,"$GPGGA,175927.20,3721.9371924,N,07958.3684305,W,2,05,1.64,361.8084,M,-32.8285,M,1.4,0000*4E"
560,0,0.000000,57.519203,"$GPGGA,175927.30,3721.9371868,N,07958.3684112,W,2,05,1.64,361.8245,M,-32.8285,M,1.5,0000*4C"
561,0,0.000000,57.611461,"$GPGGA,175927.40,3721.9371770,N,07958.3683907,W,2,05,1.64,361.8169,M,-32.8285,M,0.4,0000*4B"
562,0,0.000000,57.711763,"$GPGGA,175927.50,3721.9371770,N,07958.3683630,W,2,05,1.64,361.7867,M,-32.8285,M,0.5,0000*48"
562,0,0.000000,57.811454,"$GPGGA,175927.60,3721.9371777,N,07958.3683427,W,2,05,1.64,361.7676,M,-32.8285,M,0.6,0000*45"
563,0,0.000000,57.915279,"$GPGGA,175927.70,3721.9371727,N,07958.3683188,W,2,05,1.64,361.7696,M,-32.8285,M,0.7,0000*4E"
563,0,0.000000,58.014947,"$GPGGA,175927.80,3721.9371672,N,07958.3683012,W,2,05,1.64,361.7632,M,-32.8285,M,0.8,0000*43"
564,0,0.000000,58.115423,"$GPGGA,175927.90,3721.9371650,N,07958.3682877,W,2,05,1.64,361.7572,M,-32.8285,M,0.9,0000*4E"
564,0,0.000000,58.241484,"$GPGGA,175928.00,3721.9371600,N,07958.3682725,W,2,05,1.64,361.8079,M,-32.8285,M,1.0,0000*4C"
564,0,0.000000,58.312979,"$GPGGA,175928.10,3721.9371632,N,07958.3682610,W,2,05,1.64,361.8189,M,-32.8285,M,1.1,0000*44"
564,0,0.000000,58.411615,"$GPGGA,175928.20,3721.9371647,N,07958.3682561,W,2,05,1.64,361.8176,M,-32.8285,M,1.2,0000*43"
564,0,0.000000,58.510636,"$GPGGA,175928.30,3721.9371689,N,07958.3682481,W,2,05,1.64,361.8239,M,-32.8285,M,1.3,0000*46"
564,0,0.000000,58.615289,"$GPGGA,175928.40,3721.9371702,N,07958.3682465,W,2,05,1.64,361.8178,M,-32.8285,M,0.8,0000*45"
564,0,0.000000,58.715010,"$GPGGA,175928.50,3721.9371698,N,07958.3682431,W,2,05,1.64,361.8141,M,-32.8285,M,0.9,0000*4C"
564,0,0.000000,58.815326,"$GPGGA,175928.60,3721.9371718,N,07958.3682399,W,2,05,1.64,361.8202,M,-32.8285,M,1.0,0000*4F"
