;GPS@@@
;Ver=1.1.0
;DIP=2009-00152-00
;Date=2026-Jan-12 11:20:33
;----------------------------------------------------------------------------------------------------------------------------------------------------------------------------------------
traces,odo_tick,pos(m),time_elapsed(s),GPS
2,0,0.000000,7.122211,"$GPGGA,170042.90,3721.8950011,N,07958.3631803,W,2,05,2.54,358.5087,M,-32.8284,M,0.9,0000*47"
2,0,0.000000,7.249741,"$GPGGA,170043.00,3721.8950061,N,07958.3631818,W,2,05,2.54,358.5061,M,-32.8284,M,1.0,0000*42"
2,0,0.000000,7.322836,"$GPGGA,170043.10,3721.8950069,N,07958.3631799,W,2,05,2.54,358.4952,M,-32.8284,M,1.1,0000*44"
3,0,0.000000,7.420024,"$GPGGA,170043.20,3721.8950116,N,07958.3631760,W,2,05,2.54,358.5101,M,-32.8284,M,1.2,0000*44"
4,0,0.000000,7.519247,"$GPGGA,170043.30,3721.8950233,N,07958.3631783,W,2,05,2.54,358.5087,M,-32.8284,M,0.7,0000*47"
5,0,0.000000,7.618381,"$GPGGA,170043.40,3721.8950378,N,07958.3631833,W,2,05,2.54,358.5176,M,-32.8284,M,0.8,0000*4A"
7,0,0.000000,7.722480,"$GPGGA,170043.50,3721.8950519,N,07958.3631825,W,2,05,2.54,358.5236,M,-32.8284,M,0.9,0000*4B"
8,0,0.000000,7.822028,"$GPGGA,170043.60,3721.8950661,N,07958.3631755,W,2,05,2.54,358.5502,M,-32.8284,M,1.0,0000*44"
9,0,0.000000,7.921979,"$GPGGA,170043.70,3721.8950848,N,07958.3631836,W,2,05,2.54,358.5542,M,-32.8284,M,1.1,0000*4F"
10,0,0.000000,8.021149,"$GPGGA,170043.80,3721.8950970,N,07958.3631806,W,2,05,2.54,358.5385,M,-32.8284,M,1.2,0000*47"
11,0,0.000000,8.122642,"$GPGGA,170043.90,3721.8951060,N,07958.3631802,W,2,05,2.54,358.5262,M,-32.8284,M,1.3,0000*42"
13,0,0.000000,8.246497,"$GPGGA,170044.00,3721.8951136,N,07958.3631728,W,2,05,2.54,358.5086,M,-32.8284,M,1.4,0000*46"
14,0,0.000000,8.318480,"$GPGGA,170044.10,3721.8951205,N,07958.3631635,W,2,05,2.54,358.4938,M,-32.8284,M,1.5,0000*45"
15,0,0.000000,8.421741,"$GPGGA,170044.20,3721.8951360,N,07958.3631612,W,2,05,2.54,358.5004,M,-32.8284,M,1.6,0000*45"
17,0,0.000000,8.521288,"$GPGGA,170044.30,3721.8951577,N,07958.3631618,W,2,05,2.54,358.5033,M,-32.8284,M,0.5,0000*48"
18,0,0.000000,8.621877,"$GPGGA,170044.40,3721.8951784,N,07958.3631636,W,2,05,2.54,358.4999,M,-32.8284,M,0.6,0000*46"
19,0,0.000000,8.721156,"$GPGGA,170044.50,3721.8951887,N,07958.3631641,W,2,05,2.54,358.4955,M,-32.8284,M,0.7,0000*4A"
21,0,0.000000,8.818946,"$GPGGA,170044.60,3721.8951992,N,07958.3631574,W,2,05,2.54,358.4945,M,-32.8284,M,0.8,0000*47"
22,0,0.000000,8.918698,"$GPGGA,170044.70,3721.8952079,N,07958.3631482,W,2,05,2.54,358.4938,M,-32.8284,M,0.9,0000*4A"
24,0,0.000000,9.018347,"$GPGGA,170044.80,3721.8952251,N,07958.3631548,W,2,05,2.54,358.4739,M,-32.8284,M,1.0,0000*4D"
25,0,0.000000,9.121820,"$GPGGA,170044.90,3721.8952375,N,07958.3631475,W,2,05,2.54,358.4617,M,-32.8284,M,1.1,0000*48"
27,0,0.000000,9.248617,"$GPGGA,170045.00,3721.8952501,N,07958.3631556,W,2,05,2.54,358.4471,M,-32.8284,M,1.2,0000*44"
27,0,0.000000,9.321709,"$GPGGA,170045.10,3721.8952544,N,07958.3631442,W,2,05,2.54,358.4336,M,-32.8284,M,1.3,0000*45"
29,0,0.000000,9.421090,"$GPGGA,170045.20,3721.8952618,N,07958.3631403,W,2,05,2.54,358.4247,M,-32.8284,M,1.4,0000*49"
31,0,0.000000,9.518806,"$GPGGA,170045.30,3721.8952737,N,07958.3631382,W,2,05,2.54,358.4284,M,-32.8284,M,0.3,0000*43"
33,0,0.000000,9.618437,"$GPGGA,170045.40,3721.8952859,N,07958.3631317,W,2,05,2.54,358.4116,M,-32.8284,M,0.4,0000*40"
35,0,0.000000,9.717957,"$GPGGA,170045.50,3721.8952939,N,07958.3631206,W,2,05,2.54,358.3987,M,-32.8284,M,0.5,0000*41"
37,0,0.000000,9.821853,"$GPGGA,170045.60,3721.8953673,N,07958.3631605,W,2,05,2.54,358.4705,M,-32.8284,M,0.6,0000*45"
39,0,0.000000,9.922334,"$GPGGA,170045.70,3721.8953615,N,07958.3631463,W,2,05,2.54,358.4292,M,-32.8284,M,0.7,0000*4C"
41,0,0.000000,10.021654,"$GPGGA,170045.80,3721.8953694,N,07958.3631494,W,2,05,2.54,358.4251,M,-32.8284,M,0.8,0000*42"
43,0,0.000000,10.121227,"$GPGGA,170045.90,3721.8953630,N,07958.3631371,W,2,05,2.54,358.4086,M,-32.8284,M,0.9,0000*48"
45,0,0.000000,10.246032,"$GPGGA,170046.00,3721.8954339,N,07958.3631674,W,2,05,2.54,358.4754,M,-32.8284,M,1.0,0000*49"
47,0,0.000000,10.318547,"$GPGGA,170046.10,3721.8954483,N,07958.3631601,W,2,05,2.54,358.4936,M,-32.8284,M,1.1,0000*47"
48,0,0.000000,10.418650,"$GPGGA,170046.20,3721.8954684,N,07958.3631449,W,2,05,2.54,358.4971,M,-32.8284,M,1.2,0000*4F"
50,0,0.000000,10.521575,"$GPGGA,170046.30,3721.8954804,N,07958.3631503,W,2,05,2.54,358.4875,M,-32.8284,M,0.7,0000*46"
51,0,0.000000,10.621990,"$GPGGA,170046.40,3721.8955077,N,07958.3631577,W,2,05,2.54,358.4815,M,-32.8284,M,0.8,0000*46"
53,0,0.000000,10.722052,"$GPGGA,170046.50,3721.8955279,N,07958.3631621,W,2,05,2.54,358.4772,M,-32.8284,M,0.9,0000*44"
54,0,0.000000,10.822983,"$GPGGA,170046.60,3721.8955370,N,07958.3631633,W,2,05,2.54,358.4524,M,-32.8284,M,1.0,0000*45"
56,0,0.000000,10.919455,"$GPGGA,170046.70,3721.8955437,N,07958.3631592,W,2,05,2.54,358.4213,M,-32.8284,M,1.1,0000*4A"
57,0,0.000000,11.018445,"$GPGGA,170046.80,3721.8955546,N,07958.3631511,W,2,05,2.54,358.3944,M,-32.8284,M,1.2,0000*44"
59,0,0.000000,11.119154,"$GPGGA,170046.90,3721.8955981,N,07958.3631641,W,2,05,2.54,358.4119,M,-32.8284,M,1.3,0000*42"
60,0,0.000000,11.248986,"$GPGGA,170047.00,3721.8956274,N,07958.3631688,W,2,05,2.54,358.4311,M,-32.8284,M,1.4,0000*40"
61,0,0.000000,11.321485,"$GPGGA,170047.10,3721.8956361,N,07958.3631741,W,2,05,2.54,358.4269,M,-32.8284,M,1.5,0000*4F"
62,0,0.000000,11.421496,"$GPGGA,170047.20,3721.8956545,N,07958.3631770,W,2,05,2.54,358.4192,M,-32.8284,M,1.6,0000*4A"
64,0,0.000000,11.521344,"$GPGGA,170047.30,3721.8956604,N,07958.3631652,W,2,05,2.54,358.4266,M,-32.8284,M,1.7,0000*45"
65,0,0.000000,11.619731,"$GPGGA,170047.40,3721.8956641,N,07958.3631467,W,2,05,2.54,358.4469,M,-32.8284,M,0.6,0000*4E"
68,0,0.000000,11.718202,"$GPGGA,170047.50,3721.8956799,N,07958.3631332,W,2,05,2.54,358.4827,M,-32.8284,M,0.7,0000*4B"
70,0,0.000000,11.818433,"$GPGGA,170047.60,3721.8957037,N,07958.3631294,W,2,05,2.54,358.5097,M,-32.8284,M,0.8,0000*4A"
72,0,0.000000,11.921475,"$GPGGA,170047.70,3721.8957220,N,07958.3631464,W,2,05,2.54,358.4259,M,-32.8284,M,0.9,0000*46"
75,0,0.000000,12.024265,"$GPGGA,170047.80,3721.8957746,N,07958.3633030,W,2,05,2.54,358.2240,M,-32.8284,M,1.0,0000*4D"
77,0,0.000000,12.122769,"$GPGGA,170047.90,3721.8958764,N,07958.3632306,W,2,05,2.54,358.4789,M,-32.8284,M,1.1,0000*43"
80,0,0.000000,12.249498,"$GPGGA,170048.00,3721.8958863,N,07958.3632204,W,2,05,2.54,358.4473,M,-32.8284,M,1.2,0000*4B"
82,0,0.000000,12.320895,"$GPGGA,170048.10,3721.8958962,N,07958.3632121,W,2,05,2.54,358.4195,M,-32.8284,M,1.3,0000*42"
85,0,0.000000,12.418235,"$GPGGA,170048.20,3721.8959045,N,07958.3632090,W,2,05,2.54,358.4192,M,-32.8284,M,1.4,0000*47"
87,0,0.000000,12.518861,"$GPGGA,170048.30,3721.8958932,N,07958.3631827,W,2,05,2.54,358.4262,M,-32.8284,M,1.5,0000*44"
88,0,0.000000,12.621323,"$GPGGA,170048.40,3721.8958958,N,07958.3631739,W,2,05,2.54,358.4067,M,-32.8284,M,0.4,0000*48"
90,0,0.000000,12.722118,"$GPGGA,170048.50,3721.8959110,N,07958.3631612,W,2,05,2.54,358.4132,M,-32.8284,M,0.5,0000*44"
92,0,0.000000,12.821963,"$GPGGA,170048.60,3721.8959321,N,07958.3631590,W,2,05,2.54,358.3993,M,-32.8284,M,0.6,0000*49"
95,0,0.000000,12.921525,"$GPGGA,170048.70,3721.8959558,N,07958.3631742,W,2,05,2.54,358.3517,M,-32.8284,M,0.7,0000*4C"
97,0,0.000000,13.019442,"$GPGGA,170048.80,3721.8959679,N,07958.3631516,W,2,05,2.54,358.3836,M,-32.8284,M,0.8,0000*41"
99,0,0.000000,13.129453,"$GPGGA,170048.90,3721.8959926,N,07958.3631438,W,2,05,2.54,358.3749,M,-32.8284,M,0.9,0000*4E"
101,0,0.000000,13.246048,"$GPGGA,170049.00,3721.8960165,N,07958.3631369,W,2,05,2.54,358.3645,M,-32.8284,M,1.0,0000*45"
103,0,0.000000,13.322042,"$GPGGA,170049.10,3721.8960252,N,07958.3631220,W,2,05,2.54,358.3519,M,-32.8284,M,1.1,0000*44"
104,0,0.000000,13.421951,"$GPGGA,170049.20,3721.8960217,N,07958.3630852,W,2,05,2.54,358.3549,M,-32.8284,M,1.2,0000*4E"
107,0,0.000000,13.522143,"$GPGGA,170049.30,3721.8960503,N,07958.3630938,W,2,05,2.54,358.3534,M,-32.8284,M,0.7,0000*4E"
110,0,0.000000,13.628059,"$GPGGA,170049.40,3721.8960683,N,07958.3631097,W,2,05,2.54,358.3195,M,-32.8284,M,0.8,0000*4F"
111,0,0.000000,13.720802,"$GPGGA,170049.50,3721.8960958,N,07958.3631222,W,2,05,2.54,358.3057,M,-32.8284,M,0.9,0000*45"
114,0,0.000000,13.818087,"$GPGGA,170049.60,3721.8961267,N,07958.3631301,W,2,05,2.54,358.2710,M,-32.8284,M,1.0,0000*4D"
116,0,0.000000,13.918928,"$GPGGA,170049.70,3721.8961615,N,07958.3631205,W,2,05,2.54,358.2873,M,-32.8284,M,1.1,0000*43"
117,0,0.000000,14.022209,"$GPGGA,170049.80,3721.8961040,N,07958.3630719,W,2,05,2.54,358.1893,M,-32.8284,M,1.2,0000*4D"
119,0,0.000000,14.121471,"$GPGGA,170049.90,3721.8961460,N,07958.3631030,W,2,05,2.54,358.2244,M,-32.8284,M,1.3,0000*45"
121,0,0.000000,14.248676,"$GPGGA,170050.00,3721.8961644,N,07958.3631039,W,2,05,2.54,358.2361,M,-32.8284,M,1.4,0000*48"
122,0,0.000000,14.322592,"$GPGGA,170050.10,3721.8961714,N,07958.3630867,W,2,05,2.54,358.2405,M,-32.8284,M,1.5,0000*4B"
123,0,0.000000,14.419642,"$GPGGA,170050.20,3721.8961751,N,07958.3630321,W,2,05,2.54,358.3002,M,-32.8284,M,1.6,0000*41"
125,0,0.000000,14.520731,"$GPGGA,170050.30,3721.8961789,N,07958.3630304,W,2,05,2.54,358.2351,M,-32.8284,M,0.5,0000*44"
126,0,0.000000,14.618121,"$GPGGA,170050.40,3721.8961903,N,07958.3630263,W,2,05,2.54,358.2016,M,-32.8284,M,0.6,0000*4C"
128,0,0.000000,14.722078,"$GPGGA,170050.50,3721.8962101,N,07958.3630283,W,2,05,2.54,358.1866,M,-32.8284,M,0.7,0000*47"
130,0,0.000000,14.821858,"$GPGGA,170050.60,3721.8962255,N,07958.3630362,W,2,05,2.54,358.1712,M,-32.8284,M,0.8,0000*4B"
132,0,0.000000,14.921614,"$GPGGA,170050.70,3721.8962409,N,07958.3630327,W,2,05,2.54,358.1621,M,-32.8284,M,0.9,0000*44"
134,0,0.000000,15.021608,"$GPGGA,170050.80,3721.8962546,N,07958.3630211,W,2,05,2.54,358.1005,M,-32.8284,M,1.0,0000*4D"
137,0,0.000000,15.118990,"$GPGGA,170050.90,3721.8962688,N,07958.3630387,W,2,05,2.54,358.0573,M,-32.8284,M,1.1,0000*47"
139,0,0.000000,15.246241,"$GPGGA,170051.00,3721.8962915,N,07958.3630379,W,2,05,2.54,358.0747,M,-32.8284,M,1.2,0000*43"
141,0,0.000000,15.318625,"$GPGGA,170051.10,3721.8963166,N,07958.3630707,W,2,05,2.54,358.0248,M,-32.8284,M,1.3,0000*49"
142,0,0.000000,15.421736,"$GPGGA,170051.20,3721.8963252,N,07958.3630563,W,2,05,2.54,357.9531,M,-32.8284,M,1.4,0000*46"
144,0,0.000000,15.521186,"$GPGGA,170051.30,3721.8963306,N,07958.3630342,W,2,05,2.54,357.9619,M,-32.8284,M,0.3,0000*4D"
146,0,0.000000,15.622720,"$GPGGA,170051.40,3721.8962788,N,07958.3629419,W,2,05,2.54,357.9367,M,-32.8284,M,0.4,0000*43"
148,0,0.000000,15.722219,"$GPGGA,170051.50,3721.8963006,N,07958.3629476,W,2,05,2.54,357.9081,M,-32.8284,M,0.5,0000*41"
151,0,0.000000,15.831146,"$GPGGA,170051.60,3721.8963158,N,07958.3629530,W,2,05,2.54,357.8842,M,-32.8284,M,0.6,0000*4E"
153,0,0.000000,15.918231,"$GPGGA,170051.70,3721.8964091,N,07958.3630572,W,2,05,2.54,357.9024,M,-32.8284,M,0.7,0000*4A"
155,0,0.000000,16.017631,"$GPGGA,170051.80,3721.8964224,N,07958.3630670,W,2,05,2.54,357.8882,M,-32.8284,M,0.8,0000*42"
157,0,0.000000,16.118206,"$GPGGA,170051.90,3721.8964386,N,07958.3630694,W,2,05,2.54,357.8995,M,-32.8284,M,0.9,0000*46"
160,0,0.000000,16.249454,"$GPGGA,170052.00,3721.8964406,N,07958.3630530,W,2,05,2.54,357.9020,M,-32.8284,M,1.0,0000*40"
162,0,0.000000,16.321826,"$GPGGA,170052.10,3721.8964412,N,07958.3630292,W,2,05,2.54,357.8680,M,-32.8284,M,1.1,0000*47"
166,0,0.000000,16.427552,"$GPGGA,170052.20,3721.8964478,N,07958.3630187,W,2,05,2.54,357.8321,M,-32.8284,M,1.2,0000*42"
168,0,0.000000,16.519615,"$GPGGA,170052.30,3721.8964801,N,07958.3630345,W,2,05,2.54,357.8098,M,-32.8284,M,0.7,0000*48"
171,0,0.000000,16.619662,"$GPGGA,170052.40,3721.8965041,N,07958.3630272,W,2,05,2.54,357.8234,M,-32.8284,M,0.8,0000*4C"
173,0,0.000000,16.718881,"$GPGGA,170052.50,3721.8965361,N,07958.3630212,W,2,05,2.54,357.8955,M,-32.8284,M,0.9,0000*47"
176,0,0.000000,16.822734,"$GPGGA,170052.60,3721.8965651,N,07958.3630249,W,2,05,2.54,357.9304,M,-32.8284,M,1.0,0000*4B"
179,0,0.000000,16.922431,"$GPGGA,170052.70,3721.8965931,N,07958.3630432,W,2,05,1.42,357.9142,M,-32.8284,M,1.1,0000*4C"
181,0,0.000000,17.022465,"$GPGGA,170052.80,3721.8966051,N,07958.3630237,W,2,05,1.42,357.8857,M,-32.8284,M,1.2,0000*43"
184,0,0.000000,17.122302,"$GPGGA,170052.90,3721.8966194,N,07958.3630003,W,2,05,1.42,357.8298,M,-32.8284,M,1.3,0000*47"
186,0,0.000000,17.247444,"$GPGGA,170053.00,3721.8966709,N,07958.3630177,W,2,05,1.42,357.8455,M,-32.8284,M,1.4,0000*4F"
188,0,0.000000,17.318885,"$GPGGA,170053.10,3721.8966987,N,07958.3630404,W,2,05,1.42,357.8510,M,-32.8284,M,1.5,0000*46"
190,0,0.000000,17.418748,"$GPGGA,170053.20,3721.8967189,N,07958.3630322,W,2,05,1.42,357.8797,M,-32.8284,M,1.6,0000*4F"
192,0,0.000000,17.519753,"$GPGGA,170053.30,3721.8967300,N,07958.3630168,W,2,05,1.42,357.8736,M,-32.8284,M,0.5,0000*48"
194,0,0.000000,17.621698,"$GPGGA,170053.40,3721.8967481,N,07958.3630056,W,2,05,1.42,357.8804,M,-32.8284,M,0.6,0000*40"
195,0,0.000000,17.721747,"$GPGGA,170053.50,3721.8967684,N,07958.3630189,W,2,05,1.42,357.8869,M,-32.8284,M,0.7,0000*4F"
196,0,0.000000,17.821924,"$GPGGA,170053.60,3721.8967746,N,07958.3630231,W,2,05,1.42,357.8973,M,-32.8284,M,0.8,0000*46"
197,0,0.000000,17.920115,"$GPGGA,170053.70,3721.8967763,N,07958.3630147,W,2,05,1.42,357.8750,M,-32.8284,M,0.9,0000*4C"
199,0,0.000000,18.019067,"$GPGGA,170053.80,3721.8967784,N,07958.3630061,W,2,05,1.42,357.8357,M,-32.8284,M,1.0,0000*44"
201,0,0.000000,18.119255,"$GPGGA,170053.90,3721.8967866,N,07958.3629994,W,2,05,1.42,357.8203,M,-32.8284,M,1.1,0000*4C"
204,0,0.000000,18.249066,"$GPGGA,170054.00,3721.8968009,N,07958.3629894,W,2,05,1.42,357.8624,M,-32.8284,M,1.2,0000*4F"
206,0,0.000000,18.322687,"$GPGGA,170054.10,3721.8968415,N,07958.3630073,W,2,05,1.42,357.9040,M,-32.8284,M,1.3,0000*4A"
209,0,0.000000,18.422130,"$GPGGA,170054.20,3721.8968781,N,07958.3630104,W,2,05,1.42,357.8973,M,-32.8284,M,1.4,0000*49"
213,0,0.000000,18.520687,"$GPGGA,170054.30,3721.8969029,N,07958.3629928,W,2,05,1.42,357.8419,M,-32.8284,M,0.3,0000*45"
216,0,0.000000,18.620197,"$GPGGA,170054.40,3721.8969241,N,07958.3629717,W,2,05,1.42,357.8684,M,-32.8284,M,0.4,0000*4D"
220,0,0.000000,18.718537,"$GPGGA,170054.50,3721.8969436,N,07958.3629649,W,2,05,1.42,357.8414,M,-32.8284,M,0.5,0000*4A"
223,0,0.000000,18.818354,"$GPGGA,170054.60,3721.8969919,N,07958.3629710,W,2,06,1.33,357.8747,M,-32.8284,M,0.6,0000*47"
226,0,0.000000,18.918268,"$GPGGA,170054.70,3721.8970233,N,07958.3630070,W,2,06,1.33,357.8763,M,-32.8284,M,0.7,0000*43"
228,0,0.000000,19.039489,"$GPGGA,170054.80,3721.8970406,N,07958.3629994,W,2,06,1.33,357.8584,M,-32.8284,M,0.8,0000*43"
230,0,0.000000,19.122314,"$GPGGA,170054.90,3721.8970539,N,07958.3629776,W,2,06,1.33,357.7912,M,-32.8284,M,0.9,0000*40"
233,0,0.000000,19.250087,"$GPGGA,170055.00,3721.8970688,N,07958.3629829,W,2,06,1.33,357.7651,M,-32.8284,M,1.0,0000*44"
234,0,0.000000,19.321499,"$GPGGA,170055.10,3721.8970817,N,07958.3629821,W,2,06,1.33,357.7561,M,-32.8284,M,1.1,0000*44"
234,0,0.000000,19.418487,"$GPGGA,170055.20,3721.8970933,N,07958.3629791,W,2,06,1.33,357.7625,M,-32.8284,M,1.2,0000*44"
235,0,0.000000,19.519133,"$GPGGA,170055.30,3721.8971155,N,07958.3629855,W,2,06,1.33,357.7732,M,-32.8284,M,0.7,0000*48"
236,0,0.000000,19.622806,"$GPGGA,170055.40,3721.8971301,N,07958.3629819,W,2,06,1.33,357.7815,M,-32.8284,M,0.8,0000*41"
238,0,0.000000,19.722418,"$GPGGA,170055.50,3721.8971515,N,07958.3629708,W,2,06,1.33,357.7109,M,-32.8284,M,0.9,0000*49"
240,0,0.000000,19.822205,"$GPGGA,170055.60,3721.8971797,N,07958.3629602,W,2,06,1.33,357.7205,M,-32.8284,M,1.0,0000*4E"
244,0,0.000000,19.921968,"$GPGGA,170055.70,3721.8972206,N,07958.3629528,W,2,06,1.33,357.7756,M,-32.8284,M,1.1,0000*48"
248,0,0.000000,20.021198,"$GPGGA,170055.80,3721.8972376,N,07958.3629495,W,2,06,1.33,357.7925,M,-32.8284,M,1.2,0000*4F"
252,0,0.000000,20.119626,"$GPGGA,170055.90,3721.8972756,N,07958.3629463,W,2,06,1.33,357.8192,M,-32.8284,M,1.3,0000*4B"
256,0,0.000000,20.246305,"$GPGGA,170056.00,3721.8973168,N,07958.3629587,W,2,06,1.33,357.8444,M,-32.8284,M,1.4,0000*49"
258,0,0.000000,20.318763,"$GPGGA,170056.10,3721.8973601,N,07958.3629548,W,2,06,1.33,357.8349,M,-32.8284,M,1.5,0000*48"
260,0,0.000000,20.422301,"$GPGGA,170056.20,3721.8974091,N,07958.3629638,W,2,06,1.33,357.8962,M,-32.8284,M,1.6,0000*47"
262,0,0.000000,20.521979,"$GPGGA,170056.30,3721.8974461,N,07958.3629861,W,2,06,1.33,357.9632,M,-32.8284,M,0.5,0000*46"
264,0,0.000000,20.622169,"$GPGGA,170056.40,3721.8974554,N,07958.3629824,W,2,06,1.33,357.9415,M,-32.8284,M,0.6,0000*43"
266,0,0.000000,20.720405,"$GPGGA,170056.50,3721.8974418,N,07958.3629599,W,2,06,1.33,357.8076,M,-32.8284,M,0.7,0000*41"
268,0,0.000000,20.819975,"$GPGGA,170056.60,3721.8974239,N,07958.3629091,W,2,06,1.33,357.7382,M,-32.8284,M,0.8,0000*42"
271,0,0.000000,20.919380,"$GPGGA,170056.70,3721.8975269,N,07958.3629445,W,2,06,1.33,357.8818,M,-32.8284,M,0.9,0000*4C"
273,0,0.000000,21.028589,"$GPGGA,170056.80,3721.8975533,N,07958.3629239,W,2,06,1.33,357.9233,M,-32.8284,M,1.0,0000*4C"
276,0,0.000000,21.122321,"$GPGGA,170056.90,3721.8975844,N,07958.3629370,W,2,06,1.33,357.9174,M,-32.8284,M,1.1,0000*4D"
278,0,0.000000,21.250650,"$GPGGA,170057.00,3721.8976188,N,07958.3629492,W,2,06,1.33,357.9317,M,-32.8284,M,1.2,0000*40"
279,0,0.000000,21.322042,"$GPGGA,170057.10,3721.8976390,N,07958.3629507,W,2,06,1.33,357.9117,M,-32.8284,M,1.3,0000*44"
281,0,0.000000,21.420016,"$GPGGA,170057.20,3721.8976667,N,07958.3629437,W,2,06,1.33,357.9297,M,-32.8284,M,1.4,0000*44"
283,0,0.000000,21.519726,"$GPGGA,170057.30,3721.8977000,N,07958.3629546,W,2,06,1.33,357.9452,M,-32.8284,M,0.3,0000*4D"
285,0,0.000000,21.617864,"$GPGGA,170057.40,3721.8977728,N,07958.3629658,W,2,06,1.33,358.0034,M,-32.8284,M,0.4,0000*4E"
287,0,0.000000,21.718223,"$GPGGA,170057.50,3721.8977631,N,07958.3629429,W,2,06,1.33,357.9775,M,-32.8284,M,0.5,0000*47"
288,0,0.000000,21.822211,"$GPGGA,170057.60,3721.8977812,N,07958.3629333,W,2,06,1.33,357.9725,M,-32.8284,M,0.6,0000*41"
289,0,0.000000,21.920712,"$GPGGA,170057.70,3721.8977896,N,07958.3629260,W,2,06,1.33,357.9699,M,-32.8284,M,0.7,0000*4C"
290,0,0.000000,22.021935,"$GPGGA,170057.80,3721.8977858,N,07958.3629151,W,2,06,1.33,357.9455,M,-32.8284,M,0.8,0000*4D"
292,0,0.000000,22.120586,"$GPGGA,170057.90,3721.8977890,N,07958.3629095,W,2,06,1.33,357.9260,M,-32.8284,M,0.9,0000*40"
295,0,0.000000,22.247370,"$GPGGA,170058.00,3721.8978010,N,07958.3629051,W,2,06,1.33,357.9288,M,-32.8284,M,1.0,0000*4F"
296,0,0.000000,22.318861,"$GPGGA,170058.10,3721.8978158,N,07958.3628957,W,2,06,1.33,357.9113,M,-32.8284,M,1.1,0000*4D"
297,0,0.000000,22.418564,"$GPGGA,170058.20,3721.8978378,N,07958.3628937,W,2,06,1.33,357.8791,M,-32.8284,M,1.2,0000*46"
299,0,0.000000,22.522049,"$GPGGA,170058.30,3721.8978667,N,07958.3628934,W,2,06,1.33,357.9005,M,-32.8284,M,0.7,0000*40"
302,0,0.000000,22.621718,"$GPGGA,170058.40,3721.8978802,N,07958.3629035,W,2,06,1.33,357.8893,M,-32.8284,M,0.8,0000*4A"
305,0,0.000000,22.721950,"$GPGGA,170058.50,3721.8978982,N,07958.3629122,W,2,06,1.33,357.8910,M,-32.8284,M,0.9,0000*4E"
306,0,0.000000,22.820842,"$GPGGA,170058.60,3721.8979070,N,07958.3629346,W,2,06,1.33,357.8762,M,-32.8284,M,1.0,0000*4B"
307,0,0.000000,22.918119,"$GPGGA,170058.70,3721.8979332,N,07958.3629000,W,2,06,1.33,357.8342,M,-32.8284,M,1.1,0000*49"
309,0,0.000000,23.018254,"$GPGGA,170058.80,3721.8979377,N,07958.3628854,W,2,06,1.33,357.8373,M,-32.8284,M,1.2,0000*4E"
311,0,0.000000,23.118102,"$GPGGA,170058.90,3721.8979521,N,07958.3628815,W,2,06,1.33,357.8253,M,-32.8284,M,1.3,0000*4D"
315,0,0.000000,23.250318,"$GPGGA,170059.00,3721.8979790,N,07958.3628958,W,2,06,1.33,357.8351,M,-32.8284,M,1.4,0000*41"
317,0,0.000000,23.321780,"$GPGGA,170059.10,3721.8980082,N,07958.3629119,W,2,06,1.33,357.8636,M,-32.8284,M,1.5,0000*4B"
320,0,0.000000,23.421378,"$GPGGA,170059.20,3721.8980217,N,07958.3629352,W,2,06,1.33,357.8532,M,-32.8284,M,1.6,0000*4F"
322,0,0.000000,23.521017,"$GPGGA,170059.30,3721.8980582,N,07958.3629203,W,2,06,1.33,357.8441,M,-32.8284,M,0.5,0000*47"
324,0,0.000000,23.619130,"$GPGGA,170059.40,3721.8979684,N,07958.3629210,W,2,06,1.33,357.7592,M,-32.8284,M,0.6,0000*42"
327,0,0.000000,23.719461,"$GPGGA,170059.50,3721.8981392,N,07958.3628710,W,2,06,1.33,357.8744,M,-32.8284,M,0.7,0000*45"
330,0,0.000000,23.819107,"$GPGGA,170059.60,3721.8980588,N,07958.3629263,W,2,06,1.33,357.6425,M,-32.8284,M,0.8,0000*4F"
334,0,0.000000,23.922664,"$GPGGA,170059.70,3721.8980701,N,07958.3629139,W,2,06,1.33,357.5751,M,-32.8284,M,0.9,0000*43"
337,0,0.000000,24.022037,"$GPGGA,170059.80,3721.8980854,N,07958.3629039,W,2,06,1.33,357.5937,M,-32.8284,M,1.0,0000*44"
340,0,0.000000,24.122301,"$GPGGA,170059.90,3721.8981193,N,07958.3629212,W,2,06,1.33,357.6407,M,-32.8284,M,1.1,0000*41"
343,0,0.000000,24.249865,"$GPGGA,170100.00,3721.8981338,N,07958.3629207,W,2,06,1.33,357.6601,M,-32.8284,M,1.2,0000*45"
345,0,0.000000,24.321161,"$GPGGA,170100.10,3721.8981068,N,07958.3629376,W,2,06,1.33,357.5807,M,-32.8284,M,1.3,0000*4F"
347,0,0.000000,24.418688,"$GPGGA,170100.20,3721.8981591,N,07958.3628536,W,2,06,1.33,357.7023,M,-32.8284,M,1.4,0000*47"
350,0,0.000000,24.518109,"$GPGGA,170100.30,3721.8981889,N,07958.3628302,W,2,06,1.33,357.7549,M,-32.8284,M,1.5,0000*4B"
353,0,0.000000,24.621404,"$GPGGA,170100.40,3721.8982326,N,07958.3628202,W,2,06,1.33,357.8499,M,-32.8284,M,0.4,0000*43"
357,0,0.000000,24.724598,"$GPGGA,170100.50,3721.8982471,N,07958.3628096,W,2,06,1.33,357.8653,M,-32.8284,M,0.5,0000*4D"
360,0,0.000000,24.821719,"$GPGGA,170100.60,3721.8982715,N,07958.3628408,W,2,06,1.33,357.8359,M,-32.8284,M,0.6,0000*40"
364,0,0.000000,24.924810,"$GPGGA,170100.70,3721.8982876,N,07958.3628204,W,2,05,2.07,357.7711,M,-32.8284,M,0.7,0000*40"
367,0,0.000000,25.018857,"$GPGGA,170100.80,3721.8983338,N,07958.3628054,W,2,05,2.07,357.8524,M,-32.8284,M,0.8,0000*4C"
369,0,0.000000,25.119773,"$GPGGA,170100.90,3721.8983512,N,07958.3628583,W,2,05,2.07,357.6552,M,-32.8284,M,0.9,0000*42"
372,0,0.000000,25.248904,"$GPGGA,170101.00,3721.8983861,N,07958.3628379,W,2,05,2.07,357.6186,M,-32.8284,M,1.0,0000*45"
374,0,0.000000,25.322184,"$GPGGA,170101.10,3721.8984165,N,07958.3628467,W,2,05,2.07,357.5891,M,-32.8284,M,1.1,0000*4B"
377,0,0.000000,25.423376,"$GPGGA,170101.20,3721.8984534,N,07958.3628355,W,2,05,2.07,357.6451,M,-32.8284,M,1.2,0000*4E"
378,0,0.000000,25.521747,"$GPGGA,170101.30,3721.8984683,N,07958.3628293,W,2,05,2.07,357.6781,M,-32.8284,M,1.3,0000*44"
378,0,0.000000,25.621290,"$GPGGA,170101.40,3721.8984899,N,07958.3628256,W,2,05,2.07,357.7100,M,-32.8284,M,0.8,0000*4B"
379,0,0.000000,25.719068,"$GPGGA,170101.50,3721.8984596,N,07958.3628377,W,2,05,2.07,357.5863,M,-32.8284,M,0.9,0000*45"
380,0,0.000000,25.818717,"$GPGGA,170101.60,3721.8984673,N,07958.3628351,W,2,05,2.07,357.5958,M,-32.8284,M,1.0,0000*4B"
381,0,0.000000,25.918296,"$GPGGA,170101.70,3721.8984651,N,07958.3628467,W,2,05,2.07,357.5369,M,-32.8284,M,1.1,0000*41"
383,0,0.000000,26.021168,"$GPGGA,170101.80,3721.8985136,N,07958.3628251,W,2,05,2.07,357.6802,M,-32.8284,M,1.2,0000*4C"
387,0,0.000000,26.121216,"$GPGGA,170101.90,3721.8985014,N,07958.3628275,W,2,05,2.07,357.4886,M,-32.8284,M,1.3,0000*45"
392,0,0.000000,26.248217,"$GPGGA,170102.00,3721.8985377,N,07958.3628221,W,2,05,2.07,357.7000,M,-32.8284,M,1.4,0000*4A"
393,0,0.000000,26.321039,"$GPGGA,170102.10,3721.8985662,N,07958.3628336,W,2,05,2.07,357.7451,M,-32.8284,M,1.5,0000*4C"
393,0,0.000000,26.418688,"$GPGGA,170102.20,3721.8985893,N,07958.3628269,W,2,05,2.06,357.7267,M,-32.8284,M,1.6,0000*45"
393,0,0.000000,26.517785,"$GPGGA,170102.30,3721.8985986,N,07958.3628277,W,2,05,2.06,357.6928,M,-32.8284,M,1.7,0000*4E"
393,0,0.000000,26.617132,"$GPGGA,170102.40,3721.9006790,N,07958.3644598,W,2,04,2.85,363.2250,M,-32.8284,M,0.6,0000*42"
393,0,0.000000,26.716376,"$GPGGA,170102.50,3721.9006755,N,07958.3644574,W,2,04,2.85,363.2379,M,-32.8284,M,0.7,0000*43"
393,0,0.000000,26.820087,"$GPGGA,170102.60,3721.9006940,N,07958.3644749,W,2,04,2.85,363.3490,M,-32.8284,M,0.8,0000*48"
395,0,0.000000,26.920808,"$GPGGA,170102.70,3721.9006918,N,07958.3644749,W,2,04,2.85,363.3752,M,-32.8284,M,0.9,0000*48"
395,0,0.000000,27.020307,"$GPGGA,170102.80,3721.9007007,N,07958.3644823,W,2,04,2.85,363.3835,M,-32.8284,M,1.0,0000*44"
395,0,0.000000,27.117958,"$GPGGA,170102.90,3721.9007117,N,07958.3644869,W,2,04,2.85,363.3978,M,-32.8284,M,1.1,0000*42"
395,0,0.000000,27.243078,"$GPGGA,170103.00,3721.9007079,N,07958.3644785,W,2,04,2.85,363.3419,M,-32.8284,M,1.2,0000*47"
395,0,0.000000,27.314528,"$GPGGA,170103.10,3721.9007084,N,07958.3644786,W,2,04,2.85,363.3029,M,-32.8284,M,1.3,0000*41"
396,0,0.000000,27.413842,"$GPGGA,170103.20,3721.8995118,N,07958.3634277,W,2,05,1.66,366.1421,M,-32.8284,M,1.4,0000*4A"
399,0,0.000000,27.514780,"$GPGGA,170103.30,3721.8995228,N,07958.3634231,W,2,05,1.66,366.1396,M,-32.8284,M,0.3,0000*44"
405,0,0.000000,27.635423,"$GPGGA,170103.40,3721.8995381,N,07958.3634201,W,2,05,1.66,366.1309,M,-32.8284,M,0.4,0000*43"
406,0,0.000000,27.717828,"$GPGGA,170103.50,3721.8995382,N,07958.3634356,W,2,05,1.66,366.1820,M,-32.8284,M,0.5,0000*43"
410,0,0.000000,27.814894,"$GPGGA,170103.60,3721.8995475,N,07958.3634078,W,2,05,1.66,366.1950,M,-32.8284,M,0.6,0000*45"
414,0,0.000000,27.914421,"$GPGGA,170103.70,3721.8995535,N,07958.3633351,W,2,05,1.66,365.8561,M,-32.8284,M,0.7,0000*4B"
417,0,0.000000,28.014337,"$GPGGA,170103.80,3721.8995821,N,07958.3633035,W,2,05,1.66,365.8692,M,-32.8284,M,0.8,0000*4D"
419,0,0.000000,28.114289,"$GPGGA,170103.90,3721.8996291,N,07958.3632614,W,2,05,1.66,365.8299,M,-32.8284,M,0.9,0000*44"
422,0,0.000000,28.241045,"$GPGGA,170104.00,3721.8996471,N,07958.3632522,W,2,05,1.66,365.7566,M,-32.8284,M,1.0,0000*44"
423,0,0.000000,28.317391,"$GPGGA,170104.10,3721.8996519,N,07958.3632297,W,2,05,1.66,365.7163,M,-32.8284,M,1.1,0000*43"
424,0,0.000000,28.417062,"$GPGGA,170104.20,3721.8996435,N,07958.3632117,W,2,05,1.66,365.6647,M,-32.8284,M,1.2,0000*47"
426,0,0.000000,28.515336,"$GPGGA,170104.30,3721.8996419,N,07958.3631974,W,2,05,1.66,365.6497,M,-32.8284,M,0.7,0000*4D"
427,0,0.000000,28.614797,"$GPGGA,170104.40,3721.8996456,N,07958.3631906,W,2,05,1.66,365.6159,M,-32.8284,M,0.8,0000*4C"
429,0,0.000000,28.714001,"$GPGGA,170104.50,3721.9008660,N,07958.3642300,W,2,04,2.85,362.6108,M,-32.8284,M,0.9,0000*40"
432,0,0.000000,28.814245,"$GPGGA,170104.60,3721.9008574,N,07958.3642161,W,2,04,2.85,362.5980,M,-32.8284,M,1.0,0000*43"
434,0,0.000000,28.913803,"$GPGGA,170104.70,3721.9008771,N,07958.3642214,W,2,04,2.85,362.5935,M,-32.8284,M,1.1,0000*4B"
434,0,0.000000,29.014229,"$GPGGA,170104.80,3721.9017053,N,07958.3647127,W,1,06,1.59,362.8199,M,-32.8284,M,,*65"
434,0,0.000000,29.117669,"$GPGGA,170104.90,3721.9013981,N,07958.3645997,W,2,04,2.85,364.2213,M,-32.8284,M,1.3,0000*45"
434,0,0.000000,29.241177,"$GPGGA,170105.00,3721.9013956,N,07958.3646019,W,2,04,2.85,364.2095,M,-32.8284,M,1.4,0000*40"
434,0,0.000000,29.314242,"$GPGGA,170105.10,3721.9013849,N,07958.3645941,W,2,04,2.85,364.1982,M,-32.8284,M,1.5,0000*44"
434,0,0.000000,29.413787,"$GPGGA,170105.20,3721.9013884,N,07958.3645949,W,2,04,2.85,364.1982,M,-32.8284,M,1.6,0000*4D"
434,0,0.000000,29.514095,"$GPGGA,170105.30,3721.9013903,N,07958.3645971,W,2,04,2.85,364.2090,M,-32.8284,M,0.5,0000*42"
434,0,0.000000,29.613718,"$GPGGA,170105.40,3721.9013895,N,07958.3645947,W,2,04,2.85,364.1938,M,-32.8284,M,0.6,0000*45"
434,0,0.000000,29.729111,"$GPGGA,170105.50,3721.9013734,N,07958.3645796,W,2,04,2.85,364.1259,M,-32.8284,M,0.7,0000*4F"
434,0,0.000000,29.817434,"$GPGGA,170105.60,3721.9013614,N,07958.3645724,W,2,04,2.85,364.1033,M,-32.8284,M,0.8,0000*47"
435,0,0.000000,29.915655,"$GPGGA,170105.70,3721.9013491,N,07958.3645588,W,2,04,2.85,364.0550,M,-32.8284,M,0.9,0000*4D"
436,0,0.000000,30.316356,"$GPGGA,170106.10,3721.9013500,N,07958.3645493,W,2,04,2.85,364.0485,M,-32.8284,M,1.3,0000*48"
437,0,0.000000,30.418248,"$GPGGA,170106.20,3721.9013580,N,07958.3645535,W,2,04,2.85,364.0760,M,-32.8284,M,1.4,0000*41"
437,0,0.000000,30.517991,"$GPGGA,170106.30,3721.9013587,N,07958.3645573,W,2,04,2.85,364.0565,M,-32.8284,M,0.3,0000*44"
437,0,0.000000,30.617024,"$GPGGA,170106.40,3721.9013596,N,07958.3645523,W,2,04,2.85,364.0514,M,-32.8284,M,0.4,0000*47"
438,0,0.000000,30.715782,"$GPGGA,170106.50,3721.9013641,N,07958.3645529,W,2,04,2.85,364.0511,M,-32.8284,M,0.5,0000*41"
438,0,0.000000,30.813728,"$GPGGA,170106.60,3721.9013670,N,07958.3645544,W,2,04,2.85,364.0625,M,-32.8284,M,0.6,0000*4C"
439,0,0.000000,30.913796,"$GPGGA,170106.70,3721.9013721,N,07958.3645587,W,2,04,2.85,364.0832,M,-32.8284,M,0.7,0000*4E"
439,0,0.000000,31.013971,"$GPGGA,170106.80,3721.9013809,N,07958.3645653,W,2,04,2.85,364.1053,M,-32.8284,M,0.8,0000*4F"
440,0,0.000000,31.117194,"$GPGGA,170106.90,3721.9013849,N,07958.3645642,W,2,04,2.85,364.1045,M,-32.8284,M,0.9,0000*4C"
440,0,0.000000,31.243567,"$GPGGA,170107.00,3721.9013906,N,07958.3645669,W,2,04,2.85,364.1118,M,-32.8284,M,1.0,0000*46"
441,0,0.000000,31.315077,"$GPGGA,170107.10,3721.9013935,N,07958.3645667,W,2,04,2.85,364.1046,M,-32.8284,M,1.1,0000*42"
441,0,0.000000,31.414457,"$GPGGA,170107.20,3721.9014019,N,07958.3645709,W,2,04,2.85,364.1210,M,-32.8284,M,1.2,0000*4A"
443,0,0.000000,31.514701,"$GPGGA,170107.30,3721.9014079,N,07958.3645752,W,2,04,2.85,364.0949,M,-32.8284,M,0.7,0000*41"
444,0,0.000000,31.617052,"$GPGGA,170107.40,3721.9014150,N,07958.3645799,W,2,04,2.85,364.0576,M,-32.8284,M,0.8,0000*44"
446,0,0.000000,31.714526,"$GPGGA,170107.50,3721.9014232,N,07958.3645835,W,2,04,2.85,363.9874,M,-32.8284,M,0.9,0000*4B"
448,0,0.000000,31.817392,"$GPGGA,170107.60,3721.9014301,N,07958.3645761,W,2,04,2.85,363.9856,M,-32.8284,M,1.0,0000*4F"
449,0,0.000000,31.918106,"$GPGGA,170107.70,3721.9014196,N,07958.3645375,W,2,04,2.85,363.9634,M,-32.8284,M,1.1,0000*48"
450,0,0.000000,32.015591,"$GPGGA,170107.80,3721.9014183,N,07958.3645116,W,2,04,2.85,363.9358,M,-32.8284,M,1.2,0000*48"
450,0,0.000000,32.113912,"$GPGGA,170107.90,3721.9014187,N,07958.3644919,W,2,04,2.85,363.8905,M,-32.8284,M,1.3,0000*49"
452,0,0.000000,32.240233,"$GPGGA,170108.00,3721.9014149,N,07958.3644704,W,2,04,2.85,363.8710,M,-32.8284,M,1.4,0000*42"
453,0,0.000000,32.313661,"$GPGGA,170108.10,3721.9014143,N,07958.3644609,W,2,04,2.85,363.8424,M,-32.8284,M,1.5,0000*40"
456,0,0.000000,32.413845,"$GPGGA,170108.20,3721.9014243,N,07958.3644494,W,2,04,2.85,363.8410,M,-32.8284,M,1.6,0000*42"
459,0,0.000000,32.513665,"$GPGGA,170108.30,3721.9014399,N,07958.3644329,W,2,04,2.85,363.8146,M,-32.8284,M,1.7,0000*43"
461,0,0.000000,32.617475,"$GPGGA,170108.40,3721.9014577,N,07958.3644156,W,2,04,2.85,363.7790,M,-32.8284,M,0.6,0000*4A"
463,0,0.000000,32.716221,"$GPGGA,170108.50,3721.9014755,N,07958.3644083,W,2,04,2.85,363.7144,M,-32.8284,M,0.7,0000*4E"
464,0,0.000000,32.814451,"$GPGGA,170108.60,3721.9014867,N,07958.3644112,W,2,04,2.85,363.7248,M,-32.8284,M,0.8,0000*4A"
466,0,0.000000,32.914697,"$GPGGA,170108.70,3721.9015001,N,07958.3644161,W,2,04,2.85,363.7715,M,-32.8284,M,0.9,0000*4A"
466,0,0.000000,33.014261,"$GPGGA,170108.80,3721.9014973,N,07958.3644008,W,2,04,2.85,363.7364,M,-32.8284,M,1.0,0000*4C"
466,0,0.000000,33.135628,"$GPGGA,170108.90,3721.9014988,N,07958.3643891,W,2,04,2.85,363.6990,M,-32.8284,M,1.1,0000*47"
466,0,0.000000,33.244059,"$GPGGA,170109.00,3721.9015014,N,07958.3643762,W,2,04,2.85,363.6603,M,-32.8284,M,1.2,0000*47"
467,0,0.000000,33.317712,"$GPGGA,170109.10,3721.9015011,N,07958.3643662,W,2,04,2.85,363.6152,M,-32.8284,M,1.3,0000*40"
467,0,0.000000,33.416426,"$GPGGA,170109.20,3721.9014850,N,07958.3643457,W,2,04,2.85,363.5512,M,-32.8284,M,1.4,0000*4F"
467,0,0.000000,33.516885,"$GPGGA,170109.30,3721.9014702,N,07958.3643343,W,2,04,2.85,363.4934,M,-32.8284,M,1.5,0000*4C"
467,0,0.000000,33.613866,"$GPGGA,170109.40,3721.9014542,N,07958.3643205,W,2,04,2.85,363.4497,M,-32.8284,M,0.4,0000*4A"
468,0,0.000000,33.713507,"$GPGGA,170109.50,3721.9014325,N,07958.3643037,W,2,04,2.85,363.3862,M,-32.8284,M,0.5,0000*4F"
468,0,0.000000,33.813760,"$GPGGA,170109.60,3721.9014229,N,07958.3642921,W,2,04,2.85,363.3417,M,-32.8284,M,0.6,0000*43"
468,0,0.000000,33.917412,"$GPGGA,170109.70,3721.9014176,N,07958.3642756,W,2,04,2.85,363.2808,M,-32.8284,M,0.7,0000*47"
469,0,0.000000,34.016898,"$GPGGA,170109.80,3721.9014216,N,07958.3642676,W,2,04,2.85,363.2598,M,-32.8284,M,0.8,0000*45"
470,0,0.000000,34.117216,"$GPGGA,170109.90,3721.9014220,N,07958.3642569,W,2,04,2.85,363.2280,M,-32.8284,M,0.9,0000*43"
471,0,0.000000,34.240379,"$GPGGA,170110.00,3721.9014190,N,07958.3642425,W,2,04,2.85,363.1857,M,-32.8284,M,1.0,0000*48"
471,0,0.000000,34.319496,"$GPGGA,170110.10,3721.9014131,N,07958.3642263,W,2,04,2.85,363.1455,M,-32.8284,M,1.1,0000*49"
472,0,0.000000,34.414627,"$GPGGA,170110.20,3721.9014145,N,07958.3642166,W,2,04,2.85,363.1121,M,-32.8284,M,1.2,0000*4A"
472,0,0.000000,34.514143,"$GPGGA,170110.30,3721.9014152,N,07958.3642096,W,2,04,2.85,363.0831,M,-32.8284,M,1.3,0000*4B"
473,0,0.000000,34.617854,"$GPGGA,170110.40,3721.9014089,N,07958.3642006,W,2,04,2.85,363.0411,M,-32.8284,M,0.8,0000*46"
473,0,0.000000,34.717344,"$GPGGA,170110.50,3721.9014044,N,07958.3641862,W,2,04,2.85,362.9985,M,-32.8284,M,0.9,0000*46"
473,0,0.000000,34.816467,"$GPGGA,170110.60,3721.9013990,N,07958.3641766,W,2,04,2.85,362.9366,M,-32.8284,M,1.0,0000*46"
474,0,0.000000,34.913896,"$GPGGA,170110.70,3721.9014006,N,07958.3641700,W,2,04,2.85,362.9142,M,-32.8284,M,1.1,0000*43"
474,0,0.000000,35.013511,"$GPGGA,170110.80,3721.9013968,N,07958.3641625,W,2,04,2.85,362.8830,M,-32.8284,M,1.2,0000*42"
474,0,0.000000,35.113765,"$GPGGA,170110.90,3721.9013984,N,07958.3641600,W,2,04,2.85,362.8545,M,-32.8284,M,1.3,0000*48"
474,0,0.000000,35.240766,"$GPGGA,170111.00,3721.9008622,N,07958.3637120,W,2,05,1.66,364.0871,M,-32.8284,M,1.4,0000*41"
474,0,0.000000,35.317533,"$GPGGA,170111.10,3721.9008518,N,07958.3636998,W,2,05,1.66,364.0600,M,-32.8284,M,1.5,0000*49"
474,0,0.000000,35.417344,"$GPGGA,170111.20,3721.9008392,N,07958.3636866,W,2,05,1.66,364.0491,M,-32.8284,M,1.6,0000*47"
475,0,0.000000,35.516228,"$GPGGA,170111.30,3721.9008281,N,07958.3636748,W,2,05,1.66,364.0382,M,-32.8284,M,1.7,0000*42"
475,0,0.000000,35.614639,"$GPGGA,170111.40,3721.9008139,N,07958.3636549,W,2,05,1.66,363.9909,M,-32.8284,M,0.6,0000*41"
476,0,0.000000,35.714351,"$GPGGA,170111.50,3721.9008024,N,07958.3636402,W,2,05,1.66,363.9591,M,-32.8284,M,0.7,0000*4F"
476,0,0.000000,35.814551,"$GPGGA,170111.60,3721.9007952,N,07958.3636301,W,2,05,1.66,363.9395,M,-32.8284,M,0.8,0000*42"
476,0,0.000000,35.913943,"$GPGGA,170111.70,3721.9007883,N,07958.3636188,W,2,05,1.66,363.9214,M,-32.8284,M,0.9,0000*44"
476,0,0.000000,36.018032,"$GPGGA,170111.80,3721.9007751,N,07958.3635941,W,2,05,1.66,363.8873,M,-32.8284,M,1.0,0000*47"
477,0,0.000000,36.117627,"$GPGGA,170111.90,3721.9007616,N,07958.3635831,W,2,05,1.66,363.8917,M,-32.8284,M,1.1,0000*40"
478,0,0.000000,36.244169,"$GPGGA,170112.00,3721.9007500,N,07958.3635646,W,2,05,1.66,363.8624,M,-32.8284,M,1.2,0000*4C"
478,0,0.000000,36.315624,"$GPGGA,170112.10,3721.9007411,N,07958.3635488,W,2,05,1.66,363.8523,M,-32.8284,M,1.3,0000*49"
478,0,0.000000,36.413883,"$GPGGA,170112.20,3721.9007370,N,07958.3635360,W,2,05,1.66,363.8317,M,-32.8284,M,1.4,0000*4D"
479,0,0.000000,36.513916,"$GPGGA,170112.30,3721.9007328,N,07958.3635234,W,2,05,1.66,363.8508,M,-32.8284,M,1.5,0000*48"
479,0,0.000000,36.620659,"$GPGGA,170112.40,3721.9007277,N,07958.3635141,W,2,05,1.66,363.8745,M,-32.8284,M,0.4,0000*4E"
480,0,0.000000,36.717379,"$GPGGA,170112.50,3721.9007193,N,07958.3635025,W,2,05,1.66,363.8473,M,-32.8284,M,0.5,0000*42"
480,0,0.000000,36.817735,"$GPGGA,170112.60,3721.9007161,N,07958.3634934,W,2,05,1.66,363.8572,M,-32.8284,M,0.6,0000*47"
481,0,0.000000,36.916577,"$GPGGA,170112.70,3721.9007051,N,07958.3634792,W,2,05,1.66,363.8308,M,-32.8284,M,0.7,0000*4C"
481,0,0.000000,37.014572,"$GPGGA,170112.80,3721.9006987,N,07958.3634660,W,2,05,1.66,363.7935,M,-32.8284,M,0.8,0000*48"
482,0,0.000000,37.114744,"$GPGGA,170112.90,3721.9006934,N,07958.3634570,W,2,05,1.66,363.7670,M,-32.8284,M,0.9,0000*4C"
482,0,0.000000,37.242014,"$GPGGA,170113.00,3721.9006873,N,07958.3634509,W,2,05,1.66,363.7174,M,-32.8284,M,1.0,0000*43"
482,0,0.000000,37.314528,"$GPGGA,170113.10,3721.9006769,N,07958.3634403,W,2,05,1.66,363.6620,M,-32.8284,M,1.1,0000*4B"
482,0,0.000000,37.414242,"$GPGGA,170113.20,3721.9006597,N,07958.3634242,W,2,05,1.66,363.5755,M,-32.8284,M,1.2,0000*4B"
483,0,0.000000,37.517636,"$GPGGA,170113.30,3721.9006473,N,07958.3634127,W,2,05,1.66,363.5274,M,-32.8284,M,1.3,0000*46"
484,0,0.000000,37.616589,"$GPGGA,170113.40,3721.9006339,N,07958.3634004,W,2,05,1.66,363.4833,M,-32.8284,M,0.8,0000*4A"
484,0,0.000000,37.713791,"$GPGGA,170113.50,3721.9006259,N,07958.3633931,W,2,05,1.66,363.4880,M,-32.8284,M,0.9,0000*4D"
485,0,0.000000,37.814177,"$GPGGA,170113.60,3721.9006168,N,07958.3633861,W,2,05,1.66,363.4872,M,-32.8284,M,1.0,0000*4E"
485,0,0.000000,37.913526,"$GPGGA,170113.70,3721.9006019,N,07958.3633740,W,2,05,1.66,363.4548,M,-32.8284,M,1.1,0000*41"
485,0,0.000000,38.014571,"$GPGGA,170113.80,3721.9005869,N,07958.3633552,W,2,05,1.66,363.4239,M,-32.8284,M,1.2,0000*41"
485,0,0.000000,38.114196,"$GPGGA,170113.90,3721.9005771,N,07958.3633438,W,2,05,1.66,363.3850,M,-32.8284,M,1.3,0000*48"
485,0,0.000000,38.244871,"$GPGGA,170114.00,3721.9005668,N,07958.3633311,W,2,05,1.66,363.3390,M,-32.8284,M,1.4,0000*43"
485,0,0.000000,38.316412,"$GPGGA,170114.10,3721.9005543,N,07958.3633198,W,2,05,1.66,363.3279,M,-32.8284,M,1.5,0000*4C"
485,0,0.000000,38.417437,"$GPGGA,170114.20,3721.9005402,N,07958.3633094,W,2,05,1.66,363.3034,M,-32.8284,M,1.6,0000*4E"
485,0,0.000000,38.514438,"$GPGGA,170114.30,3721.9005278,N,07958.3633001,W,2,05,1.66,363.2815,M,-32.8284,M,1.7,0000*43"
485,0,0.000000,38.614068,"$GPGGA,170114.40,3721.9005186,N,07958.3632915,W,2,05,1.66,363.2526,M,-32.8284,M,0.6,0000*46"
485,0,0.000000,38.714466,"$GPGGA,170114.50,3721.9005034,N,07958.3632799,W,2,05,1.66,363.2083,M,-32.8284,M,0.7,0000*4E"
485,0,0.000000,38.814108,"$GPGGA,170114.60,3721.9004944,N,07958.3632723,W,2,05,1.66,363.1691,M,-32.8284,M,0.8,0000*4A"
486,0,0.000000,39.016545,"$GPGGA,170114.80,3721.9004753,N,07958.3632557,W,2,05,1.66,363.0607,M,-32.8284,M,1.0,0000*4A"
486,0,0.000000,39.114130,"$GPGGA,170114.90,3721.9004695,N,07958.3632478,W,2,05,1.66,363.0064,M,-32.8284,M,1.1,0000*4E"
487,0,0.000000,39.241010,"$GPGGA,170115.00,3721.9004605,N,07958.3632397,W,2,05,1.66,362.9705,M,-32.8284,M,1.2,0000*42"
487,0,0.000000,39.313431,"$GPGGA,170115.10,3721.9004561,N,07958.3632335,W,2,05,1.66,362.9266,M,-32.8284,M,1.3,0000*4B"
487,0,0.000000,39.414260,"$GPGGA,170115.20,3721.9004541,N,07958.3632231,W,2,05,1.66,362.8623,M,-32.8284,M,1.4,0000*4C"
488,0,0.000000,39.514528,"$GPGGA,170115.30,3721.9004535,N,07958.3632147,W,2,05,1.66,362.8093,M,-32.8284,M,1.5,0000*40"
488,0,0.000000,39.617326,"$GPGGA,170115.40,3721.9004472,N,07958.3631996,W,2,05,1.66,362.7155,M,-32.8284,M,0.4,0000*46"
489,0,0.000000,39.716554,"$GPGGA,170115.50,3721.9004478,N,07958.3631897,W,2,05,1.66,362.6102,M,-32.8284,M,0.5,0000*4F"
490,0,0.000000,39.814571,"$GPGGA,170115.60,3721.9004555,N,07958.3631857,W,2,05,1.66,362.5587,M,-32.8284,M,0.6,0000*47"
491,0,0.000000,39.914452,"$GPGGA,170115.70,3721.9004591,N,07958.3631819,W,2,05,1.66,362.5142,M,-32.8284,M,0.7,0000*48"
492,0,0.000000,40.014629,"$GPGGA,170115.80,3721.9004719,N,07958.3631826,W,2,05,1.66,362.4707,M,-32.8284,M,0.8,0000*40"
494,0,0.000000,40.114297,"$GPGGA,170115.90,3721.9004838,N,07958.3631810,W,2,05,1.66,362.4276,M,-32.8284,M,0.9,0000*4A"
494,0,0.000000,40.251250,"$GPGGA,170116.00,3721.9004978,N,07958.3631838,W,2,05,1.66,362.4055,M,-32.8284,M,1.0,0000*44"
495,0,0.000000,40.317297,"$GPGGA,170116.10,3721.9005119,N,07958.3631806,W,2,05,1.66,362.3957,M,-32.8284,M,1.1,0000*4B"
495,0,0.000000,40.416848,"$GPGGA,170116.20,3721.9005260,N,07958.3631867,W,2,05,1.65,362.3939,M,-32.8284,M,1.2,0000*4A"
495,0,0.000000,40.515191,"$GPGGA,170116.30,3721.9005383,N,07958.3631902,W,2,05,1.65,362.3812,M,-32.8284,M,1.3,0000*4C"
495,0,0.000000,40.613578,"$GPGGA,170116.40,3721.9005452,N,07958.3631947,W,2,05,1.65,362.3588,M,-32.8284,M,0.8,0000*45"
496,0,0.000000,40.714628,"$GPGGA,170116.50,3721.9005510,N,07958.3631971,W,2,05,1.65,362.3584,M,-32.8284,M,0.9,0000*4B"
496,0,0.000000,40.815787,"$GPGGA,170116.60,3721.9005630,N,07958.3632051,W,2,05,1.65,362.3683,M,-32.8284,M,1.0,0000*4D"
497,0,0.000000,40.914346,"$GPGGA,170116.70,3721.9005760,N,07958.3632128,W,2,05,1.65,362.3778,M,-32.8284,M,1.1,0000*43"
497,0,0.000000,41.017224,"$GPGGA,170116.80,3721.9005827,N,07958.3632187,W,2,05,1.65,362.3772,M,-32.8284,M,1.2,0000*4C"
497,0,0.000000,41.116687,"$GPGGA,170116.90,3721.9005928,N,07958.3632251,W,2,05,1.65,362.3735,M,-32.8284,M,1.3,0000*49"
498,0,0.000000,41.241743,"$GPGGA,170117.00,3721.9006021,N,07958.3632302,W,2,05,1.65,362.3647,M,-32.8284,M,1.4,0000*46"
499,0,0.000000,41.314133,"$GPGGA,170117.10,3721.9006118,N,07958.3632338,W,2,05,1.65,362.3468,M,-32.8284,M,1.5,0000*4B"
500,0,0.000000,41.414441,"$GPGGA,170117.20,3721.9006155,N,07958.3632390,W,2,05,1.65,362.3211,M,-32.8284,M,1.6,0000*48"
500,0,0.000000,41.513936,"$GPGGA,170117.30,3721.9006235,N,07958.3632411,W,2,05,1.65,362.3041,M,-32.8284,M,1.7,0000*44"
501,0,0.000000,41.614163,"$GPGGA,170117.40,3721.9006283,N,07958.3632460,W,2,05,1.65,362.2754,M,-32.8284,M,0.6,0000*4A"
501,0,0.000000,41.718689,"$GPGGA,170117.50,3721.9006354,N,07958.3632490,W,2,05,1.65,362.2484,M,-32.8284,M,0.7,0000*40"
502,0,0.000000,41.819642,"$GPGGA,170117.60,3721.9006409,N,07958.3632464,W,2,05,1.65,362.2210,M,-32.8284,M,0.8,0000*43"
502,0,0.000000,41.915219,"$GPGGA,170117.70,3721.9006507,N,07958.3632487,W,2,05,1.65,362.2079,M,-32.8284,M,0.9,0000*4C"
503,0,0.000000,42.013402,"$GPGGA,170117.80,3721.9006525,N,07958.3632497,W,2,05,1.65,362.1903,M,-32.8284,M,1.0,0000*4D"
503,0,0.000000,42.114347,"$GPGGA,170117.90,3721.9006560,N,07958.3632457,W,2,05,1.65,362.1766,M,-32.8284,M,1.1,0000*4D"
503,0,0.000000,42.241402,"$GPGGA,170118.00,3721.9006592,N,07958.3632437,W,2,05,1.65,362.1546,M,-32.8284,M,1.2,0000*43"
503,0,0.000000,42.314269,"$GPGGA,170118.10,3721.9006609,N,07958.3632397,W,2,05,1.65,362.1313,M,-32.8284,M,1.3,0000*49"
504,0,0.000000,42.418169,"$GPGGA,170118.20,3721.9006646,N,07958.3632349,W,2,05,1.65,362.1144,M,-32.8284,M,1.4,0000*45"
504,0,0.000000,42.517487,"$GPGGA,170118.30,3721.9006683,N,07958.3632338,W,2,05,1.65,362.1021,M,-32.8284,M,1.5,0000*48"
504,0,0.000000,42.614656,"$GPGGA,170118.40,3721.9006687,N,07958.3632297,W,2,05,1.65,362.0750,M,-32.8284,M,0.4,0000*4F"
504,0,0.000000,42.714015,"$GPGGA,170118.50,3721.9006657,N,07958.3632223,W,2,05,1.65,362.0476,M,-32.8284,M,0.5,0000*4A"
505,0,0.000000,42.814281,"$GPGGA,170118.60,3721.9006652,N,07958.3632125,W,2,05,1.65,362.0009,M,-32.8284,M,0.6,0000*46"
506,0,0.000000,42.914017,"$GPGGA,170118.70,3721.9006635,N,07958.3632082,W,2,05,1.65,361.9718,M,-32.8284,M,0.7,0000*46"
506,0,0.000000,43.013886,"$GPGGA,170118.80,3721.9006661,N,07958.3632011,W,2,05,1.65,361.9277,M,-32.8284,M,0.8,0000*41"
506,0,0.000000,43.117557,"$GPGGA,170118.90,3721.9006731,N,07958.3631876,W,2,05,1.65,361.8755,M,-32.8284,M,0.9,0000*4B"
507,0,0.000000,43.244282,"$GPGGA,170119.00,3721.9006744,N,07958.3631923,W,2,05,1.65,361.8875,M,-32.8284,M,1.0,0000*45"
508,0,0.000000,43.315747,"$GPGGA,170119.10,3721.9006806,N,07958.3631843,W,2,05,1.65,361.8786,M,-32.8284,M,1.1,0000*48"
508,0,0.000000,43.415044,"$GPGGA,170119.20,3721.9006868,N,07958.3631840,W,2,05,1.65,361.8691,M,-32.8284,M,1.2,0000*44"
509,0,0.000000,43.514185,"$GPGGA,170119.30,3721.9007014,N,07958.3631934,W,2,05,1.65,361.8491,M,-32.8284,M,1.3,0000*46"
510,0,0.000000,43.614491,"$GPGGA,170119.40,3721.9007164,N,07958.3631991,W,2,05,1.65,361.8113,M,-32.8284,M,0.8,0000*4D"
510,0,0.000000,43.713923,"$GPGGA,170119.50,3721.9007248,N,07958.3632064,W,2,05,1.65,361.8034,M,-32.8284,M,0.9,0000*44"
511,0,0.000000,43.816947,"$GPGGA,170119.60,3721.9007385,N,07958.3632173,W,2,05,1.65,361.7786,M,-32.8284,M,1.0,0000*49"
511,0,0.000000,43.917640,"$GPGGA,170119.70,3721.9007485,N,07958.3632209,W,2,05,1.65,361.7726,M,-32.8284,M,1.1,0000*4A"
511,0,0.000000,44.014807,"$GPGGA,170119.80,3721.9007556,N,07958.3632211,W,2,05,1.65,361.7486,M,-32.8284,M,1.2,0000*49"
512,0,0.000000,44.114404,"$GPGGA,170119.90,3721.9007694,N,07958.3632277,W,2,05,1.65,361.7428,M,-32.8284,M,1.3,0000*40"
512,0,0.000000,44.241311,"$GPGGA,170120.00,3721.9007787,N,07958.3632324,W,2,05,1.65,361.7353,M,-32.8284,M,1.4,0000*4B"
512,0,0.000000,44.315108,"$GPGGA,170120.10,3721.9007852,N,07958.3632337,W,2,05,1.65,361.7192,M,-32.8284,M,1.5,0000*41"
513,0,0.000000,44.413457,"$GPGGA,170120.20,3721.9007912,N,07958.3632342,W,2,05,1.65,361.7160,M,-32.8284,M,1.6,0000*4B"
514,0,0.000000,44.519599,"$GPGGA,170120.30,3721.9007962,N,07958.3632333,W,2,05,1.65,361.7158,M,-32.8284,M,1.7,0000*41"
515,0,0.000000,44.617162,"$GPGGA,170120.40,3721.9008068,N,07958.3632331,W,2,05,1.65,361.7066,M,-32.8284,M,0.6,0000*44"
516,0,0.000000,44.717131,"$GPGGA,170120.50,3721.9008139,N,07958.3632284,W,2,05,1.65,361.6996,M,-32.8284,M,0.7,0000*49"
517,0,0.000000,44.814374,"$GPGGA,170120.60,3721.9008203,N,07958.3632199,W,2,05,1.65,361.7045,M,-32.8284,M,0.8,0000*46"
519,0,0.000000,44.914003,"$GPGGA,170120.70,3721.9008311,N,07958.3632171,W,2,05,1.65,361.7031,M,-32.8284,M,0.9,0000*41"
520,0,0.000000,45.014357,"$GPGGA,170120.80,3721.9008438,N,07958.3632123,W,2,05,1.65,361.7128,M,-32.8284,M,1.0,0000*44"
522,0,0.000000,45.114649,"$GPGGA,170120.90,3721.9008795,N,07958.3632327,W,2,05,1.65,361.8904,M,-32.8284,M,1.1,0000*4F"
523,0,0.000000,45.245140,"$GPGGA,170121.00,3721.9008893,N,07958.3632342,W,2,05,1.65,361.9120,M,-32.8284,M,1.2,0000*41"
523,0,0.000000,45.318035,"$GPGGA,170121.10,3721.9008997,N,07958.3632401,W,2,05,1.65,361.9495,M,-32.8284,M,1.3,0000*4F"
524,0,0.000000,45.414765,"$GPGGA,170121.20,3721.9009135,N,07958.3632347,W,2,05,1.65,361.9593,M,-32.8284,M,1.4,0000*48"
525,0,0.000000,45.514266,"$GPGGA,170121.30,3721.9009212,N,07958.3632301,W,2,05,1.65,361.9770,M,-32.8284,M,1.5,0000*43"
527,0,0.000000,45.613878,"$GPGGA,170121.40,3721.9009317,N,07958.3632142,W,2,05,1.65,361.9488,M,-32.8284,M,0.4,0000*41"
529,0,0.000000,45.719488,"$GPGGA,170121.50,3721.9009432,N,07958.3632213,W,2,05,1.65,361.9904,M,-32.8284,M,0.5,0000*4F"
531,0,0.000000,45.813869,"$GPGGA,170121.60,3721.9009643,N,07958.3632239,W,2,05,1.65,361.9962,M,-32.8284,M,0.6,0000*43"
533,0,0.000000,45.917401,"$GPGGA,170121.70,3721.9009836,N,07958.3632211,W,2,05,1.65,362.0276,M,-32.8284,M,0.7,0000*41"
534,0,0.000000,46.017535,"$GPGGA,170121.80,3721.9010123,N,07958.3632159,W,2,05,1.65,362.0347,M,-32.8284,M,0.8,0000*48"
535,0,0.000000,46.115262,"$GPGGA,170121.90,3721.9010275,N,07958.3632168,W,2,05,1.65,362.0609,M,-32.8284,M,0.9,0000*45"
536,0,0.000000,46.241404,"$GPGGA,170122.00,3721.9010531,N,07958.3632248,W,2,05,1.65,362.0258,M,-32.8284,M,1.0,0000*41"
536,0,0.000000,46.314307,"$GPGGA,170122.10,3721.9010703,N,07958.3632293,W,2,05,1.65,362.0073,M,-32.8284,M,1.1,0000*4F"
537,0,0.000000,46.414180,"$GPGGA,170122.20,3721.9010849,N,07958.3632332,W,2,05,1.65,361.9943,M,-32.8284,M,1.2,0000*44"
537,0,0.000000,46.514645,"$GPGGA,170122.30,3721.9011010,N,07958.3632417,W,2,05,1.65,361.9745,M,-32.8284,M,1.3,0000*49"
538,0,0.000000,46.617603,"$GPGGA,170122.40,3721.9011081,N,07958.3632401,W,2,05,1.65,361.9723,M,-32.8284,M,0.8,0000*4B"
538,0,0.000000,46.717900,"$GPGGA,170122.50,3721.9011167,N,07958.3632433,W,2,05,1.65,361.9636,M,-32.8284,M,0.9,0000*46"
538,0,0.000000,46.815126,"$GPGGA,170122.60,3721.9011113,N,07958.3632358,W,2,05,1.65,361.9974,M,-32.8284,M,1.0,0000*4D"
538,0,0.000000,46.914027,"$GPGGA,170122.70,3721.9011083,N,07958.3632261,W,2,05,1.65,362.0147,M,-32.8284,M,1.1,0000*4C"
539,0,0.000000,47.014136,"$GPGGA,170122.80,3721.9011005,N,07958.3632220,W,2,05,1.65,362.0525,M,-32.8284,M,1.2,0000*4B"
540,0,0.000000,47.113675,"$GPGGA,170122.90,3721.9010917,N,07958.3632075,W,2,05,1.65,362.0798,M,-32.8284,M,1.3,0000*46"
540,0,0.000000,47.240804,"$GPGGA,170123.00,3721.9010865,N,07958.3632033,W,2,05,1.65,362.1085,M,-32.8284,M,1.4,0000*45"
541,0,0.000000,47.317006,"$GPGGA,170123.10,3721.9010764,N,07958.3631896,W,2,05,1.65,362.1281,M,-32.8284,M,1.5,0000*49"
541,0,0.000000,47.416583,"$GPGGA,170123.20,3721.9010700,N,07958.3631841,W,2,05,1.65,362.1608,M,-32.8284,M,1.6,0000*44"
542,0,0.000000,47.515518,"$GPGGA,170123.30,3721.9010642,N,07958.3631739,W,2,05,1.65,362.1838,M,-32.8284,M,1.7,0000*4E"
542,0,0.000000,47.614007,"$GPGGA,170123.40,3721.9010597,N,07958.3631667,W,2,05,1.65,362.2164,M,-32.8284,M,0.6,0000*4B"
543,0,0.000000,47.714187,"$GPGGA,170123.50,3721.9010561,N,07958.3631580,W,2,05,1.65,362.2404,M,-32.8284,M,0.7,0000*4B"
543,0,0.000000,47.814388,"$GPGGA,170123.60,3721.9010485,N,07958.3631491,W,2,05,1.65,362.2568,M,-32.8284,M,0.8,0000*46"
544,0,0.000000,47.914093,"$GPGGA,170123.70,3721.9010417,N,07958.3631424,W,2,05,1.65,362.2610,M,-32.8284,M,0.9,0000*4F"
544,0,0.000000,48.017591,"$GPGGA,170123.80,3721.9010375,N,07958.3631313,W,2,05,1.65,362.2472,M,-32.8284,M,1.0,0000*4E"
545,0,0.000000,48.117671,"$GPGGA,170123.90,3721.9010408,N,07958.3631163,W,2,05,1.65,362.2162,M,-32.8284,M,1.1,0000*42"
547,0,0.000000,48.242950,"$GPGGA,170124.00,3721.9010456,N,07958.3631095,W,2,05,1.65,362.2088,M,-32.8284,M,1.2,0000*49"
548,0,0.000000,48.314146,"$GPGGA,170124.10,3721.9010467,N,07958.3631044,W,2,05,1.65,362.2188,M,-32.8284,M,1.3,0000*46"
548,0,0.000000,48.413830,"$GPGGA,170124.20,3721.9010395,N,07958.3630989,W,2,05,1.65,362.2520,M,-32.8284,M,1.4,0000*47"
549,0,0.000000,48.513624,"$GPGGA,170124.30,3721.9010315,N,07958.3630942,W,2,05,1.65,362.2445,M,-32.8284,M,1.5,0000*4A"
549,0,0.000000,48.613725,"$GPGGA,170124.40,3721.9010243,N,07958.3630830,W,2,05,1.65,362.2566,M,-32.8284,M,0.4,0000*4B"
550,0,0.000000,48.717402,"$GPGGA,170124.50,3721.9010172,N,07958.3630765,W,2,05,1.65,362.2375,M,-32.8284,M,0.5,0000*41"
550,0,0.000000,48.817013,"$GPGGA,170124.60,3721.9010065,N,07958.3630700,W,2,05,1.65,362.2344,M,-32.8284,M,0.6,0000*47"
551,0,0.000000,48.915610,"$GPGGA,170124.70,3721.9009980,N,07958.3630584,W,2,05,1.65,362.2043,M,-32.8284,M,0.7,0000*47"
551,0,0.000000,49.013938,"$GPGGA,170124.80,3721.9009909,N,07958.3630432,W,2,05,1.65,362.1622,M,-32.8284,M,0.8,0000*48"
552,0,0.000000,49.116113,"$GPGGA,170124.90,3721.9009867,N,07958.3630310,W,2,05,1.65,362.1190,M,-32.8284,M,0.9,0000*48"
552,0,0.000000,49.241826,"$GPGGA,170125.00,3721.9009838,N,07958.3630211,W,2,05,1.65,362.1025,M,-32.8284,M,1.0,0000*4D"
553,0,0.000000,49.314032,"$GPGGA,170125.10,3721.9009809,N,07958.3630106,W,2,05,1.65,362.0734,M,-32.8284,M,1.1,0000*4C"
553,0,0.000000,49.417927,"$GPGGA,170125.20,3721.9009765,N,07958.3630012,W,2,05,1.65,362.0569,M,-32.8284,M,1.2,0000*47"
554,0,0.000000,49.517450,"$GPGGA,170125.30,3721.9009694,N,07958.3629908,W,2,05,1.65,362.0302,M,-32.8284,M,1.3,0000*49"
554,0,0.000000,49.616099,"$GPGGA,170125.40,3721.9009642,N,07958.3629850,W,2,05,1.65,362.0354,M,-32.8284,M,0.8,0000*40"
554,0,0.000000,49.713797,"$GPGGA,170125.50,3721.9009607,N,07958.3629791,W,2,05,1.65,362.0257,M,-32.8284,M,0.9,0000*41"
554,0,0.000000,49.813687,"$GPGGA,170125.60,3721.9009537,N,07958.3629699,W,2,05,1.65,362.0165,M,-32.8284,M,1.0,0000*41"
555,0,0.000000,49.913569,"$GPGGA,170125.70,3721.9009492,N,07958.3629636,W,2,05,1.65,362.0204,M,-32.8284,M,1.1,0000*4E"
555,0,0.000000,50.013170,"$GPGGA,170125.80,3721.9009459,N,07958.3629551,W,2,05,1.65,361.9830,M,-32.8284,M,1.2,0000*40"
556,0,0.000000,50.113573,"$GPGGA,170125.90,3721.9009425,N,07958.3629476,W,2,05,1.65,361.9643,M,-32.8284,M,1.3,0000*45"
557,0,0.000000,50.244086,"$GPGGA,170126.00,3721.9009422,N,07958.3629411,W,2,05,1.65,361.9353,M,-32.8284,M,1.4,0000*4A"
557,0,0.000000,50.315783,"$GPGGA,170126.10,3721.9009421,N,07958.3629331,W,2,05,1.65,361.8893,M,-32.8284,M,1.5,0000*4A"
558,0,0.000000,50.414418,"$GPGGA,170126.20,3721.9009432,N,07958.3629232,W,2,05,1.65,361.8389,M,-32.8284,M,1.6,0000*4A"
558,0,0.000000,50.513741,"$GPGGA,170126.30,3721.9009432,N,07958.3629127,W,2,05,1.65,361.8046,M,-32.8284,M,1.7,0000*4D"
559,0,0.000000,50.613931,"$GPGGA,170126.40,3721.9009392,N,07958.3628965,W,2,05,1.65,361.7271,M,-32.8284,M,0.6,0000*41"
559,0,0.000000,50.713910,"$GPGGA,170126.50,3721.9009419,N,07958.3628823,W,2,05,1.65,361.6587,M,-32.8284,M,0.7,0000*49"
560,0,0.000000,50.817757,"$GPGGA,170126.60,3721.9009957,N,07958.3629125,W,2,05,1.65,362.0530,M,-32.8284,M,0.8,0000*45"
560,0,0.000000,50.917476,"$GPGGA,170126.70,3721.9002922,N,07958.3622926,W,2,04,3.29,355.9219,M,-32.8284,M,0.9,0000*46"
561,0,0.000000,51.016482,"$GPGGA,170126.80,3721.9003039,N,07958.3622931,W,2,04,3.29,355.9438,M,-32.8284,M,1.0,0000*40"
562,0,0.000000,51.113916,"$GPGGA,170126.90,3721.9003019,N,07958.3622829,W,2,04,3.29,355.8856,M,-32.8284,M,1.1,0000*4F"
563,0,0.000000,51.240649,"$GPGGA,170127.00,3721.9003066,N,07958.3622850,W,2,04,3.29,355.8802,M,-32.8284,M,1.2,0000*43"
563,0,0.000000,51.313988,"$GPGGA,170127.10,3721.9003169,N,07958.3622880,W,2,04,3.29,355.9010,M,-32.8284,M,1.3,0000*4A"
563,0,0.000000,51.413728,"$GPGGA,170127.20,3721.9003207,N,07958.3622913,W,2,04,3.29,355.8947,M,-32.8284,M,1.4,0000*44"
563,0,0.000000,51.513393,"$GPGGA,170127.30,3721.9003318,N,07958.3623007,W,2,04,3.29,355.9287,M,-32.8284,M,1.5,0000*40"
564,0,0.000000,51.617286,"$GPGGA,170127.40,3721.9003444,N,07958.3623122,W,2,04,3.29,355.9717,M,-32.8284,M,0.4,0000*43"
564,0,0.000000,51.715853,"$GPGGA,170127.50,3721.9003485,N,07958.3623151,W,2,04,3.29,355.9687,M,-32.8284,M,0.5,0000*42"
564,0,0.000000,51.814173,"$GPGGA,170127.60,3721.9003617,N,07958.3623248,W,2,04,3.29,356.0321,M,-32.8284,M,0.6,0000*43"
564,0,0.000000,51.913674,"$GPGGA,170127.70,3721.9003668,N,07958.3623315,W,2,04,3.29,356.0393,M,-32.8284,M,0.7,0000*4B"
565,0,0.000000,52.014045,"$GPGGA,170127.80,3721.9003690,N,07958.3623316,W,2,04,3.29,356.0332,M,-32.8284,M,0.8,0000*44"
566,0,0.000000,52.114217,"$GPGGA,170127.90,3721.9003792,N,07958.3623420,W,2,04,3.29,356.0703,M,-32.8284,M,0.9,0000*43"
566,0,0.000000,52.240935,"$GPGGA,170128.00,3721.9003821,N,07958.3623450,W,2,04,3.29,356.0818,M,-32.8284,M,1.0,0000*48"
567,0,0.000000,52.317455,"$GPGGA,170128.10,3721.9003914,N,07958.3623522,W,2,04,3.29,356.1040,M,-32.8284,M,1.1,0000*4F"
567,0,0.000000,52.417015,"$GPGGA,170128.20,3721.9004060,N,07958.3623655,W,2,04,3.29,356.1509,M,-32.8284,M,1.2,0000*49"
569,0,0.000000,52.513901,"$GPGGA,170128.30,3721.9005294,N,07958.3624657,W,2,04,3.29,356.5662,M,-32.8284,M,1.3,0000*4E"
570,0,0.000000,52.610260,"$GPGGA,170128.40,3721.9029822,N,07958.3641058,W,1,08,1.49,362.8960,M,-32.8284,M,,*6A"
571,0,0.000000,52.709996,"$GPGGA,170128.50,3721.9031452,N,07958.3641963,W,1,08,1.49,363.4212,M,-32.8284,M,,*6B"
573,0,0.000000,52.809734,"$GPGGA,170128.60,3721.9025684,N,07958.3637523,W,1,07,1.98,361.2571,M,-32.8284,M,,*68"
574,0,0.000000,52.909560,"$GPGGA,170128.70,3721.9031615,N,07958.3641576,W,1,08,1.49,363.3715,M,-32.8284,M,,*65"
575,0,0.000000,53.013661,"$GPGGA,170128.80,3721.9031694,N,07958.3641546,W,1,08,1.49,363.3849,M,-32.8284,M,,*66"
576,0,0.000000,53.112488,"$GPGGA,170128.90,3721.9031701,N,07958.3641475,W,1,08,1.49,363.3584,M,-32.8284,M,,*67"
577,0,0.000000,53.262793,"$GPGGA,170129.00,3721.9031737,N,07958.3641442,W,1,08,1.49,363.3457,M,-32.8284,M,,*61"
578,0,0.000000,53.330632,"$GPGGA,170129.10,3721.9031786,N,07958.3641443,W,1,08,1.49,363.3273,M,-32.8284,M,,*6B"
579,0,0.000000,53.410119,"$GPGGA,170129.20,3721.9031773,N,07958.3641400,W,1,08,1.49,363.2987,M,-32.8284,M,,*64"
580,0,0.000000,53.510497,"$GPGGA,170129.30,3721.9031858,N,07958.3641342,W,1,08,1.49,363.2620,M,-32.8284,M,,*60"
581,0,0.000000,53.609954,"$GPGGA,170129.40,3721.9031919,N,07958.3641306,W,1,08,1.49,363.2169,M,-32.8284,M,,*69"
581,0,0.000000,53.715798,"$GPGGA,170129.50,3721.9031929,N,07958.3641266,W,1,08,1.49,363.1945,M,-32.8284,M,,*69"
582,0,0.000000,53.813139,"$GPGGA,170129.60,3721.9031929,N,07958.3641193,W,1,08,1.49,363.1340,M,-32.8284,M,,*6C"
583,0,0.000000,53.910216,"$GPGGA,170129.70,3721.9031931,N,07958.3641186,W,1,08,1.49,363.0910,M,-32.8284,M,,*6E"
583,0,0.000000,54.009731,"$GPGGA,170129.80,3721.9031788,N,07958.3641081,W,1,08,1.49,362.9815,M,-32.8284,M,,*67"
584,0,0.000000,54.109368,"$GPGGA,170129.90,3721.9031767,N,07958.3640844,W,1,08,1.49,363.0048,M,-32.8284,M,,*6F"
585,0,0.000000,54.260813,"$GPGGA,170130.00,3721.9033626,N,07958.3634253,W,1,07,1.56,366.6978,M,-32.8284,M,,*6F"
585,0,0.000000,54.328666,"$GPGGA,170130.10,3721.9033603,N,07958.3634259,W,1,07,1.56,366.6546,M,-32.8284,M,,*62"
585,0,0.000000,54.412910,"$GPGGA,170130.20,3721.9032305,N,07958.3638818,W,1,08,1.49,364.0288,M,-32.8284,M,,*60"
585,0,0.000000,54.512547,"$GPGGA,170130.30,3721.9034100,N,07958.3634450,W,1,07,1.56,366.8475,M,-32.8284,M,,*63"
586,0,0.000000,54.609512,"$GPGGA,170130.40,3721.9030582,N,07958.3634247,W,1,06,2.16,364.6452,M,-32.8284,M,,*61"
586,0,0.000000,54.710148,"$GPGGA,170130.50,3721.9030945,N,07958.3634408,W,1,06,2.16,364.7951,M,-32.8284,M,,*65"
587,0,0.000000,54.810347,"$GPGGA,170130.60,3721.9030795,N,07958.3634407,W,1,06,2.16,364.6642,M,-32.8284,M,,*66"
588,0,0.000000,54.909940,"$GPGGA,170130.70,3721.9030766,N,07958.3634415,W,1,06,2.16,364.5813,M,-32.8284,M,,*61"
588,0,0.000000,55.010171,"$GPGGA,170130.80,3721.9030670,N,07958.3634424,W,1,06,2.16,364.4738,M,-32.8284,M,,*6D"
589,0,0.000000,55.113287,"$GPGGA,170130.90,3721.9030643,N,07958.3634423,W,1,06,2.16,364.3950,M,-32.8284,M,,*6C"
591,0,0.000000,55.262857,"$GPGGA,170131.00,3721.9030583,N,07958.3634414,W,1,06,2.16,364.2932,M,-32.8284,M,,*6A"
591,0,0.000000,55.330645,"$GPGGA,170131.10,3721.9030566,N,07958.3634431,W,1,06,2.16,364.2196,M,-32.8284,M,,*61"
592,0,0.000000,55.409401,"$GPGGA,170131.20,3721.9030521,N,07958.3634445,W,1,06,2.16,364.1483,M,-32.8284,M,,*60"
592,0,0.000000,55.509721,"$GPGGA,170131.30,3721.9030508,N,07958.3634487,W,1,06,2.16,364.0938,M,-32.8284,M,,*68"
593,0,0.000000,55.609393,"$GPGGA,170131.40,3721.9030472,N,07958.3634486,W,1,06,2.16,364.0296,M,-32.8284,M,,*6D"
593,0,0.000000,55.709860,"$GPGGA,170131.50,3721.9030444,N,07958.3634504,W,1,06,2.16,363.9640,M,-32.8284,M,,*63"
595,0,0.000000,55.813018,"$GPGGA,170131.60,3721.9030463,N,07958.3634534,W,1,06,2.16,363.9375,M,-32.8284,M,,*65"
595,0,0.000000,55.912578,"$GPGGA,170131.70,3721.9031530,N,07958.3634908,W,1,06,2.16,364.4645,M,-32.8284,M,,*6D"
596,0,0.000000,56.010228,"$GPGGA,170131.80,3721.9034588,N,07958.3635857,W,1,05,2.54,366.0902,M,-32.8284,M,,*61"
597,0,0.000000,56.109734,"$GPGGA,170131.90,3721.9034643,N,07958.3635868,W,1,05,2.54,366.0452,M,-32.8284,M,,*60"
598,0,0.000000,56.259214,"$GPGGA,170132.00,3721.9034668,N,07958.3635884,W,1,05,2.54,366.0151,M,-32.8284,M,,*67"
599,0,0.000000,56.327792,"$GPGGA,170132.10,3721.9034718,N,07958.3635889,W,1,05,2.54,365.9786,M,-32.8284,M,,*6B"
599,0,0.000000,56.409659,"$GPGGA,170132.20,3721.9034730,N,07958.3635871,W,1,05,2.54,365.9343,M,-32.8284,M,,*68"
599,0,0.000000,56.519981,"$GPGGA,170132.30,3721.9034815,N,07958.3635857,W,1,05,2.54,365.9327,M,-32.8284,M,,*67"
599,0,0.000000,56.612482,"$GPGGA,170132.40,3721.9034821,N,07958.3635837,W,1,05,2.54,365.8998,M,-32.8284,M,,*6E"
600,0,0.000000,56.709898,"$GPGGA,170132.50,3721.9034830,N,07958.3635843,W,1,05,2.54,365.8747,M,-32.8284,M,,*60"
600,0,0.000000,56.809158,"$GPGGA,170132.60,3721.9034876,N,07958.3635822,W,1,05,2.54,365.8915,M,-32.8284,M,,*6F"
600,0,0.000000,56.909367,"$GPGGA,170132.70,3721.9034907,N,07958.3635798,W,1,05,2.54,365.9080,M,-32.8284,M,,*63"
600,0,0.000000,57.008975,"$GPGGA,170132.80,3721.9034948,N,07958.3635740,W,1,05,2.54,365.8822,M,-32.8284,M,,*63"
601,0,0.000000,57.108971,"$GPGGA,170132.90,3721.9034977,N,07958.3635752,W,1,05,2.54,365.8460,M,-32.8284,M,,*67"
601,0,0.000000,57.262058,"$GPGGA,170133.00,3721.9034992,N,07958.3635747,W,1,05,2.54,365.7987,M,-32.8284,M,,*6B"
601,0,0.000000,57.329812,"$GPGGA,170133.10,3721.9034987,N,07958.3635723,W,1,05,2.54,365.7661,M,-32.8284,M,,*6B"
601,0,0.000000,57.410322,"$GPGGA,170133.20,3721.9034961,N,07958.3635792,W,1,05,2.54,365.7089,M,-32.8284,M,,*6A"
601,0,0.000000,57.509627,"$GPGGA,170133.30,3721.9034900,N,07958.3635832,W,1,05,2.54,365.6467,M,-32.8284,M,,*6C"
601,0,0.000000,57.610019,"$GPGGA,170133.40,3721.9034916,N,07958.3635862,W,1,05,2.54,365.6155,M,-32.8284,M,,*6D"
601,0,0.000000,57.709918,"$GPGGA,170133.50,3721.9034901,N,07958.3635868,W,1,05,2.54,365.5659,M,-32.8284,M,,*68"
601,0,0.000000,57.809563,"$GPGGA,170133.60,3721.9034852,N,07958.3635897,W,1,05,2.54,365.5307,M,-32.8284,M,,*62"
601,0,0.000000,57.912824,"$GPGGA,170133.70,3721.9034805,N,07958.3635984,W,1,05,2.54,365.4951,M,-32.8284,M,,*6A"
