;GPS@@@
;Ver=1.1.0
;DIP=2009-00152-00
;Date=2026-Jan-12 11:29:01
;----------------------------------------------------------------------------------------------------------------------------------------------------------------------------------------
traces,odo_tick,pos(m),time_elapsed(s),GPS
2,0,0.000000,3.940110,"$GPGGA,170908.20,3721.9051944,N,07958.3633602,W,1,08,1.23,361.5965,M,-32.8284,M,,*63"
2,0,0.000000,4.039838,"$GPGGA,170908.30,3721.9051910,N,07958.3633628,W,1,08,1.23,361.5871,M,-32.8284,M,,*6F"
2,0,0.000000,4.138592,"$GPGGA,170908.40,3721.9051880,N,07958.3633702,W,1,08,1.23,361.6152,M,-32.8284,M,,*62"
3,0,0.000000,4.236936,"$GPGGA,170908.50,3721.9051820,N,07958.3633746,W,1,08,1.23,361.6201,M,-32.8284,M,,*6C"
4,0,0.000000,4.337246,"$GPGGA,170908.60,3721.9051664,N,07958.3633769,W,1,08,1.23,361.6325,M,-32.8284,M,,*6B"
5,0,0.000000,4.445587,"$GPGGA,170908.70,3721.9051441,N,07958.3633736,W,1,08,1.23,361.6197,M,-32.8284,M,,*6E"
6,0,0.000000,4.540800,"$GPGGA,170908.80,3721.9051298,N,07958.3633804,W,1,08,1.23,361.6557,M,-32.8284,M,,*65"
7,0,0.000000,4.640175,"$GPGGA,170908.90,3721.9051165,N,07958.3633817,W,1,08,1.23,361.6742,M,-32.8284,M,,*61"
9,0,0.000000,4.793104,"$GPGGA,170909.00,3721.9051033,N,07958.3633818,W,1,08,1.23,361.6753,M,-32.8284,M,,*64"
10,0,0.000000,4.860872,"$GPGGA,170909.10,3721.9050940,N,07958.3633781,W,1,08,1.23,361.6947,M,-32.8284,M,,*6D"
10,0,0.000000,4.946565,"$GPGGA,170909.20,3721.9050841,N,07958.3633812,W,1,08,1.23,361.6914,M,-32.8284,M,,*6D"
11,0,0.000000,5.037603,"$GPGGA,170909.30,3721.9050760,N,07958.3633883,W,1,08,1.23,361.6900,M,-32.8284,M,,*6D"
11,0,0.000000,5.137350,"$GPGGA,170909.40,3721.9050690,N,07958.3633900,W,1,08,1.23,361.6777,M,-32.8284,M,,*60"
12,0,0.000000,5.239677,"$GPGGA,170909.50,3721.9050622,N,07958.3633900,W,1,08,1.23,361.6777,M,-32.8284,M,,*68"
12,0,0.000000,5.341112,"$GPGGA,170909.60,3721.9050568,N,07958.3633921,W,1,08,1.23,361.6496,M,-32.8284,M,,*69"
13,0,0.000000,5.440945,"$GPGGA,170909.70,3721.9050499,N,07958.3633904,W,1,08,1.23,361.6323,M,-32.8284,M,,*69"
14,0,0.000000,5.538978,"$GPGGA,170909.80,3721.9050424,N,07958.3633929,W,1,08,1.23,361.5921,M,-32.8284,M,,*64"
15,0,0.000000,5.637331,"$GPGGA,170909.90,3721.9050339,N,07958.3633928,W,1,08,1.23,361.5600,M,-32.8284,M,,*63"
17,0,0.000000,5.788624,"$GPGGA,170910.00,3721.9050236,N,07958.3633946,W,1,08,1.23,361.5468,M,-32.8284,M,,*68"
18,0,0.000000,5.856433,"$GPGGA,170910.10,3721.9050133,N,07958.3633951,W,1,08,1.23,361.5327,M,-32.8284,M,,*65"
19,0,0.000000,5.940253,"$GPGGA,170910.20,3721.9050091,N,07958.3633948,W,1,08,1.23,361.5320,M,-32.8284,M,,*60"
19,0,0.000000,6.040366,"$GPGGA,170910.30,3721.9050022,N,07958.3633894,W,1,08,1.23,361.5129,M,-32.8284,M,,*62"
20,0,0.000000,6.140759,"$GPGGA,170910.40,3721.9049951,N,07958.3633839,W,1,08,1.23,361.5271,M,-32.8284,M,,*69"
20,0,0.000000,6.238988,"$GPGGA,170910.50,3721.9049912,N,07958.3633896,W,1,08,1.23,361.5073,M,-32.8284,M,,*6A"
21,0,0.000000,6.337755,"$GPGGA,170910.60,3721.9049851,N,07958.3633873,W,1,08,1.23,361.5158,M,-32.8284,M,,*6C"
21,0,0.000000,6.437390,"$GPGGA,170910.70,3721.9049849,N,07958.3633889,W,1,08,1.23,361.5124,M,-32.8284,M,,*6A"
21,0,0.000000,6.537236,"$GPGGA,170910.80,3721.9049836,N,07958.3633887,W,1,08,1.23,361.5272,M,-32.8284,M,,*63"
22,0,0.000000,6.640045,"$GPGGA,170910.90,3721.9049775,N,07958.3633881,W,1,08,1.23,361.5275,M,-32.8284,M,,*6B"
22,0,0.000000,6.793147,"$GPGGA,170911.00,3721.9049749,N,07958.3633876,W,1,08,1.23,361.5266,M,-32.8284,M,,*66"
22,0,0.000000,6.860987,"$GPGGA,170911.10,3721.9049697,N,07958.3633899,W,1,08,1.23,361.5287,M,-32.8284,M,,*6B"
23,0,0.000000,6.939263,"$GPGGA,170911.20,3721.9049653,N,07958.3633876,W,1,08,1.23,361.5287,M,-32.8284,M,,*61"
24,0,0.000000,7.037111,"$GPGGA,170911.30,3721.9049579,N,07958.3633903,W,1,08,1.23,361.5452,M,-32.8284,M,,*66"
25,0,0.000000,7.136973,"$GPGGA,170911.40,3721.9049512,N,07958.3633907,W,1,08,1.23,361.5572,M,-32.8284,M,,*6B"
26,0,0.000000,7.236956,"$GPGGA,170911.50,3721.9049418,N,07958.3633846,W,1,08,1.23,361.5691,M,-32.8284,M,,*6B"
27,0,0.000000,7.340770,"$GPGGA,170911.60,3721.9049345,N,07958.3633781,W,1,08,1.23,361.5604,M,-32.8284,M,,*6F"
28,0,0.000000,7.439931,"$GPGGA,170911.70,3721.9049302,N,07958.3633765,W,1,08,1.23,361.5556,M,-32.8284,M,,*63"
30,0,0.000000,7.540380,"$GPGGA,170911.80,3721.9049148,N,07958.3633814,W,1,08,1.23,361.5297,M,-32.8284,M,,*63"
32,0,0.000000,7.638970,"$GPGGA,170911.90,3721.9048830,N,07958.3633948,W,1,08,1.23,361.4490,M,-32.8284,M,,*6D"
34,0,0.000000,7.789630,"$GPGGA,170912.00,3721.9048771,N,07958.3633948,W,1,08,1.23,361.4435,M,-32.8284,M,,*62"
35,0,0.000000,7.873011,"$GPGGA,170912.10,3721.9048609,N,07958.3633822,W,1,08,1.23,361.4634,M,-32.8284,M,,*63"
36,0,0.000000,7.937158,"$GPGGA,170912.20,3721.9048398,N,07958.3633768,W,1,08,1.23,361.4671,M,-32.8284,M,,*6D"
38,0,0.000000,8.040043,"$GPGGA,170912.30,3721.9048282,N,07958.3633824,W,1,09,1.11,361.4850,M,-32.8284,M,,*6C"
40,0,0.000000,8.140376,"$GPGGA,170912.40,3721.9048182,N,07958.3633899,W,1,09,1.11,361.5044,M,-32.8284,M,,*62"
42,0,0.000000,8.239916,"$GPGGA,170912.50,3721.9048120,N,07958.3633836,W,1,09,1.11,361.5186,M,-32.8284,M,,*61"
42,0,0.000000,8.339487,"$GPGGA,170912.60,3721.9048183,N,07958.3633673,W,1,09,1.11,361.5633,M,-32.8284,M,,*6D"
42,0,0.000000,8.436859,"$GPGGA,170912.70,3721.9048053,N,07958.3633667,W,1,08,1.23,361.5276,M,-32.8284,M,,*60"
42,0,0.000000,8.537139,"$GPGGA,170912.80,3721.9047834,N,07958.3633496,W,1,08,1.23,361.5084,M,-32.8284,M,,*6A"
42,0,0.000000,8.636446,"$GPGGA,170912.90,3721.9047683,N,07958.3633352,W,1,08,1.23,361.4977,M,-32.8284,M,,*62"
42,0,0.000000,8.791641,"$GPGGA,170913.00,3721.9047814,N,07958.3633481,W,1,07,1.48,361.5046,M,-32.8284,M,,*6B"
43,0,0.000000,8.859476,"$GPGGA,170913.10,3721.9047799,N,07958.3633527,W,1,07,1.48,361.5008,M,-32.8284,M,,*67"
43,0,0.000000,8.940258,"$GPGGA,170913.20,3721.9047793,N,07958.3633491,W,1,07,1.48,361.5028,M,-32.8284,M,,*60"
43,0,0.000000,9.039450,"$GPGGA,170913.30,3721.9047765,N,07958.3633500,W,1,07,1.48,361.5054,M,-32.8284,M,,*6A"
43,0,0.000000,9.137013,"$GPGGA,170913.40,3721.9047761,N,07958.3633490,W,1,07,1.48,361.5041,M,-32.8284,M,,*65"
44,0,0.000000,9.237223,"$GPGGA,170913.50,3721.9047736,N,07958.3633488,W,1,07,1.48,361.5037,M,-32.8284,M,,*6E"
44,0,0.000000,9.337098,"$GPGGA,170913.60,3721.9047698,N,07958.3633472,W,1,07,1.48,361.5244,M,-32.8284,M,,*6B"
44,0,0.000000,9.440774,"$GPGGA,170913.70,3721.9047666,N,07958.3633460,W,1,08,1.45,361.5107,M,-32.8284,M,,*6E"
44,0,0.000000,9.540739,"$GPGGA,170913.80,3721.9047654,N,07958.3633453,W,1,08,1.45,361.5037,M,-32.8284,M,,*62"
45,0,0.000000,9.640567,"$GPGGA,170913.90,3721.9047618,N,07958.3633439,W,1,08,1.45,361.5109,M,-32.8284,M,,*6B"
45,0,0.000000,9.791945,"$GPGGA,170914.00,3721.9047599,N,07958.3633422,W,1,08,1.45,361.5134,M,-32.8284,M,,*6B"
46,0,0.000000,9.859762,"$GPGGA,170914.10,3721.9047560,N,07958.3633412,W,1,08,1.45,361.5136,M,-32.8284,M,,*6D"
46,0,0.000000,9.939661,"$GPGGA,170914.20,3721.9047530,N,07958.3633386,W,1,08,1.45,361.5130,M,-32.8284,M,,*67"
47,0,0.000000,10.037233,"$GPGGA,170914.30,3721.9047456,N,07958.3633379,W,1,08,1.45,361.5249,M,-32.8284,M,,*6A"
48,0,0.000000,10.140458,"$GPGGA,170914.40,3721.9047376,N,07958.3633318,W,1,08,1.45,361.5218,M,-32.8284,M,,*6B"
48,0,0.000000,10.241066,"$GPGGA,170914.50,3721.9047267,N,07958.3633284,W,1,08,1.45,361.5154,M,-32.8284,M,,*64"
49,0,0.000000,10.340516,"$GPGGA,170914.60,3721.9047145,N,07958.3633243,W,1,08,1.45,361.5136,M,-32.8284,M,,*6B"
50,0,0.000000,10.440514,"$GPGGA,170914.70,3721.9047078,N,07958.3633300,W,1,08,1.45,361.5238,M,-32.8284,M,,*6E"
52,0,0.000000,10.537938,"$GPGGA,170914.80,3721.9047007,N,07958.3633298,W,1,08,1.45,361.5286,M,-32.8284,M,,*6C"
53,0,0.000000,10.637098,"$GPGGA,170914.90,3721.9046926,N,07958.3633196,W,1,08,1.45,361.5203,M,-32.8284,M,,*66"
56,0,0.000000,10.789494,"$GPGGA,170915.00,3721.9046820,N,07958.3633116,W,1,08,1.45,361.4987,M,-32.8284,M,,*67"
58,0,0.000000,10.857337,"$GPGGA,170915.10,3721.9046624,N,07958.3633048,W,1,08,1.45,361.4712,M,-32.8284,M,,*64"
59,0,0.000000,10.940344,"$GPGGA,170915.20,3721.9046377,N,07958.3632966,W,1,08,1.45,361.4746,M,-32.8284,M,,*61"
61,0,0.000000,11.042241,"$GPGGA,170915.30,3721.9045817,N,07958.3632705,W,1,08,1.45,361.4129,M,-32.8284,M,,*6A"
63,0,0.000000,11.139604,"$GPGGA,170915.40,3721.9045792,N,07958.3632863,W,1,08,1.45,361.4545,M,-32.8284,M,,*6E"
65,0,0.000000,11.237087,"$GPGGA,170915.50,3721.9045621,N,07958.3632932,W,1,08,1.45,361.4862,M,-32.8284,M,,*6B"
67,0,0.000000,11.336753,"$GPGGA,170915.60,3721.9045385,N,07958.3632895,W,1,08,1.45,361.5298,M,-32.8284,M,,*61"
69,0,0.000000,11.436991,"$GPGGA,170915.70,3721.9045133,N,07958.3632890,W,1,08,1.45,361.5843,M,-32.8284,M,,*66"
71,0,0.000000,11.540431,"$GPGGA,170915.80,3721.9044875,N,07958.3633057,W,1,08,1.45,361.6639,M,-32.8284,M,,*61"
74,0,0.000000,11.640214,"$GPGGA,170915.90,3721.9044533,N,07958.3633076,W,1,07,1.48,361.5842,M,-32.8284,M,,*6F"
78,0,0.000000,11.792716,"$GPGGA,170916.00,3721.9044357,N,07958.3633160,W,1,08,1.45,361.5664,M,-32.8284,M,,*6F"
80,0,0.000000,11.860470,"$GPGGA,170916.10,3721.9044257,N,07958.3633256,W,1,08,1.45,361.5666,M,-32.8284,M,,*6B"
81,0,0.000000,11.937710,"$GPGGA,170916.20,3721.9044081,N,07958.3633192,W,1,08,1.45,361.5968,M,-32.8284,M,,*6B"
82,0,0.000000,12.036872,"$GPGGA,170916.30,3721.9043798,N,07958.3632938,W,1,08,1.45,361.5964,M,-32.8284,M,,*67"
82,0,0.000000,12.137079,"$GPGGA,170916.40,3721.9043690,N,07958.3632969,W,1,08,1.45,361.6073,M,-32.8284,M,,*61"
83,0,0.000000,12.240125,"$GPGGA,170916.50,3721.9043587,N,07958.3632991,W,1,08,1.45,361.6136,M,-32.8284,M,,*62"
84,0,0.000000,12.340368,"$GPGGA,170916.60,3721.9043513,N,07958.3633097,W,1,08,1.45,361.5981,M,-32.8284,M,,*65"
84,0,0.000000,12.440693,"$GPGGA,170916.70,3721.9043456,N,07958.3633164,W,1,08,1.45,361.5711,M,-32.8284,M,,*6E"
85,0,0.000000,12.540130,"$GPGGA,170916.80,3721.9043379,N,07958.3633153,W,1,08,1.45,361.5833,M,-32.8284,M,,*60"
86,0,0.000000,12.637707,"$GPGGA,170916.90,3721.9043278,N,07958.3633174,W,1,08,1.45,361.6015,M,-32.8284,M,,*6B"
88,0,0.000000,12.788332,"$GPGGA,170917.00,3721.9043109,N,07958.3633129,W,1,08,1.45,361.6039,M,-32.8284,M,,*60"
89,0,0.000000,12.858439,"$GPGGA,170917.10,3721.9042975,N,07958.3633135,W,1,08,1.45,361.6053,M,-32.8284,M,,*62"
89,0,0.000000,12.940565,"$GPGGA,170917.20,3721.9042847,N,07958.3633094,W,1,08,1.45,361.5897,M,-32.8284,M,,*68"
91,0,0.000000,13.040279,"$GPGGA,170917.30,3721.9042784,N,07958.3633075,W,1,08,1.45,361.5793,M,-32.8284,M,,*6D"
92,0,0.000000,13.140420,"$GPGGA,170917.40,3721.9042694,N,07958.3633095,W,1,08,1.45,361.5511,M,-32.8284,M,,*6C"
93,0,0.000000,13.239548,"$GPGGA,170917.50,3721.9042583,N,07958.3633127,W,1,08,1.45,361.5190,M,-32.8284,M,,*6D"
94,0,0.000000,13.341180,"$GPGGA,170917.60,3721.9042434,N,07958.3633145,W,1,08,1.45,361.5134,M,-32.8284,M,,*69"
94,0,0.000000,13.439074,"$GPGGA,170917.70,3721.9042308,N,07958.3633090,W,1,08,1.45,361.5375,M,-32.8284,M,,*6E"
95,0,0.000000,13.537087,"$GPGGA,170917.80,3721.9042224,N,07958.3633081,W,1,08,1.45,361.5309,M,-32.8284,M,,*65"
95,0,0.000000,13.640443,"$GPGGA,170917.90,3721.9042114,N,07958.3632997,W,1,09,1.20,361.5191,M,-32.8284,M,,*6A"
96,0,0.000000,13.793162,"$GPGGA,170918.00,3721.9042031,N,07958.3633087,W,1,09,1.20,361.5357,M,-32.8284,M,,*6B"
96,0,0.000000,13.861007,"$GPGGA,170918.10,3721.9041735,N,07958.3633481,W,1,10,1.08,361.4535,M,-32.8284,M,,*69"
96,0,0.000000,13.944374,"$GPGGA,170918.20,3721.9041561,N,07958.3633508,W,1,10,1.08,361.4207,M,-32.8284,M,,*6F"
97,0,0.000000,14.038381,"$GPGGA,170918.30,3721.9041468,N,07958.3633410,W,1,10,1.08,361.4130,M,-32.8284,M,,*69"
100,0,0.000000,14.137179,"$GPGGA,170918.40,3721.9041446,N,07958.3633264,W,1,10,1.08,361.4089,M,-32.8284,M,,*64"
102,0,0.000000,14.236723,"$GPGGA,170918.50,3721.9041421,N,07958.3632679,W,1,10,1.08,361.5793,M,-32.8284,M,,*60"
104,0,0.000000,14.340570,"$GPGGA,170918.60,3721.9041120,N,07958.3632905,W,1,10,1.08,361.5145,M,-32.8284,M,,*6E"
106,0,0.000000,14.440151,"$GPGGA,170918.70,3721.9040779,N,07958.3633181,W,1,10,1.08,361.5586,M,-32.8284,M,,*6A"
107,0,0.000000,14.540115,"$GPGGA,170918.80,3721.9040522,N,07958.3633147,W,1,10,1.08,361.5428,M,-32.8284,M,,*66"
109,0,0.000000,14.639758,"$GPGGA,170918.90,3721.9040384,N,07958.3633168,W,1,10,1.08,361.5105,M,-32.8284,M,,*6A"
110,0,0.000000,14.795489,"$GPGGA,170919.00,3721.9040204,N,07958.3633183,W,1,10,1.08,361.5040,M,-32.8284,M,,*6E"
111,0,0.000000,14.860302,"$GPGGA,170919.10,3721.9039994,N,07958.3633050,W,1,10,1.08,361.5016,M,-32.8284,M,,*6F"
112,0,0.000000,14.936881,"$GPGGA,170919.20,3721.9039872,N,07958.3632943,W,1,10,1.08,361.5370,M,-32.8284,M,,*6C"
113,0,0.000000,15.037096,"$GPGGA,170919.30,3721.9039766,N,07958.3632812,W,1,09,1.31,361.5688,M,-32.8284,M,,*62"
114,0,0.000000,15.141132,"$GPGGA,170919.40,3721.9039657,N,07958.3632798,W,1,09,1.31,361.5919,M,-32.8284,M,,*6C"
115,0,0.000000,15.240606,"$GPGGA,170919.50,3721.9039591,N,07958.3632969,W,1,09,1.31,361.5850,M,-32.8284,M,,*68"
115,0,0.000000,15.348304,"$GPGGA,170919.60,3721.9039513,N,07958.3632978,W,1,09,1.31,361.5783,M,-32.8284,M,,*60"
116,0,0.000000,15.438589,"$GPGGA,170919.70,3721.9039150,N,07958.3632716,W,1,10,1.08,361.5231,M,-32.8284,M,,*6A"
117,0,0.000000,15.537768,"$GPGGA,170919.80,3721.9039079,N,07958.3632769,W,1,10,1.08,361.5249,M,-32.8284,M,,*68"
118,0,0.000000,15.638081,"$GPGGA,170919.90,3721.9038994,N,07958.3632814,W,1,10,1.08,361.5480,M,-32.8284,M,,*64"
121,0,0.000000,15.795146,"$GPGGA,170920.00,3721.9038923,N,07958.3632959,W,1,10,1.08,361.5766,M,-32.8284,M,,*68"
122,0,0.000000,15.862985,"$GPGGA,170920.10,3721.9038739,N,07958.3633057,W,1,10,1.08,361.6068,M,-32.8284,M,,*60"
123,0,0.000000,15.940110,"$GPGGA,170920.20,3721.9038612,N,07958.3633192,W,1,10,1.08,361.6191,M,-32.8284,M,,*64"
124,0,0.000000,16.041589,"$GPGGA,170920.30,3721.9038535,N,07958.3633165,W,1,10,1.08,361.6230,M,-32.8284,M,,*63"
126,0,0.000000,16.138615,"$GPGGA,170920.40,3721.9038420,N,07958.3633083,W,1,10,1.08,361.6236,M,-32.8284,M,,*6E"
127,0,0.000000,16.237581,"$GPGGA,170920.50,3721.9038197,N,07958.3633038,W,1,10,1.08,361.5663,M,-32.8284,M,,*61"
129,0,0.000000,16.337400,"$GPGGA,170920.60,3721.9037898,N,07958.3632787,W,1,10,1.08,361.6129,M,-32.8284,M,,*63"
130,0,0.000000,16.436872,"$GPGGA,170920.70,3721.9037796,N,07958.3632693,W,1,09,1.11,361.6643,M,-32.8284,M,,*6C"
131,0,0.000000,16.540995,"$GPGGA,170920.80,3721.9037553,N,07958.3632869,W,1,10,1.08,361.5401,M,-32.8284,M,,*64"
132,0,0.000000,16.640752,"$GPGGA,170920.90,3721.9037499,N,07958.3632841,W,1,10,1.08,361.5702,M,-32.8284,M,,*68"
133,0,0.000000,16.795263,"$GPGGA,170921.00,3721.9037416,N,07958.3632834,W,1,10,1.08,361.5951,M,-32.8284,M,,*6D"
134,0,0.000000,16.862973,"$GPGGA,170921.10,3721.9037352,N,07958.3632913,W,1,10,1.08,361.6111,M,-32.8284,M,,*60"
135,0,0.000000,16.938753,"$GPGGA,170921.20,3721.9037277,N,07958.3632990,W,1,10,1.08,361.5976,M,-32.8284,M,,*64"
136,0,0.000000,17.037870,"$GPGGA,170921.30,3721.9037174,N,07958.3632974,W,1,10,1.08,361.5880,M,-32.8284,M,,*67"
138,0,0.000000,17.140369,"$GPGGA,170921.40,3721.9037103,N,07958.3632962,W,1,10,1.08,361.6089,M,-32.8284,M,,*65"
139,0,0.000000,17.240703,"$GPGGA,170921.50,3721.9036994,N,07958.3632871,W,1,10,1.08,361.6063,M,-32.8284,M,,*64"
141,0,0.000000,17.340030,"$GPGGA,170921.60,3721.9036942,N,07958.3632676,W,1,10,1.08,361.6184,M,-32.8284,M,,*6D"
144,0,0.000000,17.441202,"$GPGGA,170921.70,3721.9036796,N,07958.3632565,W,1,10,1.08,361.6076,M,-32.8284,M,,*66"
145,0,0.000000,17.540678,"$GPGGA,170921.80,3721.9036474,N,07958.3632468,W,1,10,1.08,361.5690,M,-32.8284,M,,*67"
147,0,0.000000,17.637293,"$GPGGA,170921.90,3721.9036266,N,07958.3632413,W,1,10,1.08,361.7230,M,-32.8284,M,,*63"
151,0,0.000000,17.791773,"$GPGGA,170922.00,3721.9037089,N,07958.3632568,W,1,10,1.08,362.2023,M,-32.8284,M,,*60"
152,0,0.000000,17.859605,"$GPGGA,170922.10,3721.9036841,N,07958.3632373,W,1,10,1.08,362.1726,M,-32.8284,M,,*61"
154,0,0.000000,17.940718,"$GPGGA,170922.20,3721.9036768,N,07958.3632205,W,1,10,1.08,362.1918,M,-32.8284,M,,*65"
155,0,0.000000,18.040907,"$GPGGA,170922.30,3721.9036746,N,07958.3632126,W,1,09,1.31,362.2098,M,-32.8284,M,,*6A"
158,0,0.000000,18.142843,"$GPGGA,170922.40,3721.9036644,N,07958.3632103,W,1,10,1.08,362.2053,M,-32.8284,M,,*6C"
160,0,0.000000,18.238760,"$GPGGA,170922.50,3721.9036458,N,07958.3632024,W,1,10,1.08,362.1657,M,-32.8284,M,,*67"
161,0,0.000000,18.337715,"$GPGGA,170922.60,3721.9036236,N,07958.3631957,W,1,09,1.31,362.1041,M,-32.8284,M,,*67"
162,0,0.000000,18.437914,"$GPGGA,170922.70,3721.9035956,N,07958.3631939,W,1,10,1.08,362.0093,M,-32.8284,M,,*6C"
164,0,0.000000,18.541106,"$GPGGA,170922.80,3721.9035612,N,07958.3631930,W,1,10,1.08,361.9470,M,-32.8284,M,,*66"
165,0,0.000000,18.640604,"$GPGGA,170922.90,3721.9035530,N,07958.3631974,W,1,10,1.08,361.9518,M,-32.8284,M,,*6B"
165,0,0.000000,18.795999,"$GPGGA,170923.00,3721.9035441,N,07958.3631967,W,1,10,1.08,361.9834,M,-32.8284,M,,*65"
166,0,0.000000,18.863755,"$GPGGA,170923.10,3721.9035336,N,07958.3631870,W,1,10,1.08,361.9934,M,-32.8284,M,,*65"
166,0,0.000000,18.939397,"$GPGGA,170923.20,3721.9035265,N,07958.3631791,W,1,10,1.08,361.9989,M,-32.8284,M,,*67"
167,0,0.000000,19.037186,"$GPGGA,170923.30,3721.9035187,N,07958.3631777,W,1,10,1.08,361.9959,M,-32.8284,M,,*6C"
168,0,0.000000,19.136923,"$GPGGA,170923.40,3721.9035108,N,07958.3631751,W,1,10,1.08,361.9954,M,-32.8284,M,,*65"
170,0,0.000000,19.237256,"$GPGGA,170923.50,3721.9035100,N,07958.3631760,W,1,10,1.08,362.0100,M,-32.8284,M,,*6D"
171,0,0.000000,19.340354,"$GPGGA,170923.60,3721.9035092,N,07958.3631754,W,1,09,1.22,362.0065,M,-32.8284,M,,*61"
172,0,0.000000,19.440400,"$GPGGA,170923.70,3721.9035092,N,07958.3631850,W,1,10,1.08,362.0240,M,-32.8284,M,,*6E"
173,0,0.000000,19.540947,"$GPGGA,170923.80,3721.9034889,N,07958.3631912,W,1,10,1.08,362.0174,M,-32.8284,M,,*61"
174,0,0.000000,19.638312,"$GPGGA,170923.90,3721.9034807,N,07958.3631899,W,1,10,1.08,362.0171,M,-32.8284,M,,*61"
175,0,0.000000,19.792317,"$GPGGA,170924.00,3721.9034726,N,07958.3631878,W,1,10,1.08,362.0173,M,-32.8284,M,,*6E"
176,0,0.000000,19.860090,"$GPGGA,170924.10,3721.9034676,N,07958.3631856,W,1,10,1.08,362.0363,M,-32.8284,M,,*64"
177,0,0.000000,19.937662,"$GPGGA,170924.20,3721.9034630,N,07958.3631848,W,1,10,1.08,362.0429,M,-32.8284,M,,*63"
178,0,0.000000,20.040224,"$GPGGA,170924.30,3721.9034476,N,07958.3631763,W,1,09,1.12,362.0000,M,-32.8284,M,,*68"
179,0,0.000000,20.140277,"$GPGGA,170924.40,3721.9034367,N,07958.3631695,W,1,09,1.12,362.0249,M,-32.8284,M,,*6F"
180,0,0.000000,20.239945,"$GPGGA,170924.50,3721.9034276,N,07958.3631751,W,1,09,1.12,362.0679,M,-32.8284,M,,*61"
181,0,0.000000,20.338848,"$GPGGA,170924.60,3721.9034183,N,07958.3631850,W,1,09,1.12,362.1260,M,-32.8284,M,,*68"
183,0,0.000000,20.437127,"$GPGGA,170924.70,3721.9034235,N,07958.3632043,W,1,09,1.12,362.1825,M,-32.8284,M,,*65"
184,0,0.000000,20.536574,"$GPGGA,170924.80,3721.9034108,N,07958.3632016,W,1,09,1.12,362.1920,M,-32.8284,M,,*63"
186,0,0.000000,20.636564,"$GPGGA,170924.90,3721.9034094,N,07958.3632114,W,1,09,1.12,362.2450,M,-32.8284,M,,*6C"
189,0,0.000000,20.793716,"$GPGGA,170925.00,3721.9034035,N,07958.3632155,W,1,09,1.12,362.2964,M,-32.8284,M,,*60"
190,0,0.000000,20.861469,"$GPGGA,170925.10,3721.9033902,N,07958.3632108,W,1,09,1.12,362.3129,M,-32.8284,M,,*63"
190,0,0.000000,20.941211,"$GPGGA,170925.20,3721.9033703,N,07958.3631987,W,1,09,1.12,362.3216,M,-32.8284,M,,*6C"
191,0,0.000000,21.038777,"$GPGGA,170925.30,3721.9034192,N,07958.3632496,W,1,09,1.12,362.4701,M,-32.8284,M,,*6E"
192,0,0.000000,21.137994,"$GPGGA,170925.40,3721.9034185,N,07958.3632499,W,1,09,1.12,362.4756,M,-32.8284,M,,*62"
194,0,0.000000,21.237255,"$GPGGA,170925.50,3721.9034290,N,07958.3632639,W,1,09,1.12,362.5180,M,-32.8284,M,,*60"
195,0,0.000000,21.337337,"$GPGGA,170925.60,3721.9034258,N,07958.3632617,W,1,09,1.12,362.5381,M,-32.8284,M,,*68"
196,0,0.000000,21.440500,"$GPGGA,170925.70,3721.9033389,N,07958.3631794,W,1,08,1.36,362.2504,M,-32.8284,M,,*61"
197,0,0.000000,21.539818,"$GPGGA,170925.80,3721.9033367,N,07958.3631835,W,1,07,1.36,362.2640,M,-32.8284,M,,*66"
197,0,0.000000,21.639448,"$GPGGA,170925.90,3721.9033371,N,07958.3631871,W,1,06,2.44,362.3704,M,-32.8284,M,,*67"
199,0,0.000000,21.789362,"$GPGGA,170926.00,3721.9019430,N,07958.3641447,W,1,05,5.98,365.6302,M,-32.8284,M,,*6C"
199,0,0.000000,21.857110,"$GPGGA,170926.10,3721.9019675,N,07958.3641478,W,1,05,5.98,365.6053,M,-32.8284,M,,*65"
201,0,0.000000,21.933036,"$GPGGA,170926.20,3721.9060273,N,07958.3642816,W,1,06,2.44,357.1581,M,-32.8284,M,,*64"
203,0,0.000000,22.032643,"$GPGGA,170926.30,3721.9060355,N,07958.3642820,W,1,06,2.44,357.1362,M,-32.8284,M,,*6E"
205,0,0.000000,22.133788,"$GPGGA,170926.40,3721.9060240,N,07958.3642815,W,1,06,2.44,357.1251,M,-32.8284,M,,*6B"
207,0,0.000000,22.233128,"$GPGGA,170926.50,3721.9059979,N,07958.3642843,W,1,06,2.44,357.1681,M,-32.8284,M,,*6B"
209,0,0.000000,22.336069,"$GPGGA,170926.60,3721.9059697,N,07958.3642734,W,1,06,2.44,357.2075,M,-32.8284,M,,*66"
212,0,0.000000,22.435393,"$GPGGA,170926.70,3721.9059711,N,07958.3642991,W,1,06,2.44,357.3168,M,-32.8284,M,,*65"
214,0,0.000000,22.533014,"$GPGGA,170926.80,3721.9041829,N,07958.3625929,W,1,05,3.86,353.3195,M,-32.8284,M,,*6F"
216,0,0.000000,22.633234,"$GPGGA,170926.90,3721.9041170,N,07958.3625805,W,1,05,3.86,353.3236,M,-32.8284,M,,*6E"
221,0,0.000000,22.782120,"$GPGGA,170927.00,3721.9040988,N,07958.3626023,W,1,05,3.86,353.3916,M,-32.8284,M,,*6E"
222,0,0.000000,22.849899,"$GPGGA,170927.10,3721.9040962,N,07958.3626056,W,1,05,3.86,353.4849,M,-32.8284,M,,*65"
224,0,0.000000,22.932739,"$GPGGA,170927.20,3721.9040887,N,07958.3626423,W,1,05,3.86,353.5386,M,-32.8284,M,,*63"
228,0,0.000000,23.036186,"$GPGGA,170927.30,3721.9040741,N,07958.3626789,W,1,05,3.86,353.6814,M,-32.8284,M,,*67"
231,0,0.000000,23.135284,"$GPGGA,170927.40,3721.9039916,N,07958.3626408,W,1,05,3.86,353.7123,M,-32.8284,M,,*64"
233,0,0.000000,23.232636,"$GPGGA,170927.50,3721.9039718,N,07958.3626659,W,1,05,3.86,353.8239,M,-32.8284,M,,*64"
234,0,0.000000,23.333276,"$GPGGA,170927.60,3721.9039223,N,07958.3629075,W,1,04,11.27,353.2629,M,-32.8284,M,,*5B"
235,0,0.000000,23.432070,"$GPGGA,170927.70,3721.9039607,N,07958.3625443,W,1,05,3.86,354.8004,M,-32.8284,M,,*68"
235,0,0.000000,23.532350,"$GPGGA,170927.80,3721.9039376,N,07958.3625548,W,1,05,3.86,354.9106,M,-32.8284,M,,*6C"
237,0,0.000000,23.638564,"$GPGGA,170927.90,3721.9039186,N,07958.3625619,W,1,05,3.86,355.0291,M,-32.8284,M,,*62"
239,0,0.000000,23.785010,"$GPGGA,170928.00,3721.9039079,N,07958.3625734,W,1,05,3.86,355.1218,M,-32.8284,M,,*6B"
240,0,0.000000,23.852743,"$GPGGA,170928.10,3721.9038953,N,07958.3625966,W,1,05,3.86,355.1337,M,-32.8284,M,,*6F"
241,0,0.000000,23.933005,"$GPGGA,170928.20,3721.9038962,N,07958.3626366,W,1,05,3.86,355.1985,M,-32.8284,M,,*64"
243,0,0.000000,24.032982,"$GPGGA,170928.30,3721.9038788,N,07958.3626715,W,1,05,3.86,355.2885,M,-32.8284,M,,*6D"
244,0,0.000000,24.132544,"$GPGGA,170928.40,3721.9038409,N,07958.3626943,W,1,05,3.86,355.3977,M,-32.8284,M,,*60"
246,0,0.000000,24.233090,"$GPGGA,170928.50,3721.9038194,N,07958.3627229,W,1,05,3.86,355.4815,M,-32.8284,M,,*64"
249,0,0.000000,24.332956,"$GPGGA,170928.60,3721.9037946,N,07958.3627292,W,1,05,3.86,355.4459,M,-32.8284,M,,*6B"
251,0,0.000000,24.436122,"$GPGGA,170928.70,3721.9037667,N,07958.3627527,W,1,05,3.86,355.4201,M,-32.8284,M,,*64"
251,0,0.000000,24.535451,"$GPGGA,170928.80,3721.9037555,N,07958.3628086,W,1,05,3.86,355.4636,M,-32.8284,M,,*68"
252,0,0.000000,24.632718,"$GPGGA,170928.90,3721.9037365,N,07958.3628496,W,1,05,3.86,355.5224,M,-32.8284,M,,*6F"
253,0,0.000000,24.781734,"$GPGGA,170929.00,3721.9037261,N,07958.3628537,W,1,05,3.86,355.5054,M,-32.8284,M,,*6D"
253,0,0.000000,24.849627,"$GPGGA,170929.10,3721.9037169,N,07958.3628554,W,1,05,3.86,355.5050,M,-32.8284,M,,*66"
253,0,0.000000,24.945306,"$GPGGA,170929.20,3721.9037126,N,07958.3628590,W,1,05,3.86,355.4907,M,-32.8284,M,,*6C"
254,0,0.000000,25.032995,"$GPGGA,170929.30,3721.9037030,N,07958.3628781,W,1,05,3.86,355.5234,M,-32.8284,M,,*63"
256,0,0.000000,25.135672,"$GPGGA,170929.40,3721.9037089,N,07958.3629085,W,1,05,3.87,355.5428,M,-32.8284,M,,*6E"
260,0,0.000000,25.235321,"$GPGGA,170929.50,3721.9036989,N,07958.3629248,W,1,05,3.87,355.4753,M,-32.8284,M,,*6A"
263,0,0.000000,25.333226,"$GPGGA,170929.60,3721.9037027,N,07958.3629593,W,1,05,3.87,355.4392,M,-32.8284,M,,*6D"
265,0,0.000000,25.432724,"$GPGGA,170929.70,3721.9036947,N,07958.3630160,W,1,05,3.87,355.5162,M,-32.8284,M,,*6E"
267,0,0.000000,25.533111,"$GPGGA,170929.80,3721.9036803,N,07958.3630494,W,1,05,3.87,355.5802,M,-32.8284,M,,*61"
269,0,0.000000,25.632671,"$GPGGA,170929.90,3721.9036543,N,07958.3630554,W,1,05,3.87,355.6110,M,-32.8284,M,,*6D"
270,0,0.000000,25.781684,"$GPGGA,170930.00,3721.9036201,N,07958.3630622,W,1,05,3.87,355.6268,M,-32.8284,M,,*63"
271,0,0.000000,25.849460,"$GPGGA,170930.10,3721.9036068,N,07958.3630865,W,1,05,3.87,355.7271,M,-32.8284,M,,*6B"
273,0,0.000000,25.935742,"$GPGGA,170930.20,3721.9035907,N,07958.3630914,W,1,05,3.87,355.7574,M,-32.8284,M,,*6E"
275,0,0.000000,26.032942,"$GPGGA,170930.30,3721.9035920,N,07958.3631198,W,1,05,3.87,355.8370,M,-32.8284,M,,*6A"
278,0,0.000000,26.132067,"$GPGGA,170930.40,3721.9035852,N,07958.3631448,W,1,05,3.87,355.8520,M,-32.8284,M,,*62"
281,0,0.000000,26.232393,"$GPGGA,170930.50,3721.9035494,N,07958.3631647,W,1,05,3.87,355.7719,M,-32.8284,M,,*6F"
283,0,0.000000,26.332633,"$GPGGA,170930.60,3721.9028488,N,07958.3625512,W,1,06,2.05,354.2313,M,-32.8284,M,,*69"
285,0,0.000000,26.433133,"$GPGGA,170930.70,3721.9027976,N,07958.3625304,W,1,06,2.05,354.3132,M,-32.8284,M,,*6A"
287,0,0.000000,26.536378,"$GPGGA,170930.80,3721.9027738,N,07958.3625471,W,1,06,2.05,354.4027,M,-32.8284,M,,*66"
289,0,0.000000,26.635742,"$GPGGA,170930.90,3721.9027635,N,07958.3625887,W,1,06,2.05,354.4577,M,-32.8284,M,,*6E"
292,0,0.000000,26.783772,"$GPGGA,170931.00,3721.9027469,N,07958.3626497,W,1,06,2.05,354.4787,M,-32.8284,M,,*6E"
294,0,0.000000,26.851464,"$GPGGA,170931.10,3721.9027246,N,07958.3626648,W,1,06,2.05,354.5254,M,-32.8284,M,,*6E"
296,0,0.000000,26.933202,"$GPGGA,170931.20,3721.9026958,N,07958.3626694,W,1,06,2.05,354.5665,M,-32.8284,M,,*6F"
298,0,0.000000,27.032981,"$GPGGA,170931.30,3721.9026727,N,07958.3626873,W,1,06,2.05,354.6237,M,-32.8284,M,,*6F"
299,0,0.000000,27.132570,"$GPGGA,170931.40,3721.9026448,N,07958.3627259,W,1,06,2.05,354.7843,M,-32.8284,M,,*69"
301,0,0.000000,27.236309,"$GPGGA,170931.50,3721.9026221,N,07958.3627387,W,1,06,2.05,354.8631,M,-32.8284,M,,*67"
304,0,0.000000,27.335619,"$GPGGA,170931.60,3721.9026050,N,07958.3627566,W,1,06,2.05,354.9050,M,-32.8284,M,,*69"
305,0,0.000000,27.434172,"$GPGGA,170931.70,3721.9029972,N,07958.3632472,W,1,07,1.36,355.8523,M,-32.8284,M,,*6D"
305,0,0.000000,27.532470,"$GPGGA,170931.80,3721.9029686,N,07958.3632568,W,1,07,1.36,355.9117,M,-32.8284,M,,*6E"
305,0,0.000000,27.633278,"$GPGGA,170931.90,3721.9030094,N,07958.3635155,W,1,08,1.20,358.3138,M,-32.8284,M,,*6D"
305,0,0.000000,27.784760,"$GPGGA,170932.00,3721.9038227,N,07958.3641300,W,1,07,2.41,359.1524,M,-32.8284,M,,*65"
305,0,0.000000,27.852610,"$GPGGA,170932.10,3721.8995989,N,07958.3607094,W,1,09,1.08,356.4917,M,-32.8284,M,,*6E"
305,0,0.000000,27.937335,"$GPGGA,170932.20,3721.8995598,N,07958.3606880,W,1,09,1.08,356.3810,M,-32.8284,M,,*6C"
305,0,0.000000,28.037018,"$GPGGA,170932.30,3721.8994655,N,07958.3604625,W,1,08,1.16,354.3722,M,-32.8284,M,,*6F"
305,0,0.000000,28.133757,"$GPGGA,170932.40,3721.8994459,N,07958.3604739,W,1,08,1.16,354.4551,M,-32.8284,M,,*6B"
305,0,0.000000,28.233628,"$GPGGA,170932.50,3721.8994330,N,07958.3604909,W,1,08,1.16,354.5408,M,-32.8284,M,,*63"
305,0,0.000000,28.332999,"$GPGGA,170932.60,3721.8994266,N,07958.3605152,W,1,08,1.16,354.6355,M,-32.8284,M,,*69"
307,0,0.000000,28.856244,"$GPGGA,170933.10,3721.8994193,N,07958.3606379,W,1,08,1.16,355.0480,M,-32.8284,M,,*66"
307,0,0.000000,28.933539,"$GPGGA,170933.20,3721.8994282,N,07958.3606618,W,1,08,1.16,355.1234,M,-32.8284,M,,*6C"
308,0,0.000000,29.033168,"$GPGGA,170933.30,3721.8994241,N,07958.3606731,W,1,08,1.16,355.1821,M,-32.8284,M,,*66"
308,0,0.000000,29.133497,"$GPGGA,170933.40,3721.8997957,N,07958.3611656,W,1,09,1.11,358.6712,M,-32.8284,M,,*6B"
308,0,0.000000,29.233165,"$GPGGA,170933.50,3721.8998050,N,07958.3611895,W,1,09,1.11,358.7162,M,-32.8284,M,,*6A"
308,0,0.000000,29.336748,"$GPGGA,170933.60,3721.8998124,N,07958.3612022,W,1,09,1.11,358.7523,M,-32.8284,M,,*6D"
309,0,0.000000,29.436943,"$GPGGA,170933.70,3721.8998270,N,07958.3612159,W,1,09,1.11,358.8155,M,-32.8284,M,,*69"
309,0,0.000000,29.533905,"$GPGGA,170933.80,3721.8998231,N,07958.3612173,W,1,09,1.11,358.8518,M,-32.8284,M,,*66"
310,0,0.000000,29.633556,"$GPGGA,170933.90,3721.8998329,N,07958.3612332,W,1,09,1.11,358.9222,M,-32.8284,M,,*67"
310,0,0.000000,29.786779,"$GPGGA,170934.00,3721.8998299,N,07958.3612453,W,1,09,1.11,359.0047,M,-32.8284,M,,*6A"
311,0,0.000000,29.854542,"$GPGGA,170934.10,3721.8998317,N,07958.3612567,W,1,09,1.11,359.0473,M,-32.8284,M,,*69"
312,0,0.000000,29.933133,"$GPGGA,170934.20,3721.8998315,N,07958.3612762,W,1,09,1.11,359.1137,M,-32.8284,M,,*6B"
315,0,0.000000,30.037417,"$GPGGA,170934.30,3721.8998221,N,07958.3613015,W,1,09,1.11,359.1751,M,-32.8284,M,,*6C"
317,0,0.000000,30.136602,"$GPGGA,170934.40,3721.8998067,N,07958.3613238,W,1,09,1.11,359.2434,M,-32.8284,M,,*65"
319,0,0.000000,30.234512,"$GPGGA,170934.50,3721.8997899,N,07958.3613280,W,1,09,1.11,359.2870,M,-32.8284,M,,*6D"
322,0,0.000000,30.334677,"$GPGGA,170934.60,3721.8997580,N,07958.3613469,W,1,09,1.11,359.4043,M,-32.8284,M,,*64"
325,0,0.000000,30.433706,"$GPGGA,170934.70,3721.8997505,N,07958.3613511,W,1,09,1.11,359.4245,M,-32.8284,M,,*62"
327,0,0.000000,30.533397,"$GPGGA,170934.80,3721.8997479,N,07958.3613841,W,1,09,1.11,359.4913,M,-32.8284,M,,*67"
329,0,0.000000,30.633949,"$GPGGA,170934.90,3721.8997399,N,07958.3614465,W,1,09,1.11,359.5631,M,-32.8284,M,,*6C"
331,0,0.000000,30.790298,"$GPGGA,170935.00,3721.8997365,N,07958.3614748,W,1,09,1.11,359.6102,M,-32.8284,M,,*6F"
332,0,0.000000,30.858091,"$GPGGA,170935.10,3721.8997455,N,07958.3615045,W,1,09,1.11,359.6364,M,-32.8284,M,,*63"
333,0,0.000000,30.934250,"$GPGGA,170935.20,3721.8997544,N,07958.3615353,W,1,09,1.11,359.6898,M,-32.8284,M,,*6D"
334,0,0.000000,31.033195,"$GPGGA,170935.30,3721.8997619,N,07958.3615670,W,1,09,1.11,359.7572,M,-32.8284,M,,*6B"
335,0,0.000000,31.141711,"$GPGGA,170935.40,3721.8997778,N,07958.3616070,W,1,09,1.11,359.8360,M,-32.8284,M,,*65"
336,0,0.000000,31.239460,"$GPGGA,170935.50,3721.8997977,N,07958.3616425,W,1,09,1.11,359.8890,M,-32.8284,M,,*65"
338,0,0.000000,31.332773,"$GPGGA,170935.60,3721.8998090,N,07958.3616793,W,1,09,1.11,359.9450,M,-32.8284,M,,*66"
339,0,0.000000,31.436139,"$GPGGA,170935.70,3721.8998263,N,07958.3617212,W,1,09,1.11,359.9667,M,-32.8284,M,,*62"
341,0,0.000000,31.536426,"$GPGGA,170935.80,3721.8998255,N,07958.3617612,W,1,09,1.11,360.0029,M,-32.8284,M,,*63"
343,0,0.000000,31.634193,"$GPGGA,170935.90,3721.8998228,N,07958.3618022,W,1,09,1.11,360.0339,M,-32.8284,M,,*60"
345,0,0.000000,31.786727,"$GPGGA,170936.00,3721.8998046,N,07958.3618320,W,1,09,1.11,360.0581,M,-32.8284,M,,*64"
346,0,0.000000,31.855882,"$GPGGA,170936.10,3721.8997879,N,07958.3618481,W,1,09,1.11,360.0942,M,-32.8284,M,,*61"
347,0,0.000000,31.933160,"$GPGGA,170936.20,3721.8998161,N,07958.3619111,W,1,09,1.11,360.2352,M,-32.8284,M,,*69"
348,0,0.000000,32.033413,"$GPGGA,170936.30,3721.8998303,N,07958.3619608,W,1,09,1.11,360.3003,M,-32.8284,M,,*67"
349,0,0.000000,32.136970,"$GPGGA,170936.40,3721.8998119,N,07958.3618859,W,1,08,1.16,359.8775,M,-32.8284,M,,*63"
351,0,0.000000,32.236559,"$GPGGA,170936.50,3721.8998320,N,07958.3619333,W,1,09,1.11,359.8619,M,-32.8284,M,,*61"
352,0,0.000000,32.334777,"$GPGGA,170936.60,3721.8998512,N,07958.3619767,W,1,09,1.11,359.8575,M,-32.8284,M,,*69"
354,0,0.000000,32.433080,"$GPGGA,170936.70,3721.8998715,N,07958.3620168,W,1,09,1.11,359.9033,M,-32.8284,M,,*68"
355,0,0.000000,32.533126,"$GPGGA,170936.80,3721.8998848,N,07958.3620585,W,1,09,1.11,359.9944,M,-32.8284,M,,*6E"
357,0,0.000000,32.632437,"$GPGGA,170936.90,3721.8999119,N,07958.3621117,W,1,08,1.16,360.1213,M,-32.8284,M,,*60"
360,0,0.000000,32.784799,"$GPGGA,170937.00,3721.8999123,N,07958.3621212,W,1,08,1.18,360.2030,M,-32.8284,M,,*69"
361,0,0.000000,32.852634,"$GPGGA,170937.10,3721.8999418,N,07958.3621842,W,1,08,1.18,360.2685,M,-32.8284,M,,*62"
364,0,0.000000,32.935745,"$GPGGA,170937.20,3721.8999540,N,07958.3622402,W,1,08,1.18,360.2984,M,-32.8284,M,,*68"
366,0,0.000000,33.034619,"$GPGGA,170937.30,3721.8999695,N,07958.3623358,W,1,08,1.18,360.4700,M,-32.8284,M,,*6F"
368,0,0.000000,33.133043,"$GPGGA,170937.40,3721.9000168,N,07958.3624061,W,1,08,1.18,360.4982,M,-32.8284,M,,*6F"
369,0,0.000000,33.233321,"$GPGGA,170937.50,3721.9000470,N,07958.3624576,W,1,08,1.18,360.5806,M,-32.8284,M,,*6D"
369,0,0.000000,33.333562,"$GPGGA,170937.60,3721.9000779,N,07958.3624988,W,1,08,1.18,360.6996,M,-32.8284,M,,*62"
370,0,0.000000,33.433276,"$GPGGA,170937.70,3721.9001086,N,07958.3625503,W,1,08,1.18,360.7781,M,-32.8284,M,,*62"
372,0,0.000000,33.536679,"$GPGGA,170937.80,3721.9001070,N,07958.3625415,W,1,07,1.29,360.6668,M,-32.8284,M,,*68"
373,0,0.000000,33.636337,"$GPGGA,170937.90,3721.9001216,N,07958.3626047,W,1,07,1.29,360.7793,M,-32.8284,M,,*6F"
377,0,0.000000,33.786878,"$GPGGA,170938.00,3721.9001373,N,07958.3626855,W,1,08,1.18,360.9854,M,-32.8284,M,,*67"
379,0,0.000000,33.854634,"$GPGGA,170938.10,3721.9001422,N,07958.3627281,W,1,08,1.18,361.0711,M,-32.8284,M,,*61"
380,0,0.000000,33.932933,"$GPGGA,170938.20,3721.9001414,N,07958.3627601,W,1,08,1.18,361.1060,M,-32.8284,M,,*6B"
383,0,0.000000,34.032855,"$GPGGA,170938.30,3721.9001074,N,07958.3628038,W,1,08,1.18,361.1037,M,-32.8284,M,,*69"
385,0,0.000000,34.132445,"$GPGGA,170938.40,3721.9001121,N,07958.3628209,W,1,08,1.18,361.2113,M,-32.8284,M,,*6B"
387,0,0.000000,34.236079,"$GPGGA,170938.50,3721.9001127,N,07958.3628371,W,1,08,1.18,361.3450,M,-32.8284,M,,*61"
389,0,0.000000,34.336033,"$GPGGA,170938.60,3721.9001046,N,07958.3628611,W,1,08,1.18,361.5006,M,-32.8284,M,,*66"
391,0,0.000000,34.434511,"$GPGGA,170938.70,3721.9000885,N,07958.3628785,W,1,08,1.18,361.4959,M,-32.8284,M,,*6F"
393,0,0.000000,34.533384,"$GPGGA,170938.80,3721.9000727,N,07958.3628952,W,1,08,1.18,361.5337,M,-32.8284,M,,*60"
395,0,0.000000,34.633045,"$GPGGA,170938.90,3721.9000760,N,07958.3629039,W,1,08,1.18,361.5977,M,-32.8284,M,,*69"
398,0,0.000000,34.785591,"$GPGGA,170939.00,3721.9000735,N,07958.3629192,W,1,08,1.18,361.6544,M,-32.8284,M,,*6E"
399,0,0.000000,34.853385,"$GPGGA,170939.10,3721.9000674,N,07958.3629444,W,1,08,1.18,361.7242,M,-32.8284,M,,*65"
400,0,0.000000,34.936637,"$GPGGA,170939.20,3721.9000604,N,07958.3629563,W,1,08,1.18,361.7812,M,-32.8284,M,,*6A"
402,0,0.000000,35.036932,"$GPGGA,170939.30,3721.9000546,N,07958.3629579,W,1,08,1.18,361.7991,M,-32.8284,M,,*6F"
403,0,0.000000,35.135182,"$GPGGA,170939.40,3721.9000430,N,07958.3629994,W,1,08,1.18,361.9296,M,-32.8284,M,,*65"
404,0,0.000000,35.233080,"$GPGGA,170939.50,3721.9000292,N,07958.3630181,W,1,08,1.18,362.0066,M,-32.8284,M,,*69"
404,0,0.000000,35.332420,"$GPGGA,170939.60,3721.9000258,N,07958.3630333,W,1,08,1.18,362.0443,M,-32.8284,M,,*64"
404,0,0.000000,35.432692,"$GPGGA,170939.70,3721.9000216,N,07958.3630524,W,1,08,1.18,362.1045,M,-32.8284,M,,*6C"
404,0,0.000000,35.532138,"$GPGGA,170939.80,3721.8997792,N,07958.3628170,W,1,07,1.25,360.1478,M,-32.8284,M,,*69"
406,0,0.000000,35.632386,"$GPGGA,170939.90,3721.8997891,N,07958.3628406,W,1,07,1.25,360.2360,M,-32.8284,M,,*6D"
406,0,0.000000,35.786539,"$GPGGA,170940.00,3721.9010953,N,07958.3639435,W,1,06,1.45,361.1268,M,-32.8284,M,,*6E"
406,0,0.000000,35.854349,"$GPGGA,170940.10,3721.9010958,N,07958.3639602,W,1,06,1.45,361.2071,M,-32.8284,M,,*6B"
407,0,0.000000,35.933209,"$GPGGA,170940.20,3721.9003958,N,07958.3634002,W,1,07,1.25,360.8337,M,-32.8284,M,,*6C"
409,0,0.000000,36.032841,"$GPGGA,170940.30,3721.9003989,N,07958.3634339,W,1,07,1.25,360.9307,M,-32.8284,M,,*68"
410,0,0.000000,36.132846,"$GPGGA,170940.40,3721.9010530,N,07958.3640234,W,1,06,1.45,361.4150,M,-32.8284,M,,*67"
412,0,0.000000,36.233104,"$GPGGA,170940.50,3721.9010305,N,07958.3640416,W,1,06,1.45,361.4079,M,-32.8284,M,,*6A"
414,0,0.000000,36.332760,"$GPGGA,170940.60,3721.9010106,N,07958.3640697,W,1,06,1.45,361.4781,M,-32.8284,M,,*63"
416,0,0.000000,36.436065,"$GPGGA,170940.70,3721.9009930,N,07958.3640900,W,1,06,1.45,361.5925,M,-32.8284,M,,*67"
418,0,0.000000,36.534919,"$GPGGA,170940.80,3721.9009916,N,07958.3641024,W,1,06,1.45,361.6835,M,-32.8284,M,,*61"
420,0,0.000000,36.632920,"$GPGGA,170940.90,3721.8996335,N,07958.3629855,W,1,07,1.25,360.8949,M,-32.8284,M,,*67"
423,0,0.000000,36.782699,"$GPGGA,170941.00,3721.8990125,N,07958.3624606,W,1,06,1.79,357.8269,M,-32.8284,M,,*6A"
424,0,0.000000,36.850500,"$GPGGA,170941.10,3721.8993873,N,07958.3628185,W,1,07,1.25,359.9564,M,-32.8284,M,,*6F"
427,0,0.000000,36.932508,"$GPGGA,170941.20,3721.8990149,N,07958.3624892,W,1,06,1.79,358.0227,M,-32.8284,M,,*6C"
428,0,0.000000,37.033338,"$GPGGA,170941.30,3721.9004873,N,07958.3637803,W,1,06,1.45,360.9157,M,-32.8284,M,,*6B"
429,0,0.000000,37.135914,"$GPGGA,170941.40,3721.9004877,N,07958.3637816,W,1,06,1.45,361.0079,M,-32.8284,M,,*69"
430,0,0.000000,37.234854,"$GPGGA,170941.50,3721.9004802,N,07958.3637875,W,1,06,1.45,361.0272,M,-32.8284,M,,*66"
432,0,0.000000,37.335767,"$GPGGA,170941.60,3721.9004631,N,07958.3637976,W,1,06,1.45,361.0378,M,-32.8284,M,,*62"
434,0,0.000000,37.433141,"$GPGGA,170941.70,3721.9004605,N,07958.3638230,W,1,06,1.45,361.1136,M,-32.8284,M,,*6B"
437,0,0.000000,37.532654,"$GPGGA,170941.80,3721.9004510,N,07958.3638477,W,1,06,1.45,361.1321,M,-32.8284,M,,*62"
441,0,0.000000,37.632897,"$GPGGA,170941.90,3721.9004469,N,07958.3638737,W,1,06,1.45,361.1664,M,-32.8284,M,,*6F"
446,0,0.000000,37.783909,"$GPGGA,170942.00,3721.8992703,N,07958.3629438,W,1,07,1.25,360.3782,M,-32.8284,M,,*6C"
448,0,0.000000,37.851683,"$GPGGA,170942.10,3721.8992370,N,07958.3629568,W,1,07,1.25,360.4381,M,-32.8284,M,,*69"
450,0,0.000000,37.937204,"$GPGGA,170942.20,3721.8992031,N,07958.3629719,W,1,07,1.25,360.3975,M,-32.8284,M,,*6E"
452,0,0.000000,38.032789,"$GPGGA,170942.30,3721.8991335,N,07958.3629408,W,1,07,1.25,360.3957,M,-32.8284,M,,*68"
455,0,0.000000,38.132633,"$GPGGA,170942.40,3721.8990843,N,07958.3629651,W,1,07,1.25,360.3270,M,-32.8284,M,,*64"
457,0,0.000000,38.232119,"$GPGGA,170942.50,3721.8990685,N,07958.3629755,W,1,07,1.25,360.3483,M,-32.8284,M,,*6E"
457,0,0.000000,38.334944,"$GPGGA,170942.60,3721.8990450,N,07958.3629882,W,1,06,1.44,360.3787,M,-32.8284,M,,*63"
459,0,0.000000,38.439808,"$GPGGA,170942.70,3721.8990057,N,07958.3630395,W,1,07,1.25,360.4012,M,-32.8284,M,,*6E"
460,0,0.000000,38.539843,"$GPGGA,170942.80,3721.8989928,N,07958.3630362,W,1,07,1.25,360.4352,M,-32.8284,M,,*67"
461,0,0.000000,38.635081,"$GPGGA,170942.90,3721.8992854,N,07958.3633495,W,1,08,1.18,363.0351,M,-32.8284,M,,*6F"
464,0,0.000000,38.785609,"$GPGGA,170943.00,3721.8992720,N,07958.3633563,W,1,08,1.18,363.0760,M,-32.8284,M,,*65"
466,0,0.000000,38.853381,"$GPGGA,170943.10,3721.8992674,N,07958.3633696,W,1,08,1.18,363.1237,M,-32.8284,M,,*6B"
468,0,0.000000,38.932823,"$GPGGA,170943.20,3721.8992578,N,07958.3633811,W,1,08,1.18,363.1479,M,-32.8284,M,,*6A"
471,0,0.000000,39.033064,"$GPGGA,170943.30,3721.8992266,N,07958.3634134,W,1,08,1.18,363.1319,M,-32.8284,M,,*6B"
473,0,0.000000,39.132994,"$GPGGA,170943.40,3721.9007715,N,07958.3629615,W,1,07,1.40,369.4713,M,-32.8284,M,,*62"
476,0,0.000000,39.236661,"$GPGGA,170943.50,3721.8985542,N,07958.3636395,W,1,08,1.18,360.6601,M,-32.8284,M,,*69"
477,0,0.000000,39.335637,"$GPGGA,170943.60,3721.8985250,N,07958.3636673,W,1,08,1.18,360.6248,M,-32.8284,M,,*6A"
478,0,0.000000,39.432857,"$GPGGA,170943.70,3721.8984664,N,07958.3636969,W,1,08,1.18,360.5020,M,-32.8284,M,,*62"
479,0,0.000000,39.532456,"$GPGGA,170943.80,3721.8984543,N,07958.3637002,W,1,08,1.18,360.5161,M,-32.8284,M,,*6A"
482,0,0.000000,39.632560,"$GPGGA,170943.90,3721.8984449,N,07958.3637199,W,1,08,1.18,360.5129,M,-32.8284,M,,*6F"
484,0,0.000000,39.784417,"$GPGGA,170944.00,3721.8984287,N,07958.3637315,W,1,08,1.18,360.5183,M,-32.8284,M,,*63"
485,0,0.000000,39.852199,"$GPGGA,170944.10,3721.8984045,N,07958.3637350,W,1,08,1.18,360.5057,M,-32.8284,M,,*67"
487,0,0.000000,39.935908,"$GPGGA,170944.20,3721.8983866,N,07958.3637474,W,1,08,1.18,360.5081,M,-32.8284,M,,*60"
489,0,0.000000,40.035480,"$GPGGA,170944.30,3721.8983607,N,07958.3637527,W,1,08,1.18,360.4418,M,-32.8284,M,,*6A"
491,0,0.000000,40.133983,"$GPGGA,170944.40,3721.8983496,N,07958.3637678,W,1,08,1.18,360.4667,M,-32.8284,M,,*64"
494,0,0.000000,40.233130,"$GPGGA,170944.50,3721.8983523,N,07958.3637929,W,1,08,1.18,360.5090,M,-32.8284,M,,*6E"
497,0,0.000000,40.333314,"$GPGGA,170944.60,3721.8983471,N,07958.3638012,W,1,08,1.18,360.5416,M,-32.8284,M,,*6F"
499,0,0.000000,40.432819,"$GPGGA,170944.70,3721.8983345,N,07958.3637866,W,1,08,1.18,360.5983,M,-32.8284,M,,*6B"
501,0,0.000000,40.533075,"$GPGGA,170944.80,3721.8983339,N,07958.3638140,W,1,08,1.18,360.6097,M,-32.8284,M,,*62"
503,0,0.000000,40.635918,"$GPGGA,170944.90,3721.8983356,N,07958.3638546,W,1,08,1.18,360.7290,M,-32.8284,M,,*6C"
506,0,0.000000,40.787711,"$GPGGA,170945.00,3721.8983244,N,07958.3638591,W,1,08,1.18,360.7529,M,-32.8284,M,,*69"
508,0,0.000000,40.858838,"$GPGGA,170945.10,3721.8983183,N,07958.3638564,W,1,08,1.18,360.7893,M,-32.8284,M,,*66"
508,0,0.000000,40.932267,"$GPGGA,170945.20,3721.8983065,N,07958.3638634,W,1,08,1.18,360.7878,M,-32.8284,M,,*6F"
509,0,0.000000,41.032532,"$GPGGA,170945.30,3721.8983049,N,07958.3638795,W,1,08,1.18,360.8177,M,-32.8284,M,,*63"
510,0,0.000000,41.132072,"$GPGGA,170945.40,3721.8983072,N,07958.3638934,W,1,08,1.18,360.8701,M,-32.8284,M,,*6E"
512,0,0.000000,41.232948,"$GPGGA,170945.50,3721.8983057,N,07958.3638949,W,1,08,1.18,360.9026,M,-32.8284,M,,*61"
514,0,0.000000,41.336013,"$GPGGA,170945.60,3721.8983052,N,07958.3638918,W,1,08,1.18,360.9743,M,-32.8284,M,,*67"
516,0,0.000000,41.435451,"$GPGGA,170945.70,3721.8983104,N,07958.3639006,W,1,08,1.18,361.0315,M,-32.8284,M,,*6C"
518,0,0.000000,41.533124,"$GPGGA,170945.80,3721.8983079,N,07958.3638593,W,1,07,1.29,360.9612,M,-32.8284,M,,*67"
520,0,0.000000,41.632663,"$GPGGA,170945.90,3721.8983143,N,07958.3638555,W,1,07,1.29,361.0613,M,-32.8284,M,,*6D"
522,0,0.000000,41.783933,"$GPGGA,170946.00,3721.8983045,N,07958.3638636,W,1,07,1.29,361.1291,M,-32.8284,M,,*69"
523,0,0.000000,41.851783,"$GPGGA,170946.10,3721.8983078,N,07958.3638760,W,1,07,1.29,361.1776,M,-32.8284,M,,*68"
524,0,0.000000,41.934295,"$GPGGA,170946.20,3721.8983118,N,07958.3638799,W,1,07,1.29,361.2047,M,-32.8284,M,,*6C"
526,0,0.000000,42.036233,"$GPGGA,170946.30,3721.8983135,N,07958.3638846,W,1,07,1.29,361.2114,M,-32.8284,M,,*68"
527,0,0.000000,42.135592,"$GPGGA,170946.40,3721.8983121,N,07958.3638781,W,1,07,1.29,361.2352,M,-32.8284,M,,*6E"
528,0,0.000000,42.233123,"$GPGGA,170946.50,3721.8982291,N,07958.3638504,W,1,08,1.23,361.0355,M,-32.8284,M,,*69"
530,0,0.000000,42.331942,"$GPGGA,170946.60,3721.8982523,N,07958.3638693,W,1,08,1.23,361.1015,M,-32.8284,M,,*6F"
531,0,0.000000,42.432207,"$GPGGA,170946.70,3721.8982730,N,07958.3638871,W,1,08,1.23,361.2024,M,-32.8284,M,,*6D"
532,0,0.000000,42.533200,"$GPGGA,170946.80,3721.8982863,N,07958.3639039,W,1,08,1.23,361.2991,M,-32.8284,M,,*69"
534,0,0.000000,42.632742,"$GPGGA,170946.90,3721.8982952,N,07958.3639205,W,1,08,1.23,361.3281,M,-32.8284,M,,*6D"
537,0,0.000000,42.788462,"$GPGGA,170947.00,3721.8983107,N,07958.3639289,W,1,08,1.23,361.3889,M,-32.8284,M,,*6A"
539,0,0.000000,42.866411,"$GPGGA,170947.10,3721.8983002,N,07958.3639399,W,1,08,1.23,361.3706,M,-32.8284,M,,*67"
540,0,0.000000,42.932896,"$GPGGA,170947.20,3721.8982944,N,07958.3639488,W,1,08,1.23,361.3796,M,-32.8284,M,,*60"
541,0,0.000000,43.033115,"$GPGGA,170947.30,3721.8982911,N,07958.3639632,W,1,08,1.23,361.3890,M,-32.8284,M,,*6B"
543,0,0.000000,43.132732,"$GPGGA,170947.40,3721.8982904,N,07958.3639759,W,1,08,1.23,361.3972,M,-32.8284,M,,*69"
544,0,0.000000,43.232776,"$GPGGA,170947.50,3721.8982836,N,07958.3639779,W,1,08,1.23,361.3866,M,-32.8284,M,,*6E"
546,0,0.000000,43.332501,"$GPGGA,170947.60,3721.8982681,N,07958.3639758,W,1,08,1.23,361.3825,M,-32.8284,M,,*6B"
548,0,0.000000,43.435801,"$GPGGA,170947.70,3721.8982170,N,07958.3638064,W,1,09,1.12,359.8143,M,-32.8284,M,,*60"
550,0,0.000000,43.535751,"$GPGGA,170947.80,3721.8982002,N,07958.3638000,W,1,09,1.12,359.7871,M,-32.8284,M,,*6E"
551,0,0.000000,43.633688,"$GPGGA,170947.90,3721.8981934,N,07958.3637948,W,1,09,1.12,359.7873,M,-32.8284,M,,*68"
553,0,0.000000,43.795549,"$GPGGA,170948.00,3721.8982023,N,07958.3638047,W,1,09,1.12,359.8016,M,-32.8284,M,,*6F"
554,0,0.000000,43.853569,"$GPGGA,170948.10,3721.8982061,N,07958.3638221,W,1,09,1.12,359.8198,M,-32.8284,M,,*6D"
556,0,0.000000,43.945394,"$GPGGA,170948.20,3721.8982012,N,07958.3638354,W,1,09,1.12,359.8210,M,-32.8284,M,,*6A"
558,0,0.000000,44.033503,"$GPGGA,170948.30,3721.8981955,N,07958.3638358,W,1,09,1.12,359.8274,M,-32.8284,M,,*6C"
559,0,0.000000,44.135893,"$GPGGA,170948.40,3721.8981783,N,07958.3638428,W,1,09,1.12,359.8293,M,-32.8284,M,,*67"
560,0,0.000000,44.235822,"$GPGGA,170948.50,3721.8981691,N,07958.3638645,W,1,09,1.12,359.8950,M,-32.8284,M,,*69"
561,0,0.000000,44.333778,"$GPGGA,170948.60,3721.8981762,N,07958.3638683,W,1,09,1.12,359.9126,M,-32.8284,M,,*65"
562,0,0.000000,44.433009,"$GPGGA,170948.70,3721.8981785,N,07958.3638764,W,1,09,1.12,359.9377,M,-32.8284,M,,*63"
564,0,0.000000,44.532714,"$GPGGA,170948.80,3721.8981725,N,07958.3638634,W,1,09,1.12,359.9603,M,-32.8284,M,,*64"
566,0,0.000000,44.632893,"$GPGGA,170948.90,3721.8981660,N,07958.3638592,W,1,09,1.12,359.9804,M,-32.8284,M,,*63"
568,0,0.000000,44.787506,"$GPGGA,170949.00,3721.8981614,N,07958.3638736,W,1,09,1.12,359.9931,M,-32.8284,M,,*63"
569,0,0.000000,44.854072,"$GPGGA,170949.10,3721.8981483,N,07958.3638848,W,1,09,1.12,359.9718,M,-32.8284,M,,*6D"
570,0,0.000000,44.935877,"$GPGGA,170949.20,3721.8981376,N,07958.3638746,W,1,09,1.12,359.9596,M,-32.8284,M,,*66"
571,0,0.000000,45.034129,"$GPGGA,170949.30,3721.8981369,N,07958.3638635,W,1,09,1.12,359.9777,M,-32.8284,M,,*61"
571,0,0.000000,45.132325,"$GPGGA,170949.40,3721.8981451,N,07958.3638665,W,1,09,1.12,359.9855,M,-32.8284,M,,*60"
572,0,0.000000,45.233124,"$GPGGA,170949.50,3721.8981451,N,07958.3638672,W,1,09,1.12,359.9838,M,-32.8284,M,,*6C"
574,0,0.000000,45.332873,"$GPGGA,170949.60,3721.8981457,N,07958.3638683,W,1,09,1.12,359.9683,M,-32.8284,M,,*69"
575,0,0.000000,45.433139,"$GPGGA,170949.70,3721.8981399,N,07958.3638661,W,1,09,1.12,359.9567,M,-32.8284,M,,*68"
577,0,0.000000,45.535522,"$GPGGA,170949.80,3721.8981416,N,07958.3638641,W,1,09,1.12,359.9630,M,-32.8284,M,,*64"
578,0,0.000000,45.636350,"$GPGGA,170949.90,3721.8981383,N,07958.3638627,W,1,09,1.12,359.9509,M,-32.8284,M,,*67"
582,0,0.000000,45.787063,"$GPGGA,170950.00,3721.8981388,N,07958.3638590,W,1,09,1.12,359.9487,M,-32.8284,M,,*65"
584,0,0.000000,45.855395,"$GPGGA,170950.10,3721.8981332,N,07958.3638606,W,1,09,1.12,359.9275,M,-32.8284,M,,*62"
585,0,0.000000,45.933004,"$GPGGA,170950.20,3721.8981192,N,07958.3638480,W,1,09,1.12,359.9108,M,-32.8284,M,,*6C"
587,0,0.000000,46.032574,"$GPGGA,170950.30,3721.8981140,N,07958.3638459,W,1,09,1.12,359.8956,M,-32.8284,M,,*64"
589,0,0.000000,46.134245,"$GPGGA,170950.40,3721.8981015,N,07958.3638670,W,1,09,1.12,359.8539,M,-32.8284,M,,*6E"
590,0,0.000000,46.245439,"$GPGGA,170950.50,3721.8980869,N,07958.3638668,W,1,09,1.12,359.8429,M,-32.8284,M,,*64"
590,0,0.000000,46.335963,"$GPGGA,170950.60,3721.8980757,N,07958.3638587,W,1,09,1.12,359.7985,M,-32.8284,M,,*63"
591,0,0.000000,46.434280,"$GPGGA,170950.70,3721.8980756,N,07958.3638469,W,1,09,1.12,359.7661,M,-32.8284,M,,*67"
592,0,0.000000,46.532295,"$GPGGA,170950.80,3721.8980616,N,07958.3638406,W,1,09,1.12,359.7250,M,-32.8284,M,,*62"
593,0,0.000000,46.635904,"$GPGGA,170950.90,3721.8980548,N,07958.3638354,W,1,09,1.12,359.6825,M,-32.8284,M,,*62"
596,0,0.000000,46.785993,"$GPGGA,170951.00,3721.8980503,N,07958.3638198,W,1,09,1.12,359.6629,M,-32.8284,M,,*65"
598,0,0.000000,46.853773,"$GPGGA,170951.10,3721.8980429,N,07958.3638190,W,1,09,1.12,359.6306,M,-32.8284,M,,*6D"
599,0,0.000000,46.935703,"$GPGGA,170951.20,3721.8980276,N,07958.3638275,W,1,09,1.12,359.6242,M,-32.8284,M,,*6B"
601,0,0.000000,47.036215,"$GPGGA,170951.30,3721.8980152,N,07958.3638282,W,1,09,1.12,359.5812,M,-32.8284,M,,*6B"
603,0,0.000000,47.133783,"$GPGGA,170951.40,3721.8980081,N,07958.3638308,W,1,09,1.12,359.5413,M,-32.8284,M,,*6D"
604,0,0.000000,47.235093,"$GPGGA,170951.50,3721.8979953,N,07958.3638375,W,1,09,1.12,359.4972,M,-32.8284,M,,*6D"
606,0,0.000000,47.332920,"$GPGGA,170951.60,3721.8979877,N,07958.3638502,W,1,09,1.12,359.5806,M,-32.8284,M,,*6C"
607,0,0.000000,47.432448,"$GPGGA,170951.70,3721.8979809,N,07958.3638420,W,1,09,1.12,359.4903,M,-32.8284,M,,*60"
609,0,0.000000,47.532499,"$GPGGA,170951.80,3721.8979725,N,07958.3638331,W,1,09,1.12,359.4263,M,-32.8284,M,,*64"
610,0,0.000000,47.636046,"$GPGGA,170951.90,3721.8979601,N,07958.3638256,W,1,09,1.12,359.3617,M,-32.8284,M,,*62"
612,0,0.000000,47.790134,"$GPGGA,170952.00,3721.8979671,N,07958.3639008,W,1,10,1.00,359.1794,M,-32.8284,M,,*64"
613,0,0.000000,47.857957,"$GPGGA,170952.10,3721.8979588,N,07958.3639002,W,1,10,1.00,359.1464,M,-32.8284,M,,*66"
613,0,0.000000,47.932062,"$GPGGA,170952.20,3721.8979538,N,07958.3638953,W,1,10,1.00,359.1356,M,-32.8284,M,,*64"
615,0,0.000000,48.032956,"$GPGGA,170952.30,3721.8979508,N,07958.3638934,W,1,10,1.00,359.0821,M,-32.8284,M,,*6D"
616,0,0.000000,48.133161,"$GPGGA,170952.40,3721.8979456,N,07958.3638936,W,1,10,1.00,359.0265,M,-32.8284,M,,*68"
618,0,0.000000,48.232836,"$GPGGA,170952.50,3721.8979424,N,07958.3638956,W,1,10,1.00,358.9730,M,-32.8284,M,,*67"
621,0,0.000000,48.336339,"$GPGGA,170952.60,3721.8977051,N,07958.3638062,W,1,09,1.41,358.4412,M,-32.8284,M,,*61"
624,0,0.000000,48.436470,"$GPGGA,170952.70,3721.8977034,N,07958.3638411,W,1,09,1.41,358.6235,M,-32.8284,M,,*62"
627,0,0.000000,48.533970,"$GPGGA,170952.80,3721.8976746,N,07958.3638483,W,1,09,1.41,358.4757,M,-32.8284,M,,*66"
629,0,0.000000,48.632951,"$GPGGA,170952.90,3721.8976565,N,07958.3638392,W,1,09,1.41,358.4387,M,-32.8284,M,,*6A"
633,0,0.000000,48.785936,"$GPGGA,170953.00,3721.8976467,N,07958.3638533,W,1,09,1.41,358.4153,M,-32.8284,M,,*67"
635,0,0.000000,48.853686,"$GPGGA,170953.10,3721.8976423,N,07958.3638605,W,1,09,1.41,358.3704,M,-32.8284,M,,*63"
637,0,0.000000,48.932116,"$GPGGA,170953.20,3721.8976348,N,07958.3638645,W,1,09,1.41,358.3484,M,-32.8284,M,,*65"
639,0,0.000000,49.035696,"$GPGGA,170953.30,3721.8976266,N,07958.3638707,W,1,09,1.41,358.3134,M,-32.8284,M,,*60"
640,0,0.000000,49.135588,"$GPGGA,170953.40,3721.8976074,N,07958.3638452,W,1,09,1.41,358.2980,M,-32.8284,M,,*63"
642,0,0.000000,49.233999,"$GPGGA,170953.50,3721.8976057,N,07958.3638461,W,1,09,1.41,358.3132,M,-32.8284,M,,*63"
643,0,0.000000,49.333061,"$GPGGA,170953.60,3721.8976013,N,07958.3638446,W,1,09,1.41,358.3038,M,-32.8284,M,,*6E"
644,0,0.000000,49.432708,"$GPGGA,170953.70,3721.8976057,N,07958.3638462,W,1,09,1.41,358.2996,M,-32.8284,M,,*65"
644,0,0.000000,49.532972,"$GPGGA,170953.80,3721.8976076,N,07958.3638427,W,1,09,1.41,358.2814,M,-32.8284,M,,*63"
644,0,0.000000,49.632423,"$GPGGA,170953.90,3721.8976061,N,07958.3638357,W,1,09,1.41,358.2605,M,-32.8284,M,,*6A"
644,0,0.000000,49.788653,"$GPGGA,170954.00,3721.8976086,N,07958.3638340,W,1,09,1.41,358.2356,M,-32.8284,M,,*68"
646,0,0.000000,49.856420,"$GPGGA,170954.10,3721.8976131,N,07958.3638380,W,1,09,1.41,358.2125,M,-32.8284,M,,*6E"
646,0,0.000000,49.934522,"$GPGGA,170954.20,3721.8976062,N,07958.3638388,W,1,09,1.41,358.1906,M,-32.8284,M,,*68"
646,0,0.000000,50.032992,"$GPGGA,170954.30,3721.8976053,N,07958.3638382,W,1,09,1.41,358.1607,M,-32.8284,M,,*6F"
646,0,0.000000,50.145448,"$GPGGA,170954.40,3721.8976039,N,07958.3638310,W,1,09,1.41,358.1481,M,-32.8284,M,,*63"
647,0,0.000000,50.235469,"$GPGGA,170954.50,3721.8976028,N,07958.3638256,W,1,09,1.41,358.1320,M,-32.8284,M,,*6D"
648,0,0.000000,50.332495,"$GPGGA,170954.60,3721.8976000,N,07958.3638235,W,1,09,1.41,358.1170,M,-32.8284,M,,*66"
649,0,0.000000,50.432198,"$GPGGA,170954.70,3721.8975940,N,07958.3638202,W,1,09,1.41,358.1032,M,-32.8284,M,,*6A"
651,0,0.000000,50.536007,"$GPGGA,170954.80,3721.8975896,N,07958.3638168,W,1,09,1.41,358.1056,M,-32.8284,M,,*62"
653,0,0.000000,50.634048,"$GPGGA,170954.90,3721.8975758,N,07958.3638172,W,1,09,1.41,358.1017,M,-32.8284,M,,*60"
658,0,0.000000,50.786384,"$GPGGA,170955.00,3721.8975514,N,07958.3638314,W,1,09,1.41,358.0394,M,-32.8284,M,,*69"
660,0,0.000000,50.854236,"$GPGGA,170955.10,3721.8975339,N,07958.3638283,W,1,09,1.41,358.0141,M,-32.8284,M,,*64"
662,0,0.000000,50.932736,"$GPGGA,170955.20,3721.8975106,N,07958.3638270,W,1,09,1.41,357.9545,M,-32.8284,M,,*63"
665,0,0.000000,51.033530,"$GPGGA,170955.30,3721.8974805,N,07958.3638185,W,1,09,1.41,357.7684,M,-32.8284,M,,*60"
668,0,0.000000,51.136023,"$GPGGA,170955.40,3721.8974651,N,07958.3638115,W,1,09,1.41,357.7381,M,-32.8284,M,,*61"
670,0,0.000000,51.236802,"$GPGGA,170955.50,3721.8974480,N,07958.3638062,W,1,09,1.41,357.7343,M,-32.8284,M,,*61"
671,0,0.000000,51.334522,"$GPGGA,170955.60,3721.8974369,N,07958.3638077,W,1,09,1.41,357.7441,M,-32.8284,M,,*63"
673,0,0.000000,51.435818,"$GPGGA,170955.70,3721.8974334,N,07958.3638069,W,1,09,1.41,357.7606,M,-32.8284,M,,*64"
674,0,0.000000,51.532824,"$GPGGA,170955.80,3721.8974296,N,07958.3638152,W,1,09,1.41,357.7790,M,-32.8284,M,,*65"
676,0,0.000000,51.637918,"$GPGGA,170955.90,3721.8974204,N,07958.3638212,W,1,09,1.41,357.7943,M,-32.8284,M,,*68"
678,0,0.000000,51.786021,"$GPGGA,170956.00,3721.8974005,N,07958.3638186,W,1,09,1.41,357.7711,M,-32.8284,M,,*66"
679,0,0.000000,51.853621,"$GPGGA,170956.10,3721.8973824,N,07958.3638242,W,1,09,1.41,357.7619,M,-32.8284,M,,*69"
680,0,0.000000,51.936685,"$GPGGA,170956.20,3721.8973742,N,07958.3638281,W,1,09,1.41,357.7670,M,-32.8284,M,,*65"
681,0,0.000000,52.034729,"$GPGGA,170956.30,3721.8973701,N,07958.3638367,W,1,09,1.41,357.7856,M,-32.8284,M,,*60"
683,0,0.000000,52.133055,"$GPGGA,170956.40,3721.8973622,N,07958.3638528,W,1,09,1.41,357.8395,M,-32.8284,M,,*61"
684,0,0.000000,52.233000,"$GPGGA,170956.50,3721.8973444,N,07958.3638571,W,1,09,1.41,357.8460,M,-32.8284,M,,*63"
686,0,0.000000,52.332575,"$GPGGA,170956.60,3721.8973289,N,07958.3638673,W,1,09,1.41,357.9004,M,-32.8284,M,,*61"
688,0,0.000000,52.432818,"$GPGGA,170956.70,3721.8973221,N,07958.3638787,W,1,09,1.41,357.9399,M,-32.8284,M,,*6F"
689,0,0.000000,52.532271,"$GPGGA,170956.80,3721.8973076,N,07958.3638580,W,1,08,1.53,357.9998,M,-32.8284,M,,*6C"
690,0,0.000000,52.635933,"$GPGGA,170956.90,3721.8972704,N,07958.3638400,W,1,08,1.53,358.0058,M,-32.8284,M,,*64"
692,0,0.000000,52.787274,"$GPGGA,170957.00,3721.8972544,N,07958.3638413,W,1,08,1.53,358.0650,M,-32.8284,M,,*66"
692,0,0.000000,52.854345,"$GPGGA,170957.10,3721.8972235,N,07958.3638292,W,1,08,1.53,357.9960,M,-32.8284,M,,*63"
694,0,0.000000,52.932142,"$GPGGA,170957.20,3721.8972066,N,07958.3638107,W,1,08,1.53,357.8727,M,-32.8284,M,,*67"
696,0,0.000000,53.032332,"$GPGGA,170957.30,3721.8971782,N,07958.3637924,W,1,08,1.53,357.8052,M,-32.8284,M,,*6B"
698,0,0.000000,53.132148,"$GPGGA,170957.40,3721.8971635,N,07958.3637890,W,1,08,1.53,357.7576,M,-32.8284,M,,*63"
701,0,0.000000,53.232375,"$GPGGA,170957.50,3721.8971436,N,07958.3637818,W,1,08,1.53,357.7171,M,-32.8284,M,,*60"
702,0,0.000000,53.336019,"$GPGGA,170957.60,3721.8971101,N,07958.3637657,W,1,08,1.53,357.6899,M,-32.8284,M,,*69"
704,0,0.000000,53.434360,"$GPGGA,170957.70,3721.8970797,N,07958.3637602,W,1,08,1.53,357.6818,M,-32.8284,M,,*69"
705,0,0.000000,53.532296,"$GPGGA,170957.80,3721.8970570,N,07958.3637585,W,1,08,1.53,357.6211,M,-32.8284,M,,*62"
707,0,0.000000,53.632615,"$GPGGA,170957.90,3721.8970104,N,07958.3637359,W,1,08,1.53,357.5615,M,-32.8284,M,,*60"
710,0,0.000000,53.792915,"$GPGGA,170958.00,3721.8969800,N,07958.3637193,W,1,08,1.53,357.4709,M,-32.8284,M,,*6A"
711,0,0.000000,53.852744,"$GPGGA,170958.10,3721.8970896,N,07958.3640295,W,1,07,1.56,360.1853,M,-32.8284,M,,*62"
712,0,0.000000,53.936619,"$GPGGA,170958.20,3721.8969307,N,07958.3636831,W,1,08,1.53,357.1939,M,-32.8284,M,,*6C"
713,0,0.000000,54.035862,"$GPGGA,170958.30,3721.8968748,N,07958.3636276,W,1,08,1.53,356.9408,M,-32.8284,M,,*6C"
714,0,0.000000,54.135297,"$GPGGA,170958.40,3721.8968556,N,07958.3635987,W,1,08,1.53,356.6304,M,-32.8284,M,,*64"
715,0,0.000000,54.232285,"$GPGGA,170958.50,3721.8968351,N,07958.3635754,W,1,08,1.53,356.3893,M,-32.8284,M,,*64"
717,0,0.000000,54.331963,"$GPGGA,170958.60,3721.8968148,N,07958.3635491,W,1,08,1.53,356.1522,M,-32.8284,M,,*62"
719,0,0.000000,54.431963,"$GPGGA,170958.70,3721.8967826,N,07958.3635150,W,1,08,1.53,355.8411,M,-32.8284,M,,*6E"
720,0,0.000000,54.531858,"$GPGGA,170958.80,3721.8967471,N,07958.3634859,W,1,08,1.53,355.5531,M,-32.8284,M,,*60"
722,0,0.000000,54.632104,"$GPGGA,170958.90,3721.8967229,N,07958.3634738,W,1,08,1.53,355.3625,M,-32.8284,M,,*62"
725,0,0.000000,54.787640,"$GPGGA,170959.00,3721.8966983,N,07958.3634763,W,1,08,1.53,355.3103,M,-32.8284,M,,*6D"
726,0,0.000000,54.855385,"$GPGGA,170959.10,3721.8966474,N,07958.3634520,W,1,08,1.53,355.2419,M,-32.8284,M,,*63"
727,0,0.000000,54.933072,"$GPGGA,170959.20,3721.8966334,N,07958.3634520,W,1,08,1.53,355.2045,M,-32.8284,M,,*6E"
729,0,0.000000,55.032473,"$GPGGA,170959.30,3721.8966222,N,07958.3634589,W,1,08,1.53,355.1855,M,-32.8284,M,,*60"
730,0,0.000000,55.132806,"$GPGGA,170959.40,3721.8966484,N,07958.3634959,W,1,08,1.53,355.1803,M,-32.8284,M,,*6F"
732,0,0.000000,55.232367,"$GPGGA,170959.50,3721.8966406,N,07958.3634987,W,1,08,1.53,355.1401,M,-32.8284,M,,*69"
734,0,0.000000,55.332718,"$GPGGA,170959.60,3721.8966296,N,07958.3635005,W,1,08,1.53,355.1011,M,-32.8284,M,,*62"
735,0,0.000000,55.436876,"$GPGGA,170959.70,3721.8966218,N,07958.3635083,W,1,08,1.53,355.0834,M,-32.8284,M,,*65"
737,0,0.000000,55.535510,"$GPGGA,170959.80,3721.8966143,N,07958.3634955,W,1,08,1.53,355.0744,M,-32.8284,M,,*6C"
739,0,0.000000,55.632687,"$GPGGA,170959.90,3721.8966509,N,07958.3635296,W,1,08,1.53,355.0987,M,-32.8284,M,,*63"
741,0,0.000000,55.784584,"$GPGGA,171000.00,3721.8966385,N,07958.3635339,W,1,08,1.53,355.0906,M,-32.8284,M,,*61"
742,0,0.000000,55.852389,"$GPGGA,171000.10,3721.8966240,N,07958.3635358,W,1,08,1.53,355.0908,M,-32.8284,M,,*61"
743,0,0.000000,55.931666,"$GPGGA,171000.20,3721.8965853,N,07958.3635258,W,1,08,1.53,355.1382,M,-32.8284,M,,*61"
743,0,0.000000,56.031927,"$GPGGA,171000.30,3721.8965496,N,07958.3635075,W,1,08,1.53,355.1315,M,-32.8284,M,,*66"
745,0,0.000000,56.137708,"$GPGGA,171000.40,3721.8965351,N,07958.3635045,W,1,08,1.53,355.1461,M,-32.8284,M,,*6A"
746,0,0.000000,56.235115,"$GPGGA,171000.50,3721.8965033,N,07958.3635073,W,1,08,1.53,355.1006,M,-32.8284,M,,*6C"
748,0,0.000000,56.332785,"$GPGGA,171000.60,3721.8964803,N,07958.3634994,W,1,08,1.53,355.1323,M,-32.8284,M,,*60"
750,0,0.000000,56.432363,"$GPGGA,171000.70,3721.8964495,N,07958.3634860,W,1,08,1.53,355.1297,M,-32.8284,M,,*66"
751,0,0.000000,56.532643,"$GPGGA,171000.80,3721.8964298,N,07958.3634751,W,1,08,1.53,355.1341,M,-32.8284,M,,*65"
753,0,0.000000,56.632901,"$GPGGA,171000.90,3721.8964081,N,07958.3634641,W,1,08,1.53,355.1463,M,-32.8284,M,,*69"
756,0,0.000000,56.784760,"$GPGGA,171001.00,3721.8963814,N,07958.3634702,W,1,08,1.53,355.1333,M,-32.8284,M,,*66"
757,0,0.000000,56.852546,"$GPGGA,171001.10,3721.8963584,N,07958.3634720,W,1,08,1.53,355.1578,M,-32.8284,M,,*6A"
758,0,0.000000,56.935542,"$GPGGA,171001.20,3721.8963332,N,07958.3634665,W,1,08,1.53,355.2129,M,-32.8284,M,,*61"
759,0,0.000000,57.032635,"$GPGGA,171001.30,3721.8963105,N,07958.3634589,W,1,08,1.53,355.2261,M,-32.8284,M,,*68"
761,0,0.000000,57.131785,"$GPGGA,171001.40,3721.8962921,N,07958.3634573,W,1,08,1.53,355.2449,M,-32.8284,M,,*69"
762,0,0.000000,57.232026,"$GPGGA,171001.50,3721.8962747,N,07958.3634468,W,1,08,1.53,355.2360,M,-32.8284,M,,*61"
763,0,0.000000,57.332146,"$GPGGA,171001.60,3721.8962595,N,07958.3634402,W,1,08,1.53,355.2445,M,-32.8284,M,,*63"
765,0,0.000000,57.431683,"$GPGGA,171001.70,3721.8962395,N,07958.3634380,W,1,08,1.53,355.2354,M,-32.8284,M,,*6E"
766,0,0.000000,57.535229,"$GPGGA,171001.80,3721.8962185,N,07958.3634376,W,1,08,1.53,355.2296,M,-32.8284,M,,*64"
767,0,0.000000,57.634989,"$GPGGA,171001.90,3721.8961997,N,07958.3634299,W,1,08,1.53,355.2223,M,-32.8284,M,,*63"
