;GPS@@@
;Ver=1.1.0
;DIP=2009-00152-00
;Date=2026-Jan-12 11:42:04
;----------------------------------------------------------------------------------------------------------------------------------------------------------------------------------------
traces,odo_tick,pos(m),time_elapsed(s),GPS
2,0,0.000000,3.595469,"$GPGGA,172210.90,3721.8919125,N,07958.3579070,W,2,04,1.99,364.5066,M,-32.8284,M,1.3,0000*40"
2,0,0.000000,3.725619,"$GPGGA,172211.00,3721.8919133,N,07958.3579053,W,2,04,1.99,364.5144,M,-32.8284,M,1.4,0000*48"
2,0,0.000000,3.799352,"$GPGGA,172211.10,3721.8919168,N,07958.3579091,W,2,04,1.99,364.5161,M,-32.8284,M,1.5,0000*4F"
2,0,0.000000,3.898939,"$GPGGA,172211.20,3721.8919200,N,07958.3579165,W,2,04,1.99,364.5160,M,-32.8284,M,1.6,0000*49"
3,0,0.000000,3.997205,"$GPGGA,172211.30,3721.8919264,N,07958.3579276,W,2,04,1.99,364.5367,M,-32.8284,M,0.5,0000*4C"
4,0,0.000000,4.096830,"$GPGGA,172211.40,3721.8919135,N,07958.3579539,W,2,04,1.99,364.4977,M,-32.8284,M,0.6,0000*49"
5,0,0.000000,4.196411,"$GPGGA,172211.50,3721.8919219,N,07958.3579795,W,2,04,1.99,364.4810,M,-32.8284,M,0.7,0000*40"
6,0,0.000000,4.308979,"$GPGGA,172211.60,3721.8919460,N,07958.3580034,W,2,04,1.99,364.4923,M,-32.8284,M,0.8,0000*4F"
7,0,0.000000,4.398766,"$GPGGA,172211.70,3721.8919613,N,07958.3580224,W,2,04,1.99,364.4812,M,-32.8284,M,0.9,0000*49"
8,0,0.000000,4.499584,"$GPGGA,172211.80,3721.8919577,N,07958.3580502,W,2,04,1.99,364.4579,M,-32.8284,M,1.0,0000*4C"
9,0,0.000000,4.599677,"$GPGGA,172211.90,3721.8919695,N,07958.3580791,W,2,04,1.99,364.4652,M,-32.8284,M,1.1,0000*41"
10,0,0.000000,4.723938,"$GPGGA,172212.00,3721.8919703,N,07958.3581021,W,2,04,1.99,364.4664,M,-32.8284,M,1.2,0000*4E"
11,0,0.000000,4.796041,"$GPGGA,172212.10,3721.8919633,N,07958.3581213,W,2,04,1.99,364.4636,M,-32.8284,M,1.3,0000*48"
12,0,0.000000,4.895264,"$GPGGA,172212.20,3721.8919626,N,07958.3581404,W,2,04,1.99,364.4608,M,-32.8284,M,1.4,0000*45"
13,0,0.000000,4.996918,"$GPGGA,172212.30,3721.8919660,N,07958.3581559,W,2,04,1.99,364.4880,M,-32.8284,M,1.5,0000*40"
14,0,0.000000,5.099085,"$GPGGA,172212.40,3721.8919608,N,07958.3581662,W,2,04,1.99,364.5052,M,-32.8284,M,0.4,0000*44"
14,0,0.000000,5.198963,"$GPGGA,172212.50,3721.8919552,N,07958.3581721,W,2,04,1.99,364.4846,M,-32.8284,M,0.5,0000*42"
15,0,0.000000,5.299400,"$GPGGA,172212.60,3721.8919580,N,07958.3581887,W,2,04,1.99,364.4937,M,-32.8284,M,0.6,0000*49"
16,0,0.000000,5.398055,"$GPGGA,172212.70,3721.8919609,N,07958.3582134,W,2,04,1.99,364.5103,M,-32.8284,M,0.7,0000*47"
17,0,0.000000,5.496625,"$GPGGA,172212.80,3721.8919722,N,07958.3582524,W,2,04,1.99,364.4908,M,-32.8284,M,0.8,0000*48"
18,0,0.000000,5.596087,"$GPGGA,172212.90,3721.8919757,N,07958.3582856,W,2,04,1.99,364.4246,M,-32.8284,M,0.9,0000*43"
20,0,0.000000,5.722581,"$GPGGA,172213.00,3721.8919784,N,07958.3583007,W,2,04,1.99,364.4299,M,-32.8284,M,1.0,0000*42"
21,0,0.000000,5.799558,"$GPGGA,172213.10,3721.8919889,N,07958.3583276,W,2,04,1.99,364.4627,M,-32.8284,M,1.1,0000*45"
22,0,0.000000,5.899236,"$GPGGA,172213.20,3721.8920110,N,07958.3583594,W,2,04,1.99,364.5014,M,-32.8284,M,1.2,0000*4A"
23,0,0.000000,5.999281,"$GPGGA,172213.30,3721.8920357,N,07958.3583887,W,2,04,1.99,364.5618,M,-32.8284,M,1.3,0000*4E"
23,0,0.000000,6.098820,"$GPGGA,172213.40,3721.8921144,N,07958.3584592,W,2,04,1.99,363.5616,M,-32.8284,M,0.8,0000*45"
24,0,0.000000,6.195920,"$GPGGA,172213.50,3721.8921355,N,07958.3584757,W,2,04,1.99,363.6177,M,-32.8284,M,0.9,0000*4F"
25,0,0.000000,6.295667,"$GPGGA,172213.60,3721.8921443,N,07958.3584900,W,2,04,1.99,363.6229,M,-32.8284,M,1.0,0000*40"
26,0,0.000000,6.395822,"$GPGGA,172213.70,3721.8921522,N,07958.3585080,W,2,04,1.99,363.6459,M,-32.8284,M,1.1,0000*47"
27,0,0.000000,6.499302,"$GPGGA,172213.80,3721.8921618,N,07958.3585273,W,2,04,1.99,363.6138,M,-32.8284,M,1.2,0000*4D"
28,0,0.000000,6.599439,"$GPGGA,172213.90,3721.8921602,N,07958.3585558,W,2,04,1.99,363.6103,M,-32.8284,M,1.3,0000*40"
30,0,0.000000,6.725636,"$GPGGA,172214.00,3721.8921531,N,07958.3585865,W,2,04,1.99,363.6019,M,-32.8284,M,1.4,0000*43"
31,0,0.000000,6.798706,"$GPGGA,172214.10,3721.8921574,N,07958.3586241,W,2,04,1.99,363.6314,M,-32.8284,M,1.5,0000*43"
31,0,0.000000,6.895916,"$GPGGA,172214.20,3721.8921710,N,07958.3586464,W,2,04,1.99,363.6368,M,-32.8284,M,1.6,0000*49"
32,0,0.000000,6.996226,"$GPGGA,172214.30,3721.8921754,N,07958.3586551,W,2,04,1.99,363.6317,M,-32.8284,M,1.7,0000*46"
32,0,0.000000,7.095809,"$GPGGA,172214.40,3721.8921759,N,07958.3586713,W,2,04,1.99,363.6030,M,-32.8284,M,0.6,0000*4E"
33,0,0.000000,7.198356,"$GPGGA,172214.50,3721.8921854,N,07958.3586998,W,2,04,1.99,363.5986,M,-32.8284,M,0.7,0000*46"
34,0,0.000000,7.298414,"$GPGGA,172214.60,3721.8921837,N,07958.3587209,W,2,04,1.99,363.6285,M,-32.8284,M,0.8,0000*46"
34,0,0.000000,7.399386,"$GPGGA,172214.70,3721.8921908,N,07958.3587243,W,2,04,1.99,363.6348,M,-32.8284,M,0.9,0000*45"
34,0,0.000000,7.500425,"$GPGGA,172214.80,3721.8921885,N,07958.3587296,W,2,04,1.99,363.6473,M,-32.8284,M,1.0,0000*41"
34,0,0.000000,7.595823,"$GPGGA,172214.90,3721.8921902,N,07958.3587374,W,2,04,1.99,363.6618,M,-32.8284,M,1.1,0000*4D"
35,0,0.000000,7.722075,"$GPGGA,172215.00,3721.8921913,N,07958.3587390,W,2,04,1.99,363.6674,M,-32.8284,M,1.2,0000*46"
36,0,0.000000,7.795707,"$GPGGA,172215.10,3721.8921853,N,07958.3587373,W,2,04,1.99,363.6526,M,-32.8284,M,1.3,0000*4A"
36,0,0.000000,7.899752,"$GPGGA,172215.20,3721.8921885,N,07958.3587416,W,2,04,1.99,363.6582,M,-32.8284,M,1.4,0000*4F"
36,0,0.000000,7.999967,"$GPGGA,172215.30,3721.8921951,N,07958.3587549,W,2,04,1.99,363.6779,M,-32.8284,M,0.3,0000*4D"
37,0,0.000000,8.098964,"$GPGGA,172215.40,3721.8922062,N,07958.3587784,W,2,04,1.99,363.6859,M,-32.8284,M,0.4,0000*49"
38,0,0.000000,8.198255,"$GPGGA,172215.50,3721.8922093,N,07958.3587979,W,2,04,1.99,363.6903,M,-32.8284,M,0.5,0000*45"
40,0,0.000000,8.296302,"$GPGGA,172215.60,3721.8922063,N,07958.3588198,W,2,04,1.99,363.6759,M,-32.8284,M,0.6,0000*43"
41,0,0.000000,8.396762,"$GPGGA,172215.70,3721.8922086,N,07958.3588442,W,2,04,1.99,363.6406,M,-32.8284,M,0.7,0000*43"
42,0,0.000000,8.496695,"$GPGGA,172215.80,3721.8922243,N,07958.3588597,W,2,04,1.99,363.6139,M,-32.8284,M,0.8,0000*48"
44,0,0.000000,8.599831,"$GPGGA,172215.90,3721.8922984,N,07958.3589170,W,2,04,1.99,363.6083,M,-32.8284,M,0.9,0000*44"
46,0,0.000000,8.727305,"$GPGGA,172216.00,3721.8923066,N,07958.3589579,W,2,04,1.99,363.6289,M,-32.8284,M,1.0,0000*47"
46,0,0.000000,8.799587,"$GPGGA,172216.10,3721.8923333,N,07958.3589844,W,2,04,1.99,363.6435,M,-32.8284,M,1.1,0000*46"
48,0,0.000000,8.898432,"$GPGGA,172216.20,3721.8923365,N,07958.3590153,W,2,04,1.99,363.6546,M,-32.8284,M,1.2,0000*47"
49,0,0.000000,8.995393,"$GPGGA,172216.30,3721.8923433,N,07958.3590295,W,2,04,1.99,363.6570,M,-32.8284,M,0.7,0000*4A"
50,0,0.000000,9.095815,"$GPGGA,172216.40,3721.8923458,N,07958.3590662,W,2,04,1.99,363.6324,M,-32.8284,M,0.8,0000*44"
51,0,0.000000,9.196148,"$GPGGA,172216.50,3721.8923586,N,07958.3591188,W,2,04,1.99,363.6336,M,-32.8284,M,0.9,0000*47"
51,0,0.000000,9.299501,"$GPGGA,172216.60,3721.8923745,N,07958.3591591,W,2,04,1.99,363.6490,M,-32.8284,M,1.0,0000*46"
52,0,0.000000,9.399925,"$GPGGA,172216.70,3721.8923811,N,07958.3591745,W,2,04,1.99,363.6871,M,-32.8284,M,1.1,0000*40"
52,0,0.000000,9.498973,"$GPGGA,172216.80,3721.8923889,N,07958.3591782,W,2,04,1.99,363.7073,M,-32.8284,M,1.2,0000*4D"
53,0,0.000000,9.598547,"$GPGGA,172216.90,3721.8923890,N,07958.3591859,W,2,04,1.99,363.7155,M,-32.8284,M,1.3,0000*49"
53,0,0.000000,9.722999,"$GPGGA,172217.00,3721.8923941,N,07958.3591953,W,2,04,1.99,363.7328,M,-32.8284,M,1.4,0000*48"
53,0,0.000000,9.795819,"$GPGGA,172217.10,3721.8923978,N,07958.3592071,W,2,04,1.99,363.7188,M,-32.8284,M,1.5,0000*40"
53,0,0.000000,9.896198,"$GPGGA,172217.20,3721.8924036,N,07958.3592140,W,2,04,1.99,363.7347,M,-32.8284,M,1.6,0000*46"
54,0,0.000000,9.999558,"$GPGGA,172217.30,3721.8924046,N,07958.3592159,W,2,04,1.99,363.7419,M,-32.8284,M,0.5,0000*46"
54,0,0.000000,10.099668,"$GPGGA,172217.40,3721.8924033,N,07958.3592228,W,2,04,1.99,363.7282,M,-32.8284,M,0.6,0000*41"
55,0,0.000000,10.199398,"$GPGGA,172217.50,3721.8924000,N,07958.3592287,W,2,04,1.99,363.7238,M,-32.8284,M,0.7,0000*45"
55,0,0.000000,10.298882,"$GPGGA,172217.60,3721.8923975,N,07958.3592340,W,2,04,1.99,363.7385,M,-32.8284,M,0.8,0000*48"
55,0,0.000000,10.396558,"$GPGGA,172217.70,3721.8923985,N,07958.3592344,W,2,04,1.99,363.7442,M,-32.8284,M,0.9,0000*4F"
55,0,0.000000,10.495657,"$GPGGA,172217.80,3721.8923958,N,07958.3592431,W,2,04,1.99,363.7377,M,-32.8284,M,1.0,0000*4C"
57,0,0.000000,10.595881,"$GPGGA,172217.90,3721.8923987,N,07958.3592592,W,2,04,1.99,363.7471,M,-32.8284,M,1.1,0000*47"
59,0,0.000000,10.725550,"$GPGGA,172218.00,3721.8924035,N,07958.3592779,W,2,04,1.99,363.7711,M,-32.8284,M,1.2,0000*47"
60,0,0.000000,10.799719,"$GPGGA,172218.10,3721.8924054,N,07958.3592959,W,2,04,1.99,363.7937,M,-32.8284,M,1.3,0000*46"
62,0,0.000000,10.899574,"$GPGGA,172218.20,3721.8924036,N,07958.3593157,W,2,04,1.99,363.8279,M,-32.8284,M,1.4,0000*4F"
63,0,0.000000,10.998738,"$GPGGA,172218.30,3721.8924040,N,07958.3593404,W,2,04,1.99,363.8391,M,-32.8284,M,0.3,0000*4D"
65,0,0.000000,11.096644,"$GPGGA,172218.40,3721.8924153,N,07958.3593480,W,2,04,1.99,363.8011,M,-32.8284,M,0.4,0000*49"
66,0,0.000000,11.196121,"$GPGGA,172218.50,3721.8924332,N,07958.3593474,W,2,04,1.99,363.7243,M,-32.8284,M,0.5,0000*4D"
68,0,0.000000,11.296377,"$GPGGA,172218.60,3721.8924444,N,07958.3593547,W,2,04,1.99,363.7172,M,-32.8284,M,0.6,0000*4B"
69,0,0.000000,11.399797,"$GPGGA,172218.70,3721.8924605,N,07958.3593689,W,2,04,1.99,363.7415,M,-32.8284,M,0.7,0000*49"
71,0,0.000000,11.498816,"$GPGGA,172218.80,3721.8924690,N,07958.3593862,W,2,04,1.99,363.7654,M,-32.8284,M,0.8,0000*49"
72,0,0.000000,11.601407,"$GPGGA,172218.90,3721.8924649,N,07958.3593888,W,2,04,1.99,363.7449,M,-32.8284,M,0.9,0000*47"
73,0,0.000000,11.725027,"$GPGGA,172219.00,3721.8924760,N,07958.3594069,W,2,04,1.99,363.7771,M,-32.8284,M,1.0,0000*45"
73,0,0.000000,11.796516,"$GPGGA,172219.10,3721.8924849,N,07958.3594294,W,2,04,1.99,363.7849,M,-32.8284,M,1.1,0000*45"
74,0,0.000000,11.895452,"$GPGGA,172219.20,3721.8924802,N,07958.3594025,W,2,04,1.99,363.7883,M,-32.8284,M,1.2,0000*44"
74,0,0.000000,11.998163,"$GPGGA,172219.30,3721.8924867,N,07958.3594213,W,2,04,1.99,363.7827,M,-32.8284,M,0.7,0000*4B"
74,0,0.000000,12.105775,"$GPGGA,172219.40,3721.8924749,N,07958.3593989,W,2,04,1.99,363.7655,M,-32.8284,M,0.8,0000*44"
74,0,0.000000,12.199605,"$GPGGA,172219.50,3721.8924854,N,07958.3594131,W,2,04,1.99,363.7876,M,-32.8284,M,0.9,0000*44"
75,0,0.000000,12.305348,"$GPGGA,172219.60,3721.8924852,N,07958.3594005,W,2,04,1.99,363.7874,M,-32.8284,M,1.0,0000*4D"
75,0,0.000000,12.398792,"$GPGGA,172219.70,3721.8924911,N,07958.3594108,W,2,04,1.99,363.7938,M,-32.8284,M,1.1,0000*4E"
76,0,0.000000,12.496555,"$GPGGA,172219.80,3721.8924936,N,07958.3594086,W,2,04,1.99,363.8013,M,-32.8284,M,1.2,0000*4F"
76,0,0.000000,12.596001,"$GPGGA,172219.90,3721.8924875,N,07958.3594087,W,2,04,1.99,363.7973,M,-32.8284,M,1.3,0000*48"
76,0,0.000000,12.723898,"$GPGGA,172220.00,3721.8924882,N,07958.3594178,W,2,04,1.99,363.8063,M,-32.8284,M,1.4,0000*42"
77,0,0.000000,12.799347,"$GPGGA,172220.10,3721.8924891,N,07958.3594234,W,2,04,1.99,363.8164,M,-32.8284,M,1.5,0000*4D"
78,0,0.000000,12.898801,"$GPGGA,172220.20,3721.8924826,N,07958.3594374,W,2,04,1.99,363.8339,M,-32.8284,M,1.6,0000*4E"
79,0,0.000000,12.999508,"$GPGGA,172220.30,3721.8924750,N,07958.3594515,W,2,04,1.99,363.8159,M,-32.8284,M,0.5,0000*46"
81,0,0.000000,13.098764,"$GPGGA,172220.40,3721.8925049,N,07958.3594899,W,2,04,1.99,363.9026,M,-32.8284,M,0.6,0000*4D"
82,0,0.000000,13.197564,"$GPGGA,172220.50,3721.8925298,N,07958.3595185,W,2,04,1.99,364.0121,M,-32.8284,M,0.7,0000*4E"
83,0,0.000000,13.295970,"$GPGGA,172220.60,3721.8926211,N,07958.3595451,W,2,04,1.99,364.2513,M,-32.8284,M,0.8,0000*4B"
84,0,0.000000,13.398992,"$GPGGA,172220.70,3721.8926569,N,07958.3595695,W,2,04,1.99,364.3311,M,-32.8284,M,0.9,0000*4C"
85,0,0.000000,13.498994,"$GPGGA,172220.80,3721.8926614,N,07958.3595948,W,2,04,1.99,364.3432,M,-32.8284,M,1.0,0000*4B"
86,0,0.000000,13.598866,"$GPGGA,172220.90,3721.8926673,N,07958.3596222,W,2,04,1.99,364.3256,M,-32.8284,M,1.1,0000*4A"
87,0,0.000000,13.725484,"$GPGGA,172221.00,3721.8927075,N,07958.3596416,W,2,04,1.99,364.3718,M,-32.8284,M,1.2,0000*4E"
88,0,0.000000,13.799392,"$GPGGA,172221.10,3721.8927146,N,07958.3596500,W,2,04,1.99,364.3870,M,-32.8284,M,1.3,0000*48"
88,0,0.000000,13.896194,"$GPGGA,172221.20,3721.8927282,N,07958.3596625,W,2,04,1.99,364.4067,M,-32.8284,M,1.4,0000*4A"
89,0,0.000000,13.995395,"$GPGGA,172221.30,3721.8927422,N,07958.3596940,W,2,04,1.99,364.4194,M,-32.8284,M,0.3,0000*40"
89,0,0.000000,14.095467,"$GPGGA,172221.40,3721.8927641,N,07958.3597151,W,2,04,1.99,364.4029,M,-32.8284,M,0.4,0000*49"
90,0,0.000000,14.199448,"$GPGGA,172221.50,3721.8927696,N,07958.3597379,W,2,04,1.99,364.4055,M,-32.8284,M,0.5,0000*40"
90,0,0.000000,14.299300,"$GPGGA,172221.60,3721.8927619,N,07958.3597682,W,2,04,1.99,364.3731,M,-32.8284,M,0.6,0000*44"
91,0,0.000000,14.398905,"$GPGGA,172221.70,3721.8927784,N,07958.3597826,W,2,04,1.99,364.3810,M,-32.8284,M,0.7,0000*4D"
91,0,0.000000,14.498482,"$GPGGA,172221.80,3721.8927872,N,07958.3598023,W,2,04,1.99,364.3993,M,-32.8284,M,0.8,0000*43"
92,0,0.000000,14.595559,"$GPGGA,172221.90,3721.8928063,N,07958.3598140,W,2,04,1.99,364.4178,M,-32.8284,M,0.9,0000*4A"
93,0,0.000000,14.723604,"$GPGGA,172222.00,3721.8928426,N,07958.3598446,W,2,04,1.99,364.4803,M,-32.8284,M,1.0,0000*4B"
94,0,0.000000,14.796222,"$GPGGA,172222.10,3721.8928530,N,07958.3598469,W,2,04,1.99,364.4828,M,-32.8284,M,1.1,0000*49"
95,0,0.000000,14.899039,"$GPGGA,172222.20,3721.8928746,N,07958.3598839,W,2,04,1.99,364.5210,M,-32.8284,M,1.2,0000*43"
96,0,0.000000,15.005755,"$GPGGA,172222.30,3721.8928842,N,07958.3599199,W,2,04,1.99,364.5544,M,-32.8284,M,0.7,0000*49"
97,0,0.000000,15.101563,"$GPGGA,172222.40,3721.8928669,N,07958.3599426,W,2,04,1.99,364.5372,M,-32.8284,M,0.8,0000*44"
98,0,0.000000,15.199031,"$GPGGA,172222.50,3721.8928865,N,07958.3599927,W,2,04,1.99,364.5675,M,-32.8284,M,0.9,0000*48"
98,0,0.000000,15.296824,"$GPGGA,172222.60,3721.8928910,N,07958.3600324,W,2,04,1.99,364.5458,M,-32.8284,M,1.0,0000*47"
99,0,0.000000,15.399355,"$GPGGA,172222.70,3721.8928836,N,07958.3600565,W,2,04,1.99,364.5326,M,-32.8284,M,1.1,0000*4F"
99,0,0.000000,15.495880,"$GPGGA,172222.80,3721.8928844,N,07958.3600691,W,2,04,1.99,364.5474,M,-32.8284,M,1.2,0000*4E"
100,0,0.000000,15.595542,"$GPGGA,172222.90,3721.8928901,N,07958.3600916,W,2,04,1.99,364.5940,M,-32.8284,M,1.3,0000*44"
101,0,0.000000,15.730360,"$GPGGA,172223.00,3721.8928961,N,07958.3601159,W,2,04,1.99,364.6273,M,-32.8284,M,1.4,0000*47"
101,0,0.000000,15.798879,"$GPGGA,172223.10,3721.8929049,N,07958.3601322,W,2,04,1.99,364.6394,M,-32.8284,M,1.5,0000*43"
102,0,0.000000,15.899425,"$GPGGA,172223.20,3721.8929071,N,07958.3601508,W,2,04,1.99,364.6476,M,-32.8284,M,1.6,0000*4D"
102,0,0.000000,15.997233,"$GPGGA,172223.30,3721.8929153,N,07958.3601812,W,2,04,1.99,364.6540,M,-32.8284,M,0.5,0000*4D"
103,0,0.000000,16.095540,"$GPGGA,172223.40,3721.8929152,N,07958.3602086,W,2,04,1.99,364.6643,M,-32.8284,M,0.6,0000*4E"
103,0,0.000000,16.196390,"$GPGGA,172223.50,3721.8929185,N,07958.3602276,W,2,04,1.99,364.6750,M,-32.8284,M,0.7,0000*4A"
103,0,0.000000,16.298687,"$GPGGA,172223.60,3721.8929246,N,07958.3602503,W,2,04,1.99,364.7157,M,-32.8284,M,0.8,0000*4F"
104,0,0.000000,16.399217,"$GPGGA,172223.70,3721.8929256,N,07958.3603159,W,2,04,1.99,364.6667,M,-32.8284,M,0.9,0000*41"
105,0,0.000000,16.500022,"$GPGGA,172223.80,3721.8929201,N,07958.3603357,W,2,04,1.99,364.6890,M,-32.8284,M,1.0,0000*4E"
106,0,0.000000,16.605004,"$GPGGA,172223.90,3721.8929228,N,07958.3603624,W,2,04,1.99,364.6967,M,-32.8284,M,1.1,0000*4D"
107,0,0.000000,16.723197,"$GPGGA,172224.00,3721.8928921,N,07958.3603954,W,2,04,1.99,364.6402,M,-32.8284,M,1.2,0000*45"
108,0,0.000000,16.795688,"$GPGGA,172224.10,3721.8928857,N,07958.3604108,W,2,04,1.99,364.6341,M,-32.8284,M,1.3,0000*43"
108,0,0.000000,16.895771,"$GPGGA,172224.20,3721.8928890,N,07958.3604361,W,2,04,1.99,364.6846,M,-32.8284,M,1.4,0000*4D"
109,0,0.000000,16.997226,"$GPGGA,172224.30,3721.8928997,N,07958.3604613,W,2,04,1.99,364.7035,M,-32.8284,M,0.3,0000*41"
110,0,0.000000,17.098966,"$GPGGA,172224.40,3721.8928759,N,07958.3605190,W,2,04,1.99,364.5399,M,-32.8284,M,0.4,0000*47"
111,0,0.000000,17.199386,"$GPGGA,172224.50,3721.8928687,N,07958.3605381,W,2,04,1.99,364.5323,M,-32.8284,M,0.5,0000*46"
111,0,0.000000,17.299302,"$GPGGA,172224.60,3721.8928601,N,07958.3605470,W,2,04,1.99,364.5447,M,-32.8284,M,0.6,0000*44"
112,0,0.000000,17.397393,"$GPGGA,172224.70,3721.8928712,N,07958.3605662,W,2,04,1.99,364.6275,M,-32.8284,M,0.7,0000*42"
112,0,0.000000,17.496084,"$GPGGA,172224.80,3721.8928248,N,07958.3605951,W,2,04,1.99,364.5687,M,-32.8284,M,0.8,0000*4D"
113,0,0.000000,17.595796,"$GPGGA,172224.90,3721.8928261,N,07958.3606195,W,2,04,1.99,364.5865,M,-32.8284,M,0.9,0000*47"
113,0,0.000000,17.725754,"$GPGGA,172225.00,3721.8928411,N,07958.3606439,W,2,04,1.99,364.5914,M,-32.8284,M,1.0,0000*42"
113,0,0.000000,17.798866,"$GPGGA,172225.10,3721.8928009,N,07958.3606649,W,2,04,1.99,364.4950,M,-32.8284,M,1.1,0000*4B"
114,0,0.000000,17.901051,"$GPGGA,172225.20,3721.8927871,N,07958.3606828,W,2,04,1.99,364.3974,M,-32.8284,M,1.2,0000*4B"
114,0,0.000000,17.998861,"$GPGGA,172225.30,3721.8927613,N,07958.3607036,W,2,04,1.99,364.3033,M,-32.8284,M,0.7,0000*48"
115,0,0.000000,18.101206,"$GPGGA,172225.40,3721.8927354,N,07958.3607238,W,2,04,1.99,364.2007,M,-32.8284,M,0.8,0000*4C"
116,0,0.000000,18.195605,"$GPGGA,172225.50,3721.8928343,N,07958.3607061,W,2,04,1.99,364.4767,M,-32.8284,M,0.9,0000*4C"
117,0,0.000000,18.295515,"$GPGGA,172225.60,3721.8928271,N,07958.3607180,W,2,04,1.99,364.4452,M,-32.8284,M,1.0,0000*4C"
117,0,0.000000,18.395899,"$GPGGA,172225.70,3721.8928198,N,07958.3607312,W,2,04,1.99,364.4112,M,-32.8284,M,1.1,0000*40"
118,0,0.000000,18.498802,"$GPGGA,172225.80,3721.8928215,N,07958.3607490,W,2,04,1.99,364.3973,M,-32.8284,M,1.2,0000*4F"
119,0,0.000000,18.599204,"$GPGGA,172225.90,3721.8928142,N,07958.3607743,W,2,04,1.99,364.4456,M,-32.8284,M,1.3,0000*4E"
119,0,0.000000,18.725216,"$GPGGA,172226.00,3721.8928109,N,07958.3608025,W,2,04,1.99,364.5267,M,-32.8284,M,1.4,0000*41"
120,0,0.000000,18.796943,"$GPGGA,172226.10,3721.8928156,N,07958.3608104,W,2,04,1.99,364.5605,M,-32.8284,M,1.5,0000*49"
120,0,0.000000,18.896609,"$GPGGA,172226.20,3721.8928167,N,07958.3608263,W,2,04,1.99,364.5658,M,-32.8284,M,1.6,0000*41"
121,0,0.000000,18.996168,"$GPGGA,172226.30,3721.8928198,N,07958.3608327,W,2,04,1.99,364.5697,M,-32.8284,M,1.7,0000*43"
121,0,0.000000,19.099119,"$GPGGA,172226.40,3721.8928167,N,07958.3608409,W,2,04,1.99,364.5694,M,-32.8284,M,0.6,0000*4C"
122,0,0.000000,19.199239,"$GPGGA,172226.50,3721.8928154,N,07958.3608578,W,2,04,1.99,364.5739,M,-32.8284,M,0.7,0000*4D"
122,0,0.000000,19.299684,"$GPGGA,172226.60,3721.8928097,N,07958.3608720,W,2,04,1.99,364.5854,M,-32.8284,M,0.8,0000*44"
123,0,0.000000,19.399849,"$GPGGA,172226.70,3721.8927963,N,07958.3608881,W,2,04,1.99,364.5846,M,-32.8284,M,0.9,0000*4E"
123,0,0.000000,19.497378,"$GPGGA,172226.80,3721.8927984,N,07958.3608983,W,2,04,1.99,364.6257,M,-32.8284,M,1.0,0000*4A"
125,0,0.000000,19.595669,"$GPGGA,172226.90,3721.8927983,N,07958.3609159,W,2,04,1.99,364.6486,M,-32.8284,M,1.1,0000*49"
126,0,0.000000,19.721677,"$GPGGA,172227.00,3721.8927882,N,07958.3609345,W,2,04,1.99,364.6232,M,-32.8284,M,1.2,0000*44"
126,0,0.000000,19.795355,"$GPGGA,172227.10,3721.8927823,N,07958.3609558,W,2,04,1.99,364.6226,M,-32.8284,M,1.3,0000*40"
128,0,0.000000,19.898969,"$GPGGA,172227.20,3721.8927839,N,07958.3609780,W,2,04,1.99,364.6475,M,-32.8284,M,1.4,0000*48"
129,0,0.000000,19.999402,"$GPGGA,172227.30,3721.8927899,N,07958.3610101,W,2,04,1.99,364.6952,M,-32.8284,M,0.3,0000*4A"
130,0,0.000000,20.099729,"$GPGGA,172227.40,3721.8928171,N,07958.3610577,W,2,04,1.99,364.7304,M,-32.8284,M,0.4,0000*47"
131,0,0.000000,20.197892,"$GPGGA,172227.50,3721.8928638,N,07958.3610736,W,2,04,1.99,364.9299,M,-32.8284,M,0.5,0000*41"
132,0,0.000000,20.296238,"$GPGGA,172227.60,3721.8928532,N,07958.3611053,W,2,04,1.99,364.9295,M,-32.8284,M,0.6,0000*41"
133,0,0.000000,20.396393,"$GPGGA,172227.70,3721.8928520,N,07958.3611400,W,2,04,1.99,364.9645,M,-32.8284,M,0.7,0000*49"
134,0,0.000000,20.497075,"$GPGGA,172227.80,3721.8928470,N,07958.3611784,W,2,04,1.99,364.9689,M,-32.8284,M,0.8,0000*42"
136,0,0.000000,20.599235,"$GPGGA,172227.90,3721.8927313,N,07958.3612199,W,2,04,1.99,364.5385,M,-32.8284,M,0.9,0000*43"
137,0,0.000000,20.724805,"$GPGGA,172228.00,3721.8926409,N,07958.3612573,W,2,04,1.99,364.2907,M,-32.8284,M,1.0,0000*47"
138,0,0.000000,20.798319,"$GPGGA,172228.10,3721.8926329,N,07958.3612924,W,2,04,1.99,364.3602,M,-32.8284,M,1.1,0000*47"
139,0,0.000000,20.897858,"$GPGGA,172228.20,3721.8926250,N,07958.3613192,W,2,04,1.99,364.3743,M,-32.8284,M,1.2,0000*48"
140,0,0.000000,20.999306,"$GPGGA,172228.30,3721.8926250,N,07958.3613371,W,2,04,1.99,364.4315,M,-32.8284,M,0.7,0000*42"
141,0,0.000000,21.096398,"$GPGGA,172228.40,3721.8926174,N,07958.3613686,W,2,04,1.99,364.4244,M,-32.8284,M,0.8,0000*47"
142,0,0.000000,21.195547,"$GPGGA,172228.50,3721.8926204,N,07958.3613999,W,2,04,1.99,364.3929,M,-32.8284,M,0.9,0000*45"
143,0,0.000000,21.299060,"$GPGGA,172228.60,3721.8926277,N,07958.3614224,W,2,04,1.99,364.3802,M,-32.8284,M,1.0,0000*48"
144,0,0.000000,21.398735,"$GPGGA,172228.70,3721.8926232,N,07958.3614502,W,2,04,1.99,364.3939,M,-32.8284,M,1.1,0000*43"
145,0,0.000000,21.499429,"$GPGGA,172228.80,3721.8926161,N,07958.3614757,W,2,04,1.99,364.4315,M,-32.8284,M,1.2,0000*4B"
146,0,0.000000,21.597333,"$GPGGA,172228.90,3721.8926147,N,07958.3615009,W,2,04,1.99,364.4684,M,-32.8284,M,1.3,0000*4F"
147,0,0.000000,21.721977,"$GPGGA,172229.00,3721.8926040,N,07958.3615288,W,2,04,1.99,364.4683,M,-32.8284,M,1.4,0000*4A"
148,0,0.000000,21.796269,"$GPGGA,172229.10,3721.8925936,N,07958.3615580,W,2,04,1.99,364.4410,M,-32.8284,M,1.5,0000*46"
150,0,0.000000,21.895980,"$GPGGA,172229.20,3721.8925721,N,07958.3616003,W,2,04,1.99,364.3831,M,-32.8284,M,1.6,0000*4B"
153,0,0.000000,21.999032,"$GPGGA,172229.30,3721.8925580,N,07958.3616506,W,2,04,1.99,364.4305,M,-32.8284,M,0.5,0000*4A"
154,0,0.000000,22.099695,"$GPGGA,172229.40,3721.8925573,N,07958.3616767,W,2,04,1.99,364.4501,M,-32.8284,M,0.6,0000*45"
155,0,0.000000,22.199543,"$GPGGA,172229.50,3721.8925668,N,07958.3616986,W,2,04,1.99,364.4382,M,-32.8284,M,0.7,0000*40"
157,0,0.000000,22.308799,"$GPGGA,172229.60,3721.8925816,N,07958.3617169,W,2,04,1.99,364.4146,M,-32.8284,M,0.8,0000*49"
158,0,0.000000,22.395766,"$GPGGA,172229.70,3721.8925897,N,07958.3617263,W,2,04,1.99,364.4021,M,-32.8284,M,0.9,0000*49"
160,0,0.000000,22.495582,"$GPGGA,172229.80,3721.8925973,N,07958.3617352,W,2,04,1.99,364.4300,M,-32.8284,M,1.0,0000*46"
160,0,0.000000,22.594728,"$GPGGA,172229.90,3721.8926130,N,07958.3617541,W,2,04,1.99,364.4411,M,-32.8284,M,1.1,0000*49"
161,0,0.000000,22.730392,"$GPGGA,172230.00,3721.8926381,N,07958.3617967,W,2,04,1.99,364.4601,M,-32.8284,M,1.2,0000*48"
161,0,0.000000,22.799578,"$GPGGA,172230.10,3721.8926582,N,07958.3618140,W,2,04,1.99,364.4699,M,-32.8284,M,1.3,0000*4E"
162,0,0.000000,22.899132,"$GPGGA,172230.20,3721.8926666,N,07958.3618188,W,2,04,1.99,364.4639,M,-32.8284,M,1.4,0000*4D"
162,0,0.000000,22.998180,"$GPGGA,172230.30,3721.8926687,N,07958.3618238,W,2,04,1.99,364.4685,M,-32.8284,M,0.3,0000*4A"
163,0,0.000000,23.096372,"$GPGGA,172230.40,3721.8926703,N,07958.3618265,W,2,04,1.99,364.4699,M,-32.8284,M,0.4,0000*42"
163,0,0.000000,23.196034,"$GPGGA,172230.50,3721.8926731,N,07958.3618343,W,2,04,1.99,364.4812,M,-32.8284,M,0.5,0000*4B"
163,0,0.000000,23.295726,"$GPGGA,172230.60,3721.8926811,N,07958.3618478,W,2,04,1.99,364.4793,M,-32.8284,M,0.6,0000*4F"
163,0,0.000000,23.399998,"$GPGGA,172230.70,3721.8926843,N,07958.3618674,W,2,04,1.99,364.4396,M,-32.8284,M,0.7,0000*47"
163,0,0.000000,23.507636,"$GPGGA,172230.80,3721.8926859,N,07958.3618871,W,2,04,1.99,364.4360,M,-32.8284,M,0.8,0000*4E"
163,0,0.000000,23.597978,"$GPGGA,172230.90,3721.8926891,N,07958.3618961,W,2,04,1.99,364.4585,M,-32.8284,M,0.9,0000*47"
163,0,0.000000,23.724895,"$GPGGA,172231.00,3721.8926899,N,07958.3618978,W,2,04,1.99,364.4541,M,-32.8284,M,1.0,0000*4F"
163,0,0.000000,23.796365,"$GPGGA,172231.10,3721.8926898,N,07958.3618967,W,2,04,1.99,364.4456,M,-32.8284,M,1.1,0000*47"
164,0,0.000000,23.895455,"$GPGGA,172231.20,3721.8926957,N,07958.3619051,W,2,04,1.99,364.4651,M,-32.8284,M,1.2,0000*4D"
164,0,0.000000,23.997352,"$GPGGA,172231.30,3721.8926989,N,07958.3619139,W,2,04,1.99,364.4828,M,-32.8284,M,0.7,0000*44"
165,0,0.000000,24.098723,"$GPGGA,172231.40,3721.8927066,N,07958.3619321,W,2,04,1.99,364.5030,M,-32.8284,M,0.8,0000*4E"
166,0,0.000000,24.199352,"$GPGGA,172231.50,3721.8927082,N,07958.3619624,W,2,04,1.99,364.5427,M,-32.8284,M,0.9,0000*46"
167,0,0.000000,24.298728,"$GPGGA,172231.60,3721.8927292,N,07958.3619828,W,2,04,1.99,364.5777,M,-32.8284,M,1.0,0000*4A"
169,0,0.000000,24.398302,"$GPGGA,172231.70,3721.8927288,N,07958.3620008,W,2,04,1.99,364.5385,M,-32.8284,M,1.1,0000*48"
170,0,0.000000,24.496304,"$GPGGA,172231.80,3721.8927344,N,07958.3620240,W,2,04,1.99,364.5438,M,-32.8284,M,1.2,0000*4A"
172,0,0.000000,24.595884,"$GPGGA,172231.90,3721.8927446,N,07958.3620444,W,2,04,1.99,364.5703,M,-32.8284,M,1.3,0000*46"
173,0,0.000000,24.722341,"$GPGGA,172232.00,3721.8927648,N,07958.3620690,W,2,04,1.99,364.5868,M,-32.8284,M,1.4,0000*4E"
174,0,0.000000,24.799351,"$GPGGA,172232.10,3721.8927777,N,07958.3620976,W,2,04,1.99,364.5997,M,-32.8284,M,1.5,0000*45"
175,0,0.000000,24.904556,"$GPGGA,172232.20,3721.8927816,N,07958.3621223,W,2,04,1.99,364.5997,M,-32.8284,M,1.6,0000*47"
176,0,0.000000,24.999052,"$GPGGA,172232.30,3721.8927891,N,07958.3621417,W,2,04,1.99,364.6202,M,-32.8284,M,0.5,0000*4E"
176,0,0.000000,25.097485,"$GPGGA,172232.40,3721.8928017,N,07958.3621543,W,2,04,1.99,364.6492,M,-32.8284,M,0.6,0000*4C"
176,0,0.000000,25.196138,"$GPGGA,172232.50,3721.8928097,N,07958.3621573,W,2,04,1.99,364.6505,M,-32.8284,M,0.7,0000*48"
177,0,0.000000,25.295351,"$GPGGA,172232.60,3721.8928078,N,07958.3621568,W,2,04,1.99,364.6366,M,-32.8284,M,0.8,0000*4C"
177,0,0.000000,25.395571,"$GPGGA,172232.70,3721.8928076,N,07958.3621596,W,2,04,1.99,364.6384,M,-32.8284,M,0.9,0000*4F"
178,0,0.000000,25.498454,"$GPGGA,172232.80,3721.8928094,N,07958.3621578,W,2,04,1.99,364.6597,M,-32.8284,M,1.0,0000*40"
178,0,0.000000,25.599258,"$GPGGA,172232.90,3721.8928112,N,07958.3621547,W,2,04,1.99,364.6520,M,-32.8284,M,1.1,0000*4F"
179,0,0.000000,25.725598,"$GPGGA,172233.00,3721.8928097,N,07958.3621547,W,2,04,1.99,364.6484,M,-32.8284,M,1.2,0000*47"
179,0,0.000000,25.798394,"$GPGGA,172233.10,3721.8928104,N,07958.3621507,W,2,04,1.99,364.6492,M,-32.8284,M,1.3,0000*4F"
180,0,0.000000,25.896279,"$GPGGA,172233.20,3721.8928217,N,07958.3621487,W,2,04,1.99,364.6892,M,-32.8284,M,1.4,0000*4F"
180,0,0.000000,25.995536,"$GPGGA,172233.30,3721.8928428,N,07958.3621568,W,2,04,1.99,364.7440,M,-32.8284,M,0.3,0000*40"
181,0,0.000000,26.095957,"$GPGGA,172233.40,3721.8928702,N,07958.3621916,W,2,04,1.99,364.8360,M,-32.8284,M,0.4,0000*44"
181,0,0.000000,26.198485,"$GPGGA,172233.50,3721.8928948,N,07958.3622519,W,2,04,1.99,365.0068,M,-32.8284,M,0.5,0000*46"
182,0,0.000000,26.299745,"$GPGGA,172233.60,3721.8929167,N,07958.3621988,W,2,04,1.99,364.7694,M,-32.8284,M,0.6,0000*46"
184,0,0.000000,26.399462,"$GPGGA,172233.70,3721.8929357,N,07958.3622205,W,2,04,1.99,364.7549,M,-32.8284,M,0.7,0000*49"
185,0,0.000000,26.497379,"$GPGGA,172233.80,3721.8929689,N,07958.3622215,W,2,04,1.99,364.6579,M,-32.8284,M,0.8,0000*4C"
187,0,0.000000,26.596097,"$GPGGA,172233.90,3721.8929991,N,07958.3622185,W,2,04,1.99,364.6486,M,-32.8284,M,0.9,0000*41"
188,0,0.000000,26.721781,"$GPGGA,172234.00,3721.8930177,N,07958.3622258,W,2,04,1.99,364.6516,M,-32.8284,M,1.0,0000*44"
189,0,0.000000,26.795238,"$GPGGA,172234.10,3721.8930321,N,07958.3622406,W,2,04,1.99,364.6129,M,-32.8284,M,1.1,0000*40"
190,0,0.000000,26.899497,"$GPGGA,172234.20,3721.8930619,N,07958.3622781,W,2,04,1.99,364.5966,M,-32.8284,M,1.2,0000*42"
191,0,0.000000,26.998477,"$GPGGA,172234.30,3721.8930851,N,07958.3622907,W,2,04,1.99,364.6101,M,-32.8284,M,0.7,0000*4F"
192,0,0.000000,27.098563,"$GPGGA,172234.40,3721.8930991,N,07958.3622979,W,2,04,1.99,364.6291,M,-32.8284,M,0.8,0000*49"
193,0,0.000000,27.198797,"$GPGGA,172234.50,3721.8931199,N,07958.3623226,W,2,04,1.99,364.6368,M,-32.8284,M,0.9,0000*4F"
194,0,0.000000,27.296492,"$GPGGA,172234.60,3721.8931529,N,07958.3623168,W,2,04,1.99,364.6610,M,-32.8284,M,1.0,0000*48"
195,0,0.000000,27.396111,"$GPGGA,172234.70,3721.8931729,N,07958.3623238,W,2,04,1.99,364.6544,M,-32.8284,M,1.1,0000*4E"
197,0,0.000000,27.497349,"$GPGGA,172234.80,3721.8931916,N,07958.3623333,W,2,04,1.99,364.6728,M,-32.8284,M,1.2,0000*42"
199,0,0.000000,27.598263,"$GPGGA,172234.90,3721.8932088,N,07958.3623583,W,2,04,1.99,364.6994,M,-32.8284,M,1.3,0000*4B"
201,0,0.000000,27.725002,"$GPGGA,172235.00,3721.8932140,N,07958.3623854,W,2,04,1.99,364.6757,M,-32.8284,M,1.4,0000*47"
202,0,0.000000,27.798762,"$GPGGA,172235.10,3721.8932228,N,07958.3624093,W,2,04,1.99,364.6853,M,-32.8284,M,1.5,0000*45"
203,0,0.000000,27.898377,"$GPGGA,172235.20,3721.8932279,N,07958.3624351,W,2,04,1.99,364.6688,M,-32.8284,M,1.6,0000*44"
204,0,0.000000,27.995822,"$GPGGA,172235.30,3721.8932471,N,07958.3624720,W,2,04,1.99,364.6842,M,-32.8284,M,0.5,0000*43"
205,0,0.000000,28.095272,"$GPGGA,172235.40,3721.8932744,N,07958.3625003,W,2,04,1.99,364.6984,M,-32.8284,M,0.6,0000*4E"
207,0,0.000000,28.195022,"$GPGGA,172235.50,3721.8932981,N,07958.3625152,W,2,04,1.99,364.6742,M,-32.8284,M,0.7,0000*48"
208,0,0.000000,28.298866,"$GPGGA,172235.60,3721.8933158,N,07958.3625311,W,2,04,1.99,364.6614,M,-32.8284,M,0.8,0000*4E"
210,0,0.000000,28.398117,"$GPGGA,172235.70,3721.8933274,N,07958.3625570,W,2,04,1.99,364.6455,M,-32.8284,M,0.9,0000*45"
211,0,0.000000,28.498548,"$GPGGA,172235.80,3721.8933379,N,07958.3625792,W,2,04,1.99,364.6626,M,-32.8284,M,1.0,0000*46"
212,0,0.000000,28.598213,"$GPGGA,172235.90,3721.8933826,N,07958.3625948,W,2,04,1.99,364.7034,M,-32.8284,M,1.1,0000*4A"
214,0,0.000000,28.722477,"$GPGGA,172236.00,3721.8933376,N,07958.3625950,W,2,04,1.99,365.6788,M,-32.8284,M,1.2,0000*44"
215,0,0.000000,28.798069,"$GPGGA,172236.10,3721.8933723,N,07958.3626090,W,2,04,1.99,365.7172,M,-32.8284,M,1.3,0000*44"
216,0,0.000000,28.891421,"$GPGGA,172236.20,3721.8933743,N,07958.3626239,W,1,07,1.64,365.6226,M,-32.8284,M,,*6D"
217,0,0.000000,28.995611,"$GPGGA,172236.30,3721.8933659,N,07958.3626568,W,1,07,1.64,365.5526,M,-32.8284,M,,*61"
218,0,0.000000,29.095198,"$GPGGA,172236.40,3721.8933690,N,07958.3627029,W,1,07,1.64,365.5007,M,-32.8284,M,,*64"
219,0,0.000000,29.194835,"$GPGGA,172236.50,3721.8933854,N,07958.3627302,W,1,07,1.64,365.5166,M,-32.8284,M,,*6F"
220,0,0.000000,29.294595,"$GPGGA,172236.60,3721.8934033,N,07958.3627519,W,1,07,1.64,365.5679,M,-32.8284,M,,*67"
221,0,0.000000,29.392720,"$GPGGA,172236.70,3721.8934062,N,07958.3627664,W,1,07,1.64,365.5810,M,-32.8284,M,,*6A"
222,0,0.000000,29.491573,"$GPGGA,172236.80,3721.8934118,N,07958.3627901,W,1,07,1.64,365.5674,M,-32.8284,M,,*69"
223,0,0.000000,29.591814,"$GPGGA,172236.90,3721.8934383,N,07958.3628034,W,1,07,1.64,365.6047,M,-32.8284,M,,*6D"
225,0,0.000000,29.746493,"$GPGGA,172237.00,3721.8934698,N,07958.3628196,W,1,07,1.64,365.6139,M,-32.8284,M,,*6B"
226,0,0.000000,29.814333,"$GPGGA,172237.10,3721.8934936,N,07958.3628331,W,1,07,1.64,365.5886,M,-32.8284,M,,*60"
227,0,0.000000,29.894897,"$GPGGA,172237.20,3721.8935082,N,07958.3628575,W,1,07,1.64,365.5545,M,-32.8284,M,,*60"
228,0,0.000000,29.994534,"$GPGGA,172237.30,3721.8935353,N,07958.3628750,W,1,07,1.64,365.5406,M,-32.8284,M,,*6D"
229,0,0.000000,30.092596,"$GPGGA,172237.40,3721.8935581,N,07958.3628745,W,1,07,1.64,365.5290,M,-32.8284,M,,*6E"
230,0,0.000000,30.191628,"$GPGGA,172237.50,3721.8935765,N,07958.3628787,W,1,07,1.64,365.4669,M,-32.8284,M,,*6A"
230,0,0.000000,30.291779,"$GPGGA,172237.60,3721.8935851,N,07958.3629244,W,1,07,1.64,365.4486,M,-32.8284,M,,*69"
231,0,0.000000,30.391369,"$GPGGA,172237.70,3721.8935948,N,07958.3629460,W,1,07,1.64,365.4812,M,-32.8284,M,,*60"
232,0,0.000000,30.495438,"$GPGGA,172237.80,3721.8936126,N,07958.3629571,W,1,07,1.64,365.5338,M,-32.8284,M,,*6F"
232,0,0.000000,30.594645,"$GPGGA,172237.90,3721.8936193,N,07958.3629680,W,1,07,1.64,365.5121,M,-32.8284,M,,*67"
233,0,0.000000,30.745313,"$GPGGA,172238.00,3721.8936342,N,07958.3629771,W,1,07,1.64,365.5175,M,-32.8284,M,,*61"
234,0,0.000000,30.813112,"$GPGGA,172238.10,3721.8936452,N,07958.3629865,W,1,07,1.64,365.5200,M,-32.8284,M,,*6D"
234,0,0.000000,30.891277,"$GPGGA,172238.20,3721.8936610,N,07958.3629956,W,1,07,1.64,365.5230,M,-32.8284,M,,*68"
236,0,0.000000,30.991269,"$GPGGA,172238.30,3721.8936896,N,07958.3630051,W,1,07,1.64,365.5557,M,-32.8284,M,,*69"
237,0,0.000000,31.090848,"$GPGGA,172238.40,3721.8937142,N,07958.3630164,W,1,07,1.64,365.5732,M,-32.8284,M,,*69"
238,0,0.000000,31.194397,"$GPGGA,172238.50,3721.8937113,N,07958.3630411,W,1,07,1.64,365.5492,M,-32.8284,M,,*62"
239,0,0.000000,31.295037,"$GPGGA,172238.60,3721.8937640,N,07958.3630493,W,1,07,1.64,365.6833,M,-32.8284,M,,*6E"
240,0,0.000000,31.394723,"$GPGGA,172238.70,3721.8937841,N,07958.3630690,W,1,07,1.64,365.6656,M,-32.8284,M,,*6C"
242,0,0.000000,31.492639,"$GPGGA,172238.80,3721.8938029,N,07958.3630865,W,1,08,1.25,365.6226,M,-32.8284,M,,*67"
243,0,0.000000,31.591638,"$GPGGA,172238.90,3721.8938173,N,07958.3630808,W,1,08,1.25,365.6609,M,-32.8284,M,,*6A"
245,0,0.000000,31.743221,"$GPGGA,172239.00,3721.8938318,N,07958.3630830,W,1,08,1.25,365.6866,M,-32.8284,M,,*61"
246,0,0.000000,31.810964,"$GPGGA,172239.10,3721.8938468,N,07958.3631108,W,1,08,1.25,365.6475,M,-32.8284,M,,*6D"
247,0,0.000000,31.897322,"$GPGGA,172239.20,3721.8938754,N,07958.3631218,W,1,08,1.25,365.6666,M,-32.8284,M,,*60"
248,0,0.000000,31.997657,"$GPGGA,172239.30,3721.8939242,N,07958.3631150,W,1,08,1.25,365.6791,M,-32.8284,M,,*64"
250,0,0.000000,32.100861,"$GPGGA,172239.40,3721.8939338,N,07958.3631455,W,2,04,1.99,365.6526,M,-32.8284,M,0.4,0000*43"
251,0,0.000000,32.198608,"$GPGGA,172239.50,3721.8939372,N,07958.3631863,W,2,04,1.99,365.6710,M,-32.8284,M,0.5,0000*43"
253,0,0.000000,32.295133,"$GPGGA,172239.60,3721.8939658,N,07958.3632008,W,2,04,1.99,365.6562,M,-32.8284,M,0.6,0000*4F"
253,0,0.000000,32.395179,"$GPGGA,172239.70,3721.8939848,N,07958.3632110,W,2,04,1.99,365.6569,M,-32.8284,M,0.7,0000*43"
254,0,0.000000,32.498781,"$GPGGA,172239.80,3721.8939934,N,07958.3632227,W,2,04,1.99,365.6612,M,-32.8284,M,0.8,0000*41"
255,0,0.000000,32.598252,"$GPGGA,172239.90,3721.8940070,N,07958.3632413,W,2,04,1.99,365.6574,M,-32.8284,M,0.9,0000*44"
256,0,0.000000,32.724590,"$GPGGA,172240.00,3721.8940142,N,07958.3632616,W,2,04,1.99,365.6177,M,-32.8284,M,1.0,0000*4B"
257,0,0.000000,32.798147,"$GPGGA,172240.10,3721.8940303,N,07958.3632702,W,2,04,1.99,365.6302,M,-32.8284,M,1.1,0000*48"
257,0,0.000000,32.896414,"$GPGGA,172240.20,3721.8940702,N,07958.3632688,W,2,04,1.99,365.7253,M,-32.8284,M,1.2,0000*4A"
258,0,0.000000,32.995582,"$GPGGA,172240.30,3721.8941015,N,07958.3632745,W,2,04,1.99,365.7306,M,-32.8284,M,0.7,0000*4E"
259,0,0.000000,33.095233,"$GPGGA,172240.40,3721.8941178,N,07958.3632832,W,2,04,1.99,365.7104,M,-32.8284,M,0.8,0000*43"
259,0,0.000000,33.195421,"$GPGGA,172240.50,3721.8941214,N,07958.3632938,W,2,04,1.99,365.7174,M,-32.8284,M,0.9,0000*46"
259,0,0.000000,33.298377,"$GPGGA,172240.60,3721.8941268,N,07958.3633098,W,2,04,1.99,365.7222,M,-32.8284,M,1.0,0000*44"
259,0,0.000000,33.398673,"$GPGGA,172240.70,3721.8941241,N,07958.3633174,W,2,04,1.99,365.7352,M,-32.8284,M,1.1,0000*4A"
259,0,0.000000,33.497467,"$GPGGA,172240.80,3721.8941151,N,07958.3633075,W,2,04,1.99,365.6970,M,-32.8284,M,1.2,0000*4F"
259,0,0.000000,33.596511,"$GPGGA,172240.90,3721.8941055,N,07958.3633284,W,2,04,1.99,365.6983,M,-32.8284,M,1.3,0000*4A"
259,0,0.000000,33.722633,"$GPGGA,172241.00,3721.8941169,N,07958.3633215,W,2,04,1.99,365.7030,M,-32.8284,M,1.4,0000*43"
259,0,0.000000,33.795841,"$GPGGA,172241.10,3721.8941050,N,07958.3633153,W,2,04,1.99,365.6830,M,-32.8284,M,1.5,0000*40"
261,0,0.000000,33.898728,"$GPGGA,172241.20,3721.8941018,N,07958.3633170,W,2,04,1.99,365.6848,M,-32.8284,M,1.6,0000*42"
261,0,0.000000,33.998128,"$GPGGA,172241.30,3721.8941015,N,07958.3633179,W,2,04,1.99,365.6963,M,-32.8284,M,0.5,0000*4D"
261,0,0.000000,34.098510,"$GPGGA,172241.40,3721.8941115,N,07958.3633152,W,2,04,1.99,365.6998,M,-32.8284,M,0.6,0000*45"
261,0,0.000000,34.199976,"$GPGGA,172241.50,3721.8941327,N,07958.3633187,W,2,04,1.99,365.7495,M,-32.8284,M,0.7,0000*4F"
263,0,0.000000,34.297440,"$GPGGA,172241.60,3721.8941545,N,07958.3633178,W,2,04,1.99,365.7844,M,-32.8284,M,0.8,0000*41"
264,0,0.000000,34.395469,"$GPGGA,172241.70,3721.8941830,N,07958.3633143,W,2,04,1.99,365.8158,M,-32.8284,M,0.9,0000*4D"
266,0,0.000000,34.495546,"$GPGGA,172241.80,3721.8942060,N,07958.3633180,W,2,04,1.99,365.8403,M,-32.8284,M,1.0,0000*40"
268,0,0.000000,34.595259,"$GPGGA,172241.90,3721.8942295,N,07958.3633620,W,2,04,1.99,365.7447,M,-32.8284,M,1.1,0000*4A"
270,0,0.000000,34.725258,"$GPGGA,172242.00,3721.8942610,N,07958.3633729,W,2,04,1.99,365.7334,M,-32.8284,M,1.2,0000*41"
271,0,0.000000,34.798212,"$GPGGA,172242.10,3721.8942903,N,07958.3633611,W,2,04,1.99,365.7328,M,-32.8284,M,1.3,0000*4B"
272,0,0.000000,34.904576,"$GPGGA,172242.20,3721.8943119,N,07958.3633657,W,2,04,1.99,365.7873,M,-32.8284,M,1.4,0000*4A"
273,0,0.000000,34.996858,"$GPGGA,172242.30,3721.8943296,N,07958.3634194,W,2,04,1.99,365.6910,M,-32.8284,M,0.3,0000*43"
274,0,0.000000,35.095139,"$GPGGA,172242.40,3721.8943687,N,07958.3634074,W,2,04,1.99,365.7558,M,-32.8284,M,0.4,0000*49"
275,0,0.000000,35.194777,"$GPGGA,172242.50,3721.8944070,N,07958.3634180,W,2,04,1.99,365.7346,M,-32.8284,M,0.5,0000*43"
276,0,0.000000,35.295636,"$GPGGA,172242.60,3721.8944398,N,07958.3634076,W,2,04,1.99,365.7363,M,-32.8284,M,0.6,0000*49"
277,0,0.000000,35.398784,"$GPGGA,172242.70,3721.8944848,N,07958.3634042,W,2,04,1.99,365.7524,M,-32.8284,M,0.7,0000*4D"
278,0,0.000000,35.498275,"$GPGGA,172242.80,3721.8945049,N,07958.3634238,W,2,04,1.99,365.7283,M,-32.8284,M,0.8,0000*40"
279,0,0.000000,35.599850,"$GPGGA,172242.90,3721.8945349,N,07958.3634317,W,2,04,1.99,365.7022,M,-32.8284,M,0.9,0000*46"
280,0,0.000000,35.722633,"$GPGGA,172243.00,3721.8945594,N,07958.3634368,W,2,04,1.99,365.7157,M,-32.8284,M,1.0,0000*4B"
280,0,0.000000,35.795165,"$GPGGA,172243.10,3721.8945751,N,07958.3634516,W,2,04,1.99,365.6574,M,-32.8284,M,1.1,0000*4B"
281,0,0.000000,35.894936,"$GPGGA,172243.20,3721.8946063,N,07958.3634687,W,2,04,1.99,365.6643,M,-32.8284,M,1.2,0000*42"
282,0,0.000000,35.994424,"$GPGGA,172243.30,3721.8946331,N,07958.3634771,W,2,04,1.99,365.6866,M,-32.8284,M,0.7,0000*42"
284,0,0.000000,36.097833,"$GPGGA,172243.40,3721.8946685,N,07958.3634757,W,2,04,1.99,365.7370,M,-32.8284,M,0.8,0000*49"
284,0,0.000000,36.198794,"$GPGGA,172243.50,3721.8947081,N,07958.3634215,W,2,04,1.99,365.8596,M,-32.8284,M,0.9,0000*48"
285,0,0.000000,36.298573,"$GPGGA,172243.60,3721.8947372,N,07958.3634294,W,2,04,1.99,365.7979,M,-32.8284,M,1.0,0000*47"
285,0,0.000000,36.393181,"$GPGGA,172243.70,3721.8947566,N,07958.3634744,W,1,07,1.39,365.7132,M,-32.8284,M,,*6F"
285,0,0.000000,36.494998,"$GPGGA,172243.80,3721.8947601,N,07958.3635197,W,2,04,1.99,365.6640,M,-32.8284,M,1.2,0000*4F"
285,0,0.000000,36.594880,"$GPGGA,172243.90,3721.8947652,N,07958.3635183,W,2,04,1.99,365.6724,M,-32.8284,M,1.3,0000*4F"
286,0,0.000000,36.721638,"$GPGGA,172244.00,3721.8947744,N,07958.3635426,W,2,04,1.99,365.6916,M,-32.8284,M,1.4,0000*45"
287,0,0.000000,36.798580,"$GPGGA,172244.10,3721.8947903,N,07958.3635513,W,2,04,1.99,365.7100,M,-32.8284,M,1.5,0000*41"
287,0,0.000000,36.898091,"$GPGGA,172244.20,3721.8948115,N,07958.3635647,W,2,04,1.99,365.6614,M,-32.8284,M,1.6,0000*40"
288,0,0.000000,36.998388,"$GPGGA,172244.30,3721.8948320,N,07958.3635458,W,2,04,1.99,365.7341,M,-32.8284,M,0.5,0000*4F"
289,0,0.000000,37.097137,"$GPGGA,172244.40,3721.8948515,N,07958.3635157,W,2,04,1.99,365.7481,M,-32.8284,M,0.6,0000*4A"
291,0,0.000000,37.210437,"$GPGGA,172244.50,3721.8948741,N,07958.3634930,W,2,04,1.99,365.8152,M,-32.8284,M,0.7,0000*45"
292,0,0.000000,37.294682,"$GPGGA,172244.60,3721.8948908,N,07958.3635051,W,2,04,1.99,365.7619,M,-32.8284,M,0.8,0000*42"
294,0,0.000000,37.390856,"$GPGGA,172244.70,3721.8949199,N,07958.3634963,W,1,07,1.39,365.6573,M,-32.8284,M,,*69"
296,0,0.000000,37.506199,"$GPGGA,172244.80,3721.8949391,N,07958.3635259,W,1,07,1.39,365.6359,M,-32.8284,M,,*61"
297,0,0.000000,37.595017,"$GPGGA,172244.90,3721.8949562,N,07958.3635666,W,1,07,1.39,365.8196,M,-32.8284,M,,*6D"
299,0,0.000000,37.746786,"$GPGGA,172245.00,3721.8949776,N,07958.3635918,W,1,07,1.39,365.6496,M,-32.8284,M,,*6F"
300,0,0.000000,37.814652,"$GPGGA,172245.10,3721.8949969,N,07958.3636062,W,1,07,1.39,365.6402,M,-32.8284,M,,*64"
301,0,0.000000,37.900698,"$GPGGA,172245.20,3721.8950194,N,07958.3636087,W,1,07,1.39,365.6113,M,-32.8284,M,,*6B"
303,0,0.000000,37.990903,"$GPGGA,172245.30,3721.8950438,N,07958.3636175,W,1,07,1.39,365.6056,M,-32.8284,M,,*65"
305,0,0.000000,38.090611,"$GPGGA,172245.40,3721.8950867,N,07958.3636144,W,1,07,1.39,365.5888,M,-32.8284,M,,*6E"
307,0,0.000000,38.194675,"$GPGGA,172245.50,3721.8951422,N,07958.3635386,W,1,07,1.39,365.8769,M,-32.8284,M,,*61"
309,0,0.000000,38.294980,"$GPGGA,172245.60,3721.8951795,N,07958.3635484,W,1,07,1.39,365.9335,M,-32.8284,M,,*64"
311,0,0.000000,38.394582,"$GPGGA,172245.70,3721.8952123,N,07958.3636749,W,1,07,1.39,365.4655,M,-32.8284,M,,*62"
313,0,0.000000,38.492939,"$GPGGA,172245.80,3721.8952464,N,07958.3636805,W,1,07,1.39,365.4135,M,-32.8284,M,,*6D"
314,0,0.000000,38.590530,"$GPGGA,172245.90,3721.8952712,N,07958.3636837,W,1,07,1.39,365.3663,M,-32.8284,M,,*6C"
316,0,0.000000,38.720436,"$GPGGA,172246.00,3721.8952959,N,07958.3636911,W,2,04,1.99,365.3578,M,-32.8284,M,1.0,0000*4E"
317,0,0.000000,38.795266,"$GPGGA,172246.10,3721.8953329,N,07958.3637044,W,2,04,1.99,365.2172,M,-32.8284,M,1.1,0000*45"
318,0,0.000000,38.901199,"$GPGGA,172246.20,3721.8953612,N,07958.3637255,W,2,04,1.99,365.1134,M,-32.8284,M,1.2,0000*4B"
319,0,0.000000,38.997932,"$GPGGA,172246.30,3721.8953677,N,07958.3637114,W,2,04,1.99,365.3842,M,-32.8284,M,1.3,0000*44"
320,0,0.000000,39.098594,"$GPGGA,172246.40,3721.8953892,N,07958.3636844,W,2,04,1.99,365.3892,M,-32.8284,M,0.8,0000*4C"
321,0,0.000000,39.197537,"$GPGGA,172246.50,3721.8954157,N,07958.3636806,W,2,04,1.99,365.3793,M,-32.8284,M,0.9,0000*43"
323,0,0.000000,39.295928,"$GPGGA,172246.60,3721.8954368,N,07958.3636788,W,2,04,1.99,365.3861,M,-32.8284,M,1.0,0000*4D"
324,0,0.000000,39.395493,"$GPGGA,172246.70,3721.8954583,N,07958.3636712,W,2,04,1.99,365.4399,M,-32.8284,M,1.1,0000*46"
326,0,0.000000,39.496601,"$GPGGA,172246.80,3721.8954722,N,07958.3636676,W,2,04,1.99,365.6617,M,-32.8284,M,1.2,0000*41"
327,0,0.000000,39.597369,"$GPGGA,172246.90,3721.8954952,N,07958.3636782,W,2,04,1.99,365.7118,M,-32.8284,M,1.3,0000*4B"
329,0,0.000000,39.724600,"$GPGGA,172247.00,3721.8955190,N,07958.3636908,W,2,04,1.99,365.7571,M,-32.8284,M,1.4,0000*44"
330,0,0.000000,39.799121,"$GPGGA,172247.10,3721.8955382,N,07958.3637027,W,2,04,1.99,365.7262,M,-32.8284,M,1.5,0000*45"
331,0,0.000000,39.897587,"$GPGGA,172247.20,3721.8955756,N,07958.3637030,W,2,04,1.99,365.7479,M,-32.8284,M,1.6,0000*42"
333,0,0.000000,39.995475,"$GPGGA,172247.30,3721.8956037,N,07958.3637202,W,2,04,1.99,365.6924,M,-32.8284,M,0.5,0000*45"
334,0,0.000000,40.094932,"$GPGGA,172247.40,3721.8956338,N,07958.3637237,W,2,04,1.99,365.6729,M,-32.8284,M,0.6,0000*48"
336,0,0.000000,40.195246,"$GPGGA,172247.50,3721.8956624,N,07958.3637356,W,2,04,1.99,365.7343,M,-32.8284,M,0.7,0000*4F"
337,0,0.000000,40.298209,"$GPGGA,172247.60,3721.8956997,N,07958.3637115,W,2,04,1.99,365.7505,M,-32.8284,M,0.8,0000*45"
339,0,0.000000,40.398291,"$GPGGA,172247.70,3721.8957386,N,07958.3636988,W,2,04,1.99,365.8008,M,-32.8284,M,0.9,0000*44"
341,0,0.000000,40.498547,"$GPGGA,172247.80,3721.8957885,N,07958.3637160,W,2,04,1.99,365.8404,M,-32.8284,M,1.0,0000*4C"
343,0,0.000000,40.596915,"$GPGGA,172247.90,3721.8958297,N,07958.3637254,W,2,04,1.99,365.7978,M,-32.8284,M,1.1,0000*47"
345,0,0.000000,40.721333,"$GPGGA,172248.00,3721.8958782,N,07958.3637081,W,2,04,1.99,365.8738,M,-32.8284,M,1.2,0000*4C"
346,0,0.000000,40.795397,"$GPGGA,172248.10,3721.8959150,N,07958.3637274,W,2,04,1.99,365.9425,M,-32.8284,M,1.3,0000*42"
347,0,0.000000,40.895656,"$GPGGA,172248.20,3721.8959447,N,07958.3637443,W,2,04,1.99,365.9357,M,-32.8284,M,1.4,0000*45"
349,0,0.000000,40.999778,"$GPGGA,172248.30,3721.8959911,N,07958.3637085,W,2,04,1.99,365.8332,M,-32.8284,M,0.3,0000*40"
350,0,0.000000,41.099340,"$GPGGA,172248.40,3721.8960276,N,07958.3637329,W,2,04,1.99,365.8456,M,-32.8284,M,0.4,0000*40"
352,0,0.000000,41.198950,"$GPGGA,172248.50,3721.8960391,N,07958.3637337,W,2,04,1.99,365.8209,M,-32.8284,M,0.5,0000*4B"
354,0,0.000000,41.298629,"$GPGGA,172248.60,3721.8960571,N,07958.3637379,W,2,04,1.99,365.7940,M,-32.8284,M,0.6,0000*40"
356,0,0.000000,41.395745,"$GPGGA,172248.70,3721.8960509,N,07958.3637575,W,2,04,1.99,365.6833,M,-32.8284,M,0.7,0000*41"
358,0,0.000000,41.494421,"$GPGGA,172248.80,3721.8960524,N,07958.3637441,W,2,04,1.99,365.6262,M,-32.8284,M,0.8,0000*46"
360,0,0.000000,41.595021,"$GPGGA,172248.90,3721.8961284,N,07958.3637416,W,2,04,1.99,365.7679,M,-32.8284,M,0.9,0000*47"
363,0,0.000000,41.724697,"$GPGGA,172249.00,3721.8961555,N,07958.3637291,W,2,04,1.99,365.7521,M,-32.8284,M,1.0,0000*4B"
364,0,0.000000,41.798867,"$GPGGA,172249.10,3721.8961935,N,07958.3636700,W,2,04,1.99,365.8767,M,-32.8284,M,1.1,0000*42"
366,0,0.000000,41.899235,"$GPGGA,172249.20,3721.8962491,N,07958.3636484,W,2,04,1.99,365.8455,M,-32.8284,M,1.2,0000*4F"
368,0,0.000000,41.998156,"$GPGGA,172249.30,3721.8962822,N,07958.3636445,W,2,04,1.99,365.8670,M,-32.8284,M,0.7,0000*46"
369,0,0.000000,42.095682,"$GPGGA,172249.40,3721.8963184,N,07958.3636847,W,2,04,1.99,365.8494,M,-32.8284,M,0.8,0000*4C"
371,0,0.000000,42.197247,"$GPGGA,172249.50,3721.8963531,N,07958.3636733,W,2,04,1.99,365.8265,M,-32.8284,M,0.9,0000*42"
373,0,0.000000,42.295029,"$GPGGA,172249.60,3721.8964064,N,07958.3636646,W,2,04,1.99,365.8501,M,-32.8284,M,1.0,0000*4D"
374,0,0.000000,42.398328,"$GPGGA,172249.70,3721.8964271,N,07958.3636639,W,2,04,1.99,365.8582,M,-32.8284,M,1.1,0000*48"
376,0,0.000000,42.498060,"$GPGGA,172249.80,3721.8964707,N,07958.3636478,W,2,04,1.99,365.9475,M,-32.8284,M,1.2,0000*4F"
378,0,0.000000,42.597848,"$GPGGA,172249.90,3721.8965140,N,07958.3635949,W,2,04,1.99,366.1368,M,-32.8284,M,1.3,0000*47"
380,0,0.000000,42.724009,"$GPGGA,172250.00,3721.8965464,N,07958.3636054,W,2,04,1.99,366.1349,M,-32.8284,M,1.4,0000*47"
381,0,0.000000,42.795678,"$GPGGA,172250.10,3721.8965913,N,07958.3636117,W,2,04,1.99,366.1521,M,-32.8284,M,1.5,0000*44"
382,0,0.000000,42.898082,"$GPGGA,172250.20,3721.8966440,N,07958.3635965,W,2,04,1.99,366.2775,M,-32.8284,M,1.6,0000*42"
384,0,0.000000,42.995262,"$GPGGA,172250.30,3721.8967516,N,07958.3635403,W,2,04,1.99,366.6187,M,-32.8284,M,1.7,0000*43"
385,0,0.000000,43.098223,"$GPGGA,172250.40,3721.8966502,N,07958.3636237,W,2,04,1.99,366.0625,M,-32.8284,M,0.6,0000*4B"
386,0,0.000000,43.198438,"$GPGGA,172250.50,3721.8967741,N,07958.3635836,W,2,04,1.99,366.5133,M,-32.8284,M,0.7,0000*42"
388,0,0.000000,43.298801,"$GPGGA,172250.60,3721.8968613,N,07958.3635621,W,2,04,1.99,366.5816,M,-32.8284,M,0.8,0000*41"
389,0,0.000000,43.397848,"$GPGGA,172250.70,3721.8967534,N,07958.3636469,W,2,04,1.99,366.0540,M,-32.8284,M,0.9,0000*4E"
390,0,0.000000,43.495935,"$GPGGA,172250.80,3721.8967810,N,07958.3636536,W,2,04,1.99,366.0638,M,-32.8284,M,1.0,0000*45"
392,0,0.000000,43.595661,"$GPGGA,172250.90,3721.8968099,N,07958.3636504,W,2,04,1.99,366.0605,M,-32.8284,M,1.1,0000*4C"
393,0,0.000000,43.725239,"$GPGGA,172251.00,3721.8968381,N,07958.3636480,W,2,04,1.99,366.0501,M,-32.8284,M,1.2,0000*47"
394,0,0.000000,43.798345,"$GPGGA,172251.10,3721.8968619,N,07958.3636421,W,2,04,1.99,366.0529,M,-32.8284,M,1.3,0000*42"
395,0,0.000000,43.897516,"$GPGGA,172251.20,3721.8968897,N,07958.3636445,W,2,04,1.99,366.0693,M,-32.8284,M,1.4,0000*4E"
396,0,0.000000,43.998829,"$GPGGA,172251.30,3721.8969171,N,07958.3636475,W,2,04,1.99,366.1083,M,-32.8284,M,0.3,0000*4C"
397,0,0.000000,44.098462,"$GPGGA,172251.40,3721.8969434,N,07958.3636611,W,2,04,1.99,366.1415,M,-32.8284,M,0.4,0000*43"
399,0,0.000000,44.196167,"$GPGGA,172251.50,3721.8969701,N,07958.3636766,W,2,04,1.99,366.1268,M,-32.8284,M,0.5,0000*4B"
400,0,0.000000,44.294827,"$GPGGA,172251.60,3721.8970044,N,07958.3637026,W,2,04,1.99,366.1045,M,-32.8284,M,0.6,0000*4A"
401,0,0.000000,44.395123,"$GPGGA,172251.70,3721.8970395,N,07958.3637138,W,2,04,1.99,366.0885,M,-32.8284,M,0.7,0000*4E"
403,0,0.000000,44.494688,"$GPGGA,172251.80,3721.8970710,N,07958.3637290,W,2,04,1.99,366.0813,M,-32.8284,M,0.8,0000*49"
405,0,0.000000,44.598416,"$GPGGA,172251.90,3721.8970992,N,07958.3637303,W,2,04,1.99,366.0775,M,-32.8284,M,0.9,0000*49"
407,0,0.000000,44.724447,"$GPGGA,172252.00,3721.8971352,N,07958.3637379,W,2,04,1.99,366.0806,M,-32.8284,M,1.0,0000*4A"
408,0,0.000000,44.797684,"$GPGGA,172252.10,3721.8971693,N,07958.3637509,W,2,04,1.99,366.0104,M,-32.8284,M,1.1,0000*48"
410,0,0.000000,44.897193,"$GPGGA,172252.20,3721.8972029,N,07958.3637574,W,2,04,1.99,366.0348,M,-32.8284,M,1.2,0000*4C"
412,0,0.000000,44.996537,"$GPGGA,172252.30,3721.8972513,N,07958.3637448,W,2,04,1.99,366.0361,M,-32.8284,M,0.7,0000*40"
413,0,0.000000,45.095202,"$GPGGA,172252.40,3721.8972875,N,07958.3637679,W,2,04,1.99,365.8474,M,-32.8284,M,0.8,0000*4D"
415,0,0.000000,45.199252,"$GPGGA,172252.50,3721.8973121,N,07958.3637938,W,2,04,1.99,365.7840,M,-32.8284,M,0.9,0000*4A"
417,0,0.000000,45.297599,"$GPGGA,172252.60,3721.8973290,N,07958.3638400,W,2,04,1.99,365.6615,M,-32.8284,M,1.0,0000*4E"
418,0,0.000000,45.393513,"$GPGGA,172252.70,3721.8973796,N,07958.3638159,W,1,07,1.39,365.8868,M,-32.8284,M,,*6A"
420,0,0.000000,45.498534,"$GPGGA,172252.80,3721.8974253,N,07958.3638016,W,2,04,1.99,365.8424,M,-32.8284,M,1.2,0000*47"
421,0,0.000000,45.595307,"$GPGGA,172252.90,3721.8974670,N,07958.3638020,W,2,04,1.99,365.8422,M,-32.8284,M,1.3,0000*41"
423,0,0.000000,45.720894,"$GPGGA,172253.00,3721.8975043,N,07958.3637954,W,2,04,1.99,365.9476,M,-32.8284,M,1.4,0000*4C"
424,0,0.000000,45.794896,"$GPGGA,172253.10,3721.8975274,N,07958.3638158,W,2,04,1.99,365.8811,M,-32.8284,M,1.5,0000*4D"
425,0,0.000000,45.894125,"$GPGGA,172253.20,3721.8975886,N,07958.3637770,W,2,04,1.99,365.9538,M,-32.8284,M,1.6,0000*4E"
427,0,0.000000,45.998408,"$GPGGA,172253.30,3721.8975991,N,07958.3638151,W,2,04,1.99,365.8754,M,-32.8284,M,0.5,0000*49"
428,0,0.000000,46.098867,"$GPGGA,172253.40,3721.8976382,N,07958.3638090,W,2,04,1.99,366.0278,M,-32.8284,M,0.6,0000*4A"
430,0,0.000000,46.199918,"$GPGGA,172253.50,3721.8976737,N,07958.3637767,W,2,04,1.99,366.1584,M,-32.8284,M,0.7,0000*45"
431,0,0.000000,46.295797,"$GPGGA,172253.60,3721.8976983,N,07958.3638106,W,2,04,1.99,365.8620,M,-32.8284,M,0.8,0000*41"
433,0,0.000000,46.395165,"$GPGGA,172253.70,3721.8977402,N,07958.3638014,W,2,04,1.99,366.0453,M,-32.8284,M,0.9,0000*4B"
434,0,0.000000,46.495089,"$GPGGA,172253.80,3721.8977595,N,07958.3638183,W,2,04,1.99,365.9942,M,-32.8284,M,1.0,0000*4B"
436,0,0.000000,46.597899,"$GPGGA,172253.90,3721.8977772,N,07958.3638301,W,2,04,1.99,365.9365,M,-32.8284,M,1.1,0000*47"
438,0,0.000000,46.724869,"$GPGGA,172254.00,3721.8978075,N,07958.3638489,W,2,04,1.99,365.9374,M,-32.8284,M,1.2,0000*42"
439,0,0.000000,46.798793,"$GPGGA,172254.10,3721.8978372,N,07958.3638544,W,2,04,1.99,365.9053,M,-32.8284,M,1.3,0000*40"
441,0,0.000000,46.900353,"$GPGGA,172254.20,3721.8978795,N,07958.3638091,W,2,04,1.99,365.9955,M,-32.8284,M,1.4,0000*4B"
443,0,0.000000,46.996165,"$GPGGA,172254.30,3721.8978925,N,07958.3638201,W,2,04,1.99,365.9622,M,-32.8284,M,1.5,0000*4A"
444,0,0.000000,47.095041,"$GPGGA,172254.40,3721.8979091,N,07958.3638212,W,2,04,1.99,365.9489,M,-32.8284,M,0.4,0000*4B"
446,0,0.000000,47.194215,"$GPGGA,172254.50,3721.8979292,N,07958.3638355,W,2,04,1.99,365.8105,M,-32.8284,M,0.5,0000*48"
448,0,0.000000,47.295009,"$GPGGA,172254.60,3721.8979728,N,07958.3638032,W,2,04,1.99,365.8736,M,-32.8284,M,0.6,0000*48"
450,0,0.000000,47.397928,"$GPGGA,172254.70,3721.8980049,N,07958.3637951,W,2,04,1.99,365.9201,M,-32.8284,M,0.7,0000*4D"
452,0,0.000000,47.510394,"$GPGGA,172254.80,3721.8980329,N,07958.3638187,W,2,04,1.99,365.7957,M,-32.8284,M,0.8,0000*42"
453,0,0.000000,47.597712,"$GPGGA,172254.90,3721.8980593,N,07958.3638183,W,2,04,1.99,365.8062,M,-32.8284,M,0.9,0000*41"
455,0,0.000000,47.721719,"$GPGGA,172255.00,3721.8980891,N,07958.3637999,W,2,04,1.99,365.8340,M,-32.8284,M,1.0,0000*41"
456,0,0.000000,47.795194,"$GPGGA,172255.10,3721.8981179,N,07958.3637973,W,2,04,1.99,365.8485,M,-32.8284,M,1.1,0000*45"
457,0,0.000000,47.895216,"$GPGGA,172255.20,3721.8981299,N,07958.3637947,W,2,04,1.99,365.8420,M,-32.8284,M,1.2,0000*40"
458,0,0.000000,47.994965,"$GPGGA,172255.30,3721.8981271,N,07958.3638016,W,2,04,1.99,365.7826,M,-32.8284,M,1.3,0000*41"
459,0,0.000000,48.098074,"$GPGGA,172255.40,3721.8981501,N,07958.3637992,W,2,04,1.99,365.7336,M,-32.8284,M,0.8,0000*4C"
460,0,0.000000,48.198206,"$GPGGA,172255.50,3721.8981624,N,07958.3638139,W,2,04,1.99,365.7764,M,-32.8284,M,0.9,0000*4D"
461,0,0.000000,48.297599,"$GPGGA,172255.60,3721.8981720,N,07958.3638221,W,2,04,1.99,365.7010,M,-32.8284,M,1.0,0000*4D"
462,0,0.000000,48.395511,"$GPGGA,172255.70,3721.8981894,N,07958.3638392,W,2,04,1.99,365.7203,M,-32.8284,M,1.1,0000*44"
463,0,0.000000,48.494556,"$GPGGA,172255.80,3721.8981979,N,07958.3638528,W,2,04,1.99,365.6582,M,-32.8284,M,1.2,0000*42"
465,0,0.000000,48.594195,"$GPGGA,172255.90,3721.8981823,N,07958.3638447,W,2,04,1.99,365.4620,M,-32.8284,M,1.3,0000*4D"
467,0,0.000000,48.722867,"$GPGGA,172256.00,3721.8981964,N,07958.3638421,W,2,04,1.99,365.3999,M,-32.8284,M,1.4,0000*48"
468,0,0.000000,48.797912,"$GPGGA,172256.10,3721.8982248,N,07958.3638360,W,2,04,1.99,365.3777,M,-32.8284,M,1.5,0000*42"
470,0,0.000000,48.898276,"$GPGGA,172256.20,3721.8982522,N,07958.3638630,W,2,04,1.99,365.4815,M,-32.8284,M,1.6,0000*45"
472,0,0.000000,49.000358,"$GPGGA,172256.30,3721.8982759,N,07958.3638592,W,2,04,1.99,365.3772,M,-32.8284,M,1.7,0000*49"
473,0,0.000000,49.097386,"$GPGGA,172256.40,3721.8983133,N,07958.3638667,W,2,04,1.99,365.3463,M,-32.8284,M,0.6,0000*4F"
475,0,0.000000,49.195700,"$GPGGA,172256.50,3721.8983395,N,07958.3639202,W,2,04,1.99,365.6702,M,-32.8284,M,0.7,0000*46"
477,0,0.000000,49.295309,"$GPGGA,172256.60,3721.8983516,N,07958.3639683,W,2,04,1.99,365.9714,M,-32.8284,M,0.8,0000*42"
478,0,0.000000,49.395315,"$GPGGA,172256.70,3721.8984297,N,07958.3637886,W,2,04,1.99,365.8652,M,-32.8284,M,0.9,0000*4C"
480,0,0.000000,49.498913,"$GPGGA,172256.80,3721.8984322,N,07958.3637517,W,2,04,1.99,366.2604,M,-32.8284,M,1.0,0000*4B"
481,0,0.000000,49.597965,"$GPGGA,172256.90,3721.8984617,N,07958.3637512,W,2,04,1.99,366.2813,M,-32.8284,M,1.1,0000*45"
483,0,0.000000,49.724417,"$GPGGA,172257.00,3721.8984993,N,07958.3637618,W,2,04,1.99,366.2785,M,-32.8284,M,1.2,0000*44"
484,0,0.000000,49.795854,"$GPGGA,172257.10,3721.8985328,N,07958.3637487,W,2,04,1.99,366.1827,M,-32.8284,M,1.3,0000*4F"
486,0,0.000000,49.895011,"$GPGGA,172257.20,3721.8985662,N,07958.3637384,W,2,04,1.99,366.2561,M,-32.8284,M,1.4,0000*48"
487,0,0.000000,49.994455,"$GPGGA,172257.30,3721.8986052,N,07958.3637435,W,2,04,1.99,366.3291,M,-32.8284,M,1.5,0000*4A"
489,0,0.000000,50.094224,"$GPGGA,172257.40,3721.8986226,N,07958.3637537,W,2,04,1.99,366.3035,M,-32.8284,M,0.4,0000*43"
490,0,0.000000,50.197571,"$GPGGA,172257.50,3721.8986469,N,07958.3637401,W,2,04,1.99,366.3211,M,-32.8284,M,0.5,0000*4E"
491,0,0.000000,50.300888,"$GPGGA,172257.60,3721.8986737,N,07958.3637504,W,2,04,1.99,366.3603,M,-32.8284,M,0.6,0000*45"
493,0,0.000000,50.397499,"$GPGGA,172257.70,3721.8986999,N,07958.3637645,W,2,04,1.99,366.3916,M,-32.8284,M,0.7,0000*42"
494,0,0.000000,50.496578,"$GPGGA,172257.80,3721.8987350,N,07958.3637111,W,2,04,1.99,366.2120,M,-32.8284,M,0.8,0000*46"
495,0,0.000000,50.595214,"$GPGGA,172257.90,3721.8987780,N,07958.3636994,W,2,04,1.99,366.2969,M,-32.8284,M,0.9,0000*4E"
497,0,0.000000,50.724350,"$GPGGA,172258.00,3721.8988136,N,07958.3636891,W,2,04,1.99,366.2292,M,-32.8284,M,1.0,0000*4F"
498,0,0.000000,50.794644,"$GPGGA,172258.10,3721.8988403,N,07958.3636805,W,2,04,1.99,366.2541,M,-32.8284,M,1.1,0000*48"
500,0,0.000000,50.898340,"$GPGGA,172258.20,3721.8988740,N,07958.3636594,W,2,04,1.99,366.2781,M,-32.8284,M,1.2,0000*47"
501,0,0.000000,50.998429,"$GPGGA,172258.30,3721.8989126,N,07958.3636738,W,2,04,1.99,366.3795,M,-32.8284,M,1.3,0000*40"
503,0,0.000000,51.097888,"$GPGGA,172258.40,3721.8989452,N,07958.3637031,W,2,04,1.99,366.4073,M,-32.8284,M,0.8,0000*4C"
504,0,0.000000,51.195774,"$GPGGA,172258.50,3721.8989780,N,07958.3636927,W,2,04,1.99,366.2998,M,-32.8284,M,0.9,0000*45"
506,0,0.000000,51.294824,"$GPGGA,172258.60,3721.8990115,N,07958.3637148,W,2,04,1.99,366.3449,M,-32.8284,M,1.0,0000*4C"
507,0,0.000000,51.394436,"$GPGGA,172258.70,3721.8990557,N,07958.3637308,W,2,04,1.99,366.4912,M,-32.8284,M,1.1,0000*4C"
508,0,0.000000,51.494370,"$GPGGA,172258.80,3721.8990559,N,07958.3637473,W,2,04,1.99,366.6173,M,-32.8284,M,1.2,0000*48"
509,0,0.000000,51.598669,"$GPGGA,172258.90,3721.8991483,N,07958.3637717,W,2,04,1.99,365.0670,M,-32.8284,M,1.3,0000*4F"
510,0,0.000000,51.724297,"$GPGGA,172259.00,3721.8991624,N,07958.3637575,W,2,04,1.99,365.0911,M,-32.8284,M,1.4,0000*41"
512,0,0.000000,51.798034,"$GPGGA,172259.10,3721.8991519,N,07958.3637773,W,2,04,1.99,365.0457,M,-32.8284,M,1.5,0000*47"
513,0,0.000000,51.896859,"$GPGGA,172259.20,3721.8991841,N,07958.3637945,W,2,04,1.99,364.9985,M,-32.8284,M,1.6,0000*46"
515,0,0.000000,51.996548,"$GPGGA,172259.30,3721.8992046,N,07958.3637890,W,2,04,1.99,364.9726,M,-32.8284,M,1.7,0000*44"
517,0,0.000000,52.100546,"$GPGGA,172259.40,3721.8992532,N,07958.3637916,W,2,04,1.99,364.9790,M,-32.8284,M,0.6,0000*47"
519,0,0.000000,52.194325,"$GPGGA,172259.50,3721.8992978,N,07958.3637684,W,2,04,1.99,365.0106,M,-32.8284,M,0.7,0000*40"
522,0,0.000000,52.298222,"$GPGGA,172259.60,3721.8993398,N,07958.3637774,W,2,04,1.99,365.0580,M,-32.8284,M,0.8,0000*4D"
524,0,0.000000,52.398392,"$GPGGA,172259.70,3721.8993925,N,07958.3637653,W,2,04,1.99,365.0229,M,-32.8284,M,0.9,0000*41"
525,0,0.000000,52.498603,"$GPGGA,172259.80,3721.8994190,N,07958.3637592,W,2,04,1.99,365.0392,M,-32.8284,M,1.0,0000*48"
527,0,0.000000,52.596960,"$GPGGA,172259.90,3721.8994674,N,07958.3637190,W,2,04,1.99,364.9590,M,-32.8284,M,1.1,0000*4F"
529,0,0.000000,52.720721,"$GPGGA,172300.00,3721.8994853,N,07958.3637238,W,2,04,1.99,364.9293,M,-32.8284,M,1.2,0000*46"
531,0,0.000000,52.794267,"$GPGGA,172300.10,3721.8995030,N,07958.3637338,W,2,04,1.99,364.8881,M,-32.8284,M,1.3,0000*43"
532,0,0.000000,52.894318,"$GPGGA,172300.20,3721.8995410,N,07958.3637274,W,2,04,1.99,364.8637,M,-32.8284,M,1.4,0000*4B"
533,0,0.000000,52.997760,"$GPGGA,172300.30,3721.8995811,N,07958.3637254,W,2,04,1.99,364.9562,M,-32.8284,M,0.3,0000*41"
535,0,0.000000,53.098295,"$GPGGA,172300.40,3721.8996130,N,07958.3637015,W,2,04,1.99,364.9774,M,-32.8284,M,0.4,0000*4A"
537,0,0.000000,53.201138,"$GPGGA,172300.50,3721.8996445,N,07958.3636670,W,2,04,1.99,364.9106,M,-32.8284,M,0.5,0000*4A"
539,0,0.000000,53.296906,"$GPGGA,172300.60,3721.8997022,N,07958.3637190,W,2,04,1.99,365.0189,M,-32.8284,M,0.6,0000*49"
541,0,0.000000,53.394398,"$GPGGA,172300.70,3721.8997486,N,07958.3636876,W,2,04,1.99,364.9866,M,-32.8284,M,0.7,0000*43"
543,0,0.000000,53.494570,"$GPGGA,172300.80,3721.8997666,N,07958.3636768,W,2,04,1.99,364.9638,M,-32.8284,M,0.8,0000*4A"
545,0,0.000000,53.594722,"$GPGGA,172300.90,3721.8997905,N,07958.3636459,W,2,04,1.99,364.9100,M,-32.8284,M,0.9,0000*4D"
547,0,0.000000,53.730957,"$GPGGA,172301.00,3721.8998009,N,07958.3637037,W,2,04,1.99,364.9268,M,-32.8284,M,1.0,0000*47"
549,0,0.000000,53.797951,"$GPGGA,172301.10,3721.8998100,N,07958.3637060,W,2,04,1.99,364.9237,M,-32.8284,M,1.1,0000*47"
550,0,0.000000,53.897703,"$GPGGA,172301.20,3721.8998415,N,07958.3636435,W,2,04,1.99,364.6574,M,-32.8284,M,1.2,0000*4C"
552,0,0.000000,53.996616,"$GPGGA,172301.30,3721.8998688,N,07958.3636393,W,2,04,1.99,364.6662,M,-32.8284,M,0.7,0000*40"
553,0,0.000000,54.094914,"$GPGGA,172301.40,3721.8998989,N,07958.3636576,W,2,04,1.99,364.6877,M,-32.8284,M,0.8,0000*41"
