;GPS@@@
;Ver=1.1.0
;DIP=2009-00152-00
;Date=2026-Jan-12 11:37:56
;----------------------------------------------------------------------------------------------------------------------------------------------------------------------------------------
traces,odo_tick,pos(m),time_elapsed(s),GPS
2,0,0.000000,3.377665,"$GPGGA,171802.50,3721.9050805,N,07958.3638455,W,2,05,1.81,360.0087,M,-32.8284,M,0.7,0000*4E"
2,0,0.000000,3.475922,"$GPGGA,171802.60,3721.9050768,N,07958.3638420,W,2,05,1.81,360.0204,M,-32.8284,M,0.8,0000*4D"
2,0,0.000000,3.575551,"$GPGGA,171802.70,3721.9050663,N,07958.3638332,W,2,05,1.81,360.0521,M,-32.8284,M,0.9,0000*43"
3,0,0.000000,3.675170,"$GPGGA,171802.80,3721.9050487,N,07958.3638393,W,2,05,1.81,360.0205,M,-32.8284,M,1.0,0000*46"
4,0,0.000000,3.778906,"$GPGGA,171802.90,3721.9050277,N,07958.3638489,W,2,05,1.81,359.9729,M,-32.8284,M,1.1,0000*4B"
5,0,0.000000,3.908157,"$GPGGA,171803.00,3721.9050144,N,07958.3638505,W,2,05,1.81,359.9494,M,-32.8284,M,1.2,0000*43"
5,0,0.000000,3.978696,"$GPGGA,171803.10,3721.9049840,N,07958.3638615,W,2,05,1.81,359.7921,M,-32.8284,M,1.3,0000*49"
6,0,0.000000,4.079786,"$GPGGA,171803.20,3721.9049546,N,07958.3638795,W,2,05,1.81,359.6658,M,-32.8284,M,1.4,0000*4F"
7,0,0.000000,4.175706,"$GPGGA,171803.30,3721.9049495,N,07958.3638791,W,2,05,1.81,359.8709,M,-32.8284,M,0.3,0000*48"
8,0,0.000000,4.275490,"$GPGGA,171803.40,3721.9049353,N,07958.3638875,W,2,05,1.81,359.8543,M,-32.8284,M,0.4,0000*4C"
9,0,0.000000,4.375513,"$GPGGA,171803.50,3721.9049160,N,07958.3639053,W,2,05,1.81,359.8328,M,-32.8284,M,0.5,0000*48"
10,0,0.000000,4.479041,"$GPGGA,171803.60,3721.9049062,N,07958.3639055,W,2,05,1.81,359.9019,M,-32.8284,M,0.6,0000*4D"
11,0,0.000000,4.581527,"$GPGGA,171803.70,3721.9049034,N,07958.3638772,W,2,05,1.81,360.0362,M,-32.8284,M,0.7,0000*41"
12,0,0.000000,4.679121,"$GPGGA,171803.80,3721.9048803,N,07958.3638825,W,2,05,1.81,360.0086,M,-32.8284,M,0.8,0000*48"
13,0,0.000000,4.783296,"$GPGGA,171803.90,3721.9048486,N,07958.3639140,W,2,05,1.81,359.9869,M,-32.8284,M,0.9,0000*48"
15,0,0.000000,4.902962,"$GPGGA,171804.00,3721.9048263,N,07958.3639323,W,2,05,1.81,359.9663,M,-32.8284,M,1.0,0000*40"
16,0,0.000000,4.975235,"$GPGGA,171804.10,3721.9048030,N,07958.3639393,W,2,05,1.81,359.9883,M,-32.8284,M,1.1,0000*4F"
17,0,0.000000,5.074733,"$GPGGA,171804.20,3721.9047796,N,07958.3639524,W,2,05,1.81,359.9849,M,-32.8284,M,1.2,0000*47"
18,0,0.000000,5.178670,"$GPGGA,171804.30,3721.9047436,N,07958.3639541,W,2,05,1.81,359.9744,M,-32.8284,M,0.7,0000*4A"
19,0,0.000000,5.277655,"$GPGGA,171804.40,3721.9047222,N,07958.3639575,W,2,05,1.81,359.9962,M,-32.8284,M,0.8,0000*4C"
20,0,0.000000,5.378375,"$GPGGA,171804.50,3721.9047061,N,07958.3639649,W,2,05,1.81,360.0029,M,-32.8284,M,0.9,0000*40"
22,0,0.000000,5.477797,"$GPGGA,171804.60,3721.9046817,N,07958.3639745,W,2,05,1.81,360.0283,M,-32.8284,M,1.0,0000*4C"
23,0,0.000000,5.575592,"$GPGGA,171804.70,3721.9046496,N,07958.3639865,W,2,05,1.81,360.0196,M,-32.8284,M,1.1,0000*43"
24,0,0.000000,5.675049,"$GPGGA,171804.80,3721.9046332,N,07958.3639936,W,2,05,1.81,360.0176,M,-32.8284,M,1.2,0000*4F"
25,0,0.000000,5.780417,"$GPGGA,171804.90,3721.9046136,N,07958.3640132,W,2,05,1.81,360.0211,M,-32.8284,M,1.3,0000*49"
26,0,0.000000,5.907288,"$GPGGA,171805.00,3721.9045863,N,07958.3640304,W,2,05,1.81,360.0086,M,-32.8284,M,1.4,0000*47"
27,0,0.000000,5.978569,"$GPGGA,171805.10,3721.9045628,N,07958.3640253,W,2,05,1.81,360.0301,M,-32.8284,M,1.5,0000*49"
28,0,0.000000,6.078415,"$GPGGA,171805.20,3721.9045492,N,07958.3640276,W,2,05,1.81,360.0669,M,-32.8284,M,1.6,0000*46"
28,0,0.000000,6.177982,"$GPGGA,171805.30,3721.9045373,N,07958.3640302,W,2,05,1.81,360.0785,M,-32.8284,M,0.5,0000*4C"
29,0,0.000000,6.275612,"$GPGGA,171805.40,3721.9045248,N,07958.3640257,W,2,05,1.81,360.0694,M,-32.8284,M,0.6,0000*41"
30,0,0.000000,6.375396,"$GPGGA,171805.50,3721.9045065,N,07958.3640354,W,2,05,1.81,360.0686,M,-32.8284,M,0.7,0000*4D"
31,0,0.000000,6.476198,"$GPGGA,171805.60,3721.9044762,N,07958.3640550,W,2,05,1.81,360.0579,M,-32.8284,M,0.8,0000*41"
33,0,0.000000,6.578469,"$GPGGA,171805.70,3721.9044496,N,07958.3640805,W,2,05,1.81,360.0152,M,-32.8284,M,0.9,0000*49"
34,0,0.000000,6.679978,"$GPGGA,171805.80,3721.9044388,N,07958.3640981,W,2,05,1.81,360.0104,M,-32.8284,M,1.0,0000*48"
35,0,0.000000,6.783267,"$GPGGA,171805.90,3721.9044257,N,07958.3641013,W,2,05,1.81,360.0321,M,-32.8284,M,1.1,0000*4D"
36,0,0.000000,6.904825,"$GPGGA,171806.00,3721.9044045,N,07958.3640974,W,2,05,1.81,360.0224,M,-32.8284,M,1.2,0000*48"
37,0,0.000000,6.976318,"$GPGGA,171806.10,3721.9043760,N,07958.3640873,W,2,05,1.81,360.0205,M,-32.8284,M,1.3,0000*4A"
38,0,0.000000,7.074990,"$GPGGA,171806.20,3721.9043551,N,07958.3640911,W,2,05,1.81,360.0544,M,-32.8284,M,1.4,0000*49"
38,0,0.000000,7.176056,"$GPGGA,171806.30,3721.9043242,N,07958.3640848,W,2,05,1.81,360.0596,M,-32.8284,M,0.3,0000*49"
39,0,0.000000,7.278874,"$GPGGA,171806.40,3721.9042939,N,07958.3640721,W,2,05,1.81,360.0407,M,-32.8284,M,0.4,0000*46"
40,0,0.000000,7.379229,"$GPGGA,171806.50,3721.9042817,N,07958.3640701,W,2,05,1.81,360.0616,M,-32.8284,M,0.5,0000*4B"
41,0,0.000000,7.478670,"$GPGGA,171806.60,3721.9042625,N,07958.3640748,W,2,05,1.81,360.0900,M,-32.8284,M,0.6,0000*41"
42,0,0.000000,7.578625,"$GPGGA,171806.70,3721.9042446,N,07958.3640834,W,2,05,1.81,360.0377,M,-32.8284,M,0.7,0000*48"
44,0,0.000000,7.676553,"$GPGGA,171806.80,3721.9042157,N,07958.3641029,W,2,05,1.81,359.9921,M,-32.8284,M,0.8,0000*42"
46,0,0.000000,7.775282,"$GPGGA,171806.90,3721.9041955,N,07958.3641242,W,2,05,1.81,359.9883,M,-32.8284,M,0.9,0000*4D"
47,0,0.000000,7.907249,"$GPGGA,171807.00,3721.9041698,N,07958.3641072,W,2,05,1.81,360.0348,M,-32.8284,M,1.0,0000*4D"
48,0,0.000000,7.978701,"$GPGGA,171807.10,3721.9041712,N,07958.3640916,W,2,05,1.81,360.1300,M,-32.8284,M,1.1,0000*49"
49,0,0.000000,8.079857,"$GPGGA,171807.20,3721.9041193,N,07958.3641566,W,2,05,1.81,359.9531,M,-32.8284,M,1.2,0000*4A"
50,0,0.000000,8.181704,"$GPGGA,171807.30,3721.9041699,N,07958.3641547,W,2,05,1.81,360.2383,M,-32.8284,M,0.7,0000*4F"
51,0,0.000000,8.278789,"$GPGGA,171807.40,3721.9041392,N,07958.3641544,W,2,05,1.81,360.1697,M,-32.8284,M,0.8,0000*49"
52,0,0.000000,8.376596,"$GPGGA,171807.50,3721.9041142,N,07958.3641497,W,2,05,1.81,360.1647,M,-32.8284,M,0.9,0000*44"
53,0,0.000000,8.476186,"$GPGGA,171807.60,3721.9040842,N,07958.3641627,W,2,05,1.81,360.1928,M,-32.8284,M,1.0,0000*48"
54,0,0.000000,8.575952,"$GPGGA,171807.70,3721.9040553,N,07958.3641545,W,2,05,1.81,360.1529,M,-32.8284,M,1.1,0000*4F"
55,0,0.000000,8.680611,"$GPGGA,171807.80,3721.9039816,N,07958.3641567,W,2,05,1.81,360.0290,M,-32.8284,M,1.2,0000*45"
56,0,0.000000,8.780386,"$GPGGA,171807.90,3721.9039364,N,07958.3641082,W,2,05,1.81,360.0276,M,-32.8284,M,1.3,0000*4D"
56,0,0.000000,8.906774,"$GPGGA,171808.00,3721.9039037,N,07958.3641167,W,2,05,1.81,359.9495,M,-32.8284,M,1.4,0000*4B"
57,0,0.000000,8.979464,"$GPGGA,171808.10,3721.9038918,N,07958.3641113,W,2,05,1.81,359.9396,M,-32.8284,M,1.5,0000*49"
57,0,0.000000,9.076641,"$GPGGA,171808.20,3721.9038820,N,07958.3641138,W,2,05,1.81,359.9534,M,-32.8284,M,1.6,0000*44"
58,0,0.000000,9.175260,"$GPGGA,171808.30,3721.9038661,N,07958.3641063,W,2,05,1.81,359.9946,M,-32.8284,M,0.5,0000*4A"
60,0,0.000000,9.275481,"$GPGGA,171808.40,3721.9038501,N,07958.3641010,W,2,05,1.81,360.0093,M,-32.8284,M,0.6,0000*4D"
61,0,0.000000,9.378844,"$GPGGA,171808.50,3721.9038399,N,07958.3641066,W,2,05,1.81,359.9788,M,-32.8284,M,0.7,0000*45"
63,0,0.000000,9.478806,"$GPGGA,171808.60,3721.9038261,N,07958.3641167,W,2,05,1.81,360.0064,M,-32.8284,M,0.8,0000*49"
64,0,0.000000,9.578463,"$GPGGA,171808.70,3721.9038069,N,07958.3641198,W,2,05,1.81,359.9025,M,-32.8284,M,0.9,0000*45"
64,0,0.000000,9.678061,"$GPGGA,171808.80,3721.9037915,N,07958.3641338,W,2,05,1.81,360.0039,M,-32.8284,M,1.0,0000*49"
65,0,0.000000,9.776322,"$GPGGA,171808.90,3721.9037911,N,07958.3641387,W,2,05,1.81,359.9686,M,-32.8284,M,1.1,0000*48"
65,0,0.000000,9.903155,"$GPGGA,171809.00,3721.9037971,N,07958.3641453,W,2,05,1.81,359.9650,M,-32.8284,M,1.2,0000*40"
66,0,0.000000,9.975852,"$GPGGA,171809.10,3721.9037891,N,07958.3641522,W,2,05,1.81,359.9784,M,-32.8284,M,1.3,0000*40"
66,0,0.000000,10.079073,"$GPGGA,171809.20,3721.9037729,N,07958.3641577,W,2,05,1.81,359.9404,M,-32.8284,M,1.4,0000*43"
67,0,0.000000,10.178719,"$GPGGA,171809.30,3721.9037559,N,07958.3641647,W,2,05,1.81,359.9116,M,-32.8284,M,0.3,0000*47"
68,0,0.000000,10.278609,"$GPGGA,171809.40,3721.9037369,N,07958.3641762,W,2,05,1.81,359.9191,M,-32.8284,M,0.4,0000*4B"
69,0,0.000000,10.379298,"$GPGGA,171809.50,3721.9037247,N,07958.3641958,W,2,05,1.81,359.9179,M,-32.8284,M,0.5,0000*47"
70,0,0.000000,10.477623,"$GPGGA,171809.60,3721.9037159,N,07958.3642133,W,2,05,1.81,359.8991,M,-32.8284,M,0.6,0000*42"
71,0,0.000000,10.575215,"$GPGGA,171809.70,3721.9036922,N,07958.3642150,W,2,05,1.81,359.8665,M,-32.8284,M,0.7,0000*46"
72,0,0.000000,10.677959,"$GPGGA,171809.80,3721.9036543,N,07958.3641933,W,2,05,1.81,359.8773,M,-32.8284,M,0.8,0000*45"
74,0,0.000000,10.778984,"$GPGGA,171809.90,3721.9036317,N,07958.3641872,W,2,05,1.81,359.9213,M,-32.8284,M,0.9,0000*44"
75,0,0.000000,10.905938,"$GPGGA,171810.00,3721.9036160,N,07958.3641741,W,2,05,1.81,359.9001,M,-32.8284,M,1.0,0000*41"
76,0,0.000000,10.978927,"$GPGGA,171810.10,3721.9035762,N,07958.3641642,W,2,05,1.81,359.8777,M,-32.8284,M,1.1,0000*43"
77,0,0.000000,11.078844,"$GPGGA,171810.20,3721.9035465,N,07958.3641615,W,2,05,1.81,359.8729,M,-32.8284,M,1.2,0000*4E"
78,0,0.000000,11.177357,"$GPGGA,171810.30,3721.9035301,N,07958.3641715,W,2,05,1.81,359.8748,M,-32.8284,M,0.7,0000*48"
79,0,0.000000,11.277030,"$GPGGA,171810.40,3721.9035087,N,07958.3641866,W,2,05,1.81,359.8876,M,-32.8284,M,0.8,0000*44"
80,0,0.000000,11.376077,"$GPGGA,171810.50,3721.9034831,N,07958.3641704,W,2,05,1.81,359.8907,M,-32.8284,M,0.9,0000*4C"
81,0,0.000000,11.478804,"$GPGGA,171810.60,3721.9034658,N,07958.3641485,W,2,05,1.81,359.9166,M,-32.8284,M,1.0,0000*42"
83,0,0.000000,11.578499,"$GPGGA,171810.70,3721.9034483,N,07958.3641261,W,2,05,1.81,359.9497,M,-32.8284,M,1.1,0000*41"
84,0,0.000000,11.678139,"$GPGGA,171810.80,3721.9034263,N,07958.3641114,W,2,05,1.81,359.9576,M,-32.8284,M,1.2,0000*4A"
86,0,0.000000,11.779191,"$GPGGA,171810.90,3721.9033918,N,07958.3641209,W,2,05,1.81,360.0756,M,-32.8284,M,1.3,0000*46"
88,0,0.000000,11.904329,"$GPGGA,171811.00,3721.9033567,N,07958.3641155,W,2,05,1.81,360.0005,M,-32.8284,M,1.4,0000*46"
89,0,0.000000,11.975807,"$GPGGA,171811.10,3721.9033239,N,07958.3640950,W,2,06,1.45,359.9405,M,-32.8284,M,1.5,0000*4A"
91,0,0.000000,12.075441,"$GPGGA,171811.20,3721.9032956,N,07958.3640780,W,2,06,1.45,359.8981,M,-32.8284,M,1.6,0000*4A"
92,0,0.000000,12.178960,"$GPGGA,171811.30,3721.9032823,N,07958.3640574,W,2,06,1.45,359.9047,M,-32.8284,M,0.5,0000*41"
92,0,0.000000,12.279242,"$GPGGA,171811.40,3721.9032446,N,07958.3640566,W,2,06,1.45,359.8980,M,-32.8284,M,0.6,0000*4A"
93,0,0.000000,12.379645,"$GPGGA,171811.50,3721.9032105,N,07958.3640363,W,2,06,1.45,359.8797,M,-32.8284,M,0.7,0000*43"
94,0,0.000000,12.478562,"$GPGGA,171811.60,3721.9032004,N,07958.3640375,W,2,06,1.45,359.8924,M,-32.8284,M,0.8,0000*4E"
94,0,0.000000,12.576462,"$GPGGA,171811.70,3721.9031813,N,07958.3640355,W,2,06,1.45,359.8879,M,-32.8284,M,0.9,0000*48"
95,0,0.000000,12.676113,"$GPGGA,171811.80,3721.9031637,N,07958.3640333,W,2,06,1.45,360.0179,M,-32.8284,M,1.0,0000*4C"
95,0,0.000000,12.776103,"$GPGGA,171811.90,3721.9031503,N,07958.3640243,W,2,06,1.45,359.9835,M,-32.8284,M,1.1,0000*4C"
97,0,0.000000,12.907057,"$GPGGA,171812.00,3721.9031327,N,07958.3640069,W,2,06,1.45,359.9848,M,-32.8284,M,1.2,0000*45"
98,0,0.000000,12.979723,"$GPGGA,171812.10,3721.9031392,N,07958.3639793,W,2,06,1.45,360.1680,M,-32.8284,M,1.3,0000*4F"
99,0,0.000000,13.079221,"$GPGGA,171812.20,3721.9030932,N,07958.3639852,W,2,05,1.66,360.0219,M,-32.8284,M,1.4,0000*4F"
102,0,0.000000,13.179082,"$GPGGA,171812.30,3721.9030763,N,07958.3639961,W,2,05,1.66,359.9292,M,-32.8284,M,0.3,0000*43"
104,0,0.000000,13.277150,"$GPGGA,171812.40,3721.9030512,N,07958.3640091,W,2,05,1.66,359.9117,M,-32.8284,M,0.4,0000*41"
105,0,0.000000,13.375522,"$GPGGA,171812.50,3721.9029895,N,07958.3639914,W,2,05,1.66,359.7600,M,-32.8284,M,0.5,0000*4E"
106,0,0.000000,13.475879,"$GPGGA,171812.60,3721.9029473,N,07958.3639890,W,2,05,1.66,359.7744,M,-32.8284,M,0.6,0000*46"
107,0,0.000000,13.579398,"$GPGGA,171812.70,3721.9029198,N,07958.3639976,W,2,05,1.66,359.7179,M,-32.8284,M,0.7,0000*47"
108,0,0.000000,13.679082,"$GPGGA,171812.80,3721.9028906,N,07958.3640090,W,2,05,1.66,359.6403,M,-32.8284,M,0.8,0000*4F"
109,0,0.000000,13.778879,"$GPGGA,171812.90,3721.9028988,N,07958.3638875,W,2,04,3.13,360.1694,M,-32.8284,M,0.9,0000*45"
111,0,0.000000,13.906079,"$GPGGA,171813.00,3721.9028554,N,07958.3639594,W,2,05,1.66,359.9537,M,-32.8284,M,1.0,0000*42"
112,0,0.000000,13.977528,"$GPGGA,171813.10,3721.9028238,N,07958.3639533,W,2,05,1.66,359.9537,M,-32.8284,M,1.1,0000*42"
113,0,0.000000,14.076708,"$GPGGA,171813.20,3721.9028043,N,07958.3639203,W,2,05,1.66,360.0763,M,-32.8284,M,1.2,0000*48"
114,0,0.000000,14.175676,"$GPGGA,171813.30,3721.9027885,N,07958.3639160,W,2,05,1.66,360.0142,M,-32.8284,M,0.7,0000*43"
115,0,0.000000,14.276911,"$GPGGA,171813.40,3721.9027774,N,07958.3638804,W,2,05,1.66,360.0476,M,-32.8284,M,0.8,0000*42"
116,0,0.000000,14.384921,"$GPGGA,171813.50,3721.9027442,N,07958.3638752,W,2,05,1.66,360.1008,M,-32.8284,M,0.9,0000*44"
116,0,0.000000,14.477887,"$GPGGA,171813.60,3721.9027293,N,07958.3638683,W,2,05,1.66,360.1188,M,-32.8284,M,1.0,0000*41"
117,0,0.000000,14.578671,"$GPGGA,171813.70,3721.9027123,N,07958.3638666,W,2,05,1.66,360.0495,M,-32.8284,M,1.1,0000*4A"
117,0,0.000000,14.677169,"$GPGGA,171813.80,3721.9027186,N,07958.3638548,W,2,05,1.66,360.1089,M,-32.8284,M,1.2,0000*4E"
118,0,0.000000,14.774874,"$GPGGA,171813.90,3721.9026847,N,07958.3639667,W,2,05,1.66,359.7763,M,-32.8284,M,1.3,0000*4B"
120,0,0.000000,14.902629,"$GPGGA,171814.00,3721.9026611,N,07958.3639111,W,2,05,1.66,360.0893,M,-32.8284,M,1.4,0000*44"
121,0,0.000000,14.975167,"$GPGGA,171814.10,3721.9026429,N,07958.3639210,W,2,05,1.66,360.1158,M,-32.8284,M,1.5,0000*40"
122,0,0.000000,15.078618,"$GPGGA,171814.20,3721.9026328,N,07958.3639275,W,2,05,1.66,360.1350,M,-32.8284,M,1.6,0000*4F"
124,0,0.000000,15.178886,"$GPGGA,171814.30,3721.9026110,N,07958.3639059,W,2,05,1.66,360.1659,M,-32.8284,M,0.5,0000*45"
125,0,0.000000,15.278026,"$GPGGA,171814.40,3721.9025717,N,07958.3638847,W,2,05,1.66,360.2075,M,-32.8284,M,0.6,0000*4E"
126,0,0.000000,15.377180,"$GPGGA,171814.50,3721.9025367,N,07958.3638797,W,2,05,1.66,360.2124,M,-32.8284,M,0.7,0000*4A"
127,0,0.000000,15.475352,"$GPGGA,171814.60,3721.9025069,N,07958.3638918,W,2,05,1.66,360.2024,M,-32.8284,M,0.8,0000*43"
128,0,0.000000,15.575524,"$GPGGA,171814.70,3721.9024802,N,07958.3639200,W,2,05,1.66,360.2127,M,-32.8284,M,0.9,0000*46"
128,0,0.000000,15.675668,"$GPGGA,171814.80,3721.9024657,N,07958.3639297,W,2,05,1.66,360.2313,M,-32.8284,M,1.0,0000*44"
129,0,0.000000,15.778115,"$GPGGA,171814.90,3721.9024531,N,07958.3639339,W,2,05,1.66,360.2337,M,-32.8284,M,1.1,0000*44"
130,0,0.000000,15.906205,"$GPGGA,171815.00,3721.9024399,N,07958.3639390,W,2,05,1.66,360.2438,M,-32.8284,M,1.2,0000*40"
130,0,0.000000,15.978584,"$GPGGA,171815.10,3721.9024230,N,07958.3639379,W,2,05,1.66,360.2671,M,-32.8284,M,1.3,0000*4A"
131,0,0.000000,16.076992,"$GPGGA,171815.20,3721.9024085,N,07958.3639414,W,2,05,1.66,360.2772,M,-32.8284,M,1.4,0000*4C"
132,0,0.000000,16.175396,"$GPGGA,171815.30,3721.9023917,N,07958.3639423,W,2,05,1.66,360.2633,M,-32.8284,M,0.3,0000*4E"
133,0,0.000000,16.274902,"$GPGGA,171815.40,3721.9023735,N,07958.3639419,W,2,05,1.66,360.2559,M,-32.8284,M,0.4,0000*46"
134,0,0.000000,16.375122,"$GPGGA,171815.50,3721.9023480,N,07958.3639374,W,2,05,1.66,360.2508,M,-32.8284,M,0.5,0000*43"
135,0,0.000000,16.478452,"$GPGGA,171815.60,3721.9023194,N,07958.3639319,W,2,05,1.66,360.2208,M,-32.8284,M,0.6,0000*4F"
137,0,0.000000,16.577760,"$GPGGA,171815.70,3721.9022906,N,07958.3639346,W,2,05,1.66,360.1970,M,-32.8284,M,0.7,0000*40"
138,0,0.000000,16.678618,"$GPGGA,171815.80,3721.9022622,N,07958.3639341,W,2,05,1.66,360.1469,M,-32.8284,M,0.8,0000*4B"
139,0,0.000000,16.777297,"$GPGGA,171815.90,3721.9022328,N,07958.3639442,W,2,05,1.66,360.1136,M,-32.8284,M,0.9,0000*4F"
139,0,0.000000,16.902423,"$GPGGA,171816.00,3721.9022069,N,07958.3639515,W,2,05,1.66,360.0980,M,-32.8284,M,1.0,0000*4C"
140,0,0.000000,16.974805,"$GPGGA,171816.10,3721.9021870,N,07958.3639514,W,2,05,1.66,360.0882,M,-32.8284,M,1.1,0000*4D"
141,0,0.000000,17.075638,"$GPGGA,171816.20,3721.9021753,N,07958.3639519,W,2,05,1.66,360.0756,M,-32.8284,M,1.2,0000*48"
142,0,0.000000,17.178079,"$GPGGA,171816.30,3721.9021624,N,07958.3639572,W,2,04,3.14,360.0773,M,-32.8284,M,0.7,0000*40"
144,0,0.000000,17.278756,"$GPGGA,171816.40,3721.9021440,N,07958.3639519,W,2,04,3.14,360.0704,M,-32.8284,M,0.8,0000*45"
145,0,0.000000,17.378493,"$GPGGA,171816.50,3721.9021339,N,07958.3639331,W,2,04,3.14,360.0428,M,-32.8284,M,0.9,0000*4D"
147,0,0.000000,17.477801,"$GPGGA,171816.60,3721.9021304,N,07958.3639233,W,2,04,3.14,359.9690,M,-32.8284,M,1.0,0000*49"
148,0,0.000000,17.575118,"$GPGGA,171816.70,3721.9021127,N,07958.3639095,W,2,04,3.14,359.9197,M,-32.8284,M,1.1,0000*44"
149,0,0.000000,17.674533,"$GPGGA,171816.80,3721.9020855,N,07958.3638941,W,2,04,3.14,359.8962,M,-32.8284,M,1.2,0000*47"
151,0,0.000000,17.774712,"$GPGGA,171816.90,3721.9020591,N,07958.3638874,W,2,04,3.14,359.8835,M,-32.8284,M,1.3,0000*46"
152,0,0.000000,17.905390,"$GPGGA,171817.00,3721.9020391,N,07958.3638755,W,2,05,1.66,359.8715,M,-32.8284,M,1.4,0000*48"
153,0,0.000000,17.980716,"$GPGGA,171817.10,3721.9020019,N,07958.3638849,W,2,05,1.66,359.9098,M,-32.8284,M,1.5,0000*4A"
154,0,0.000000,18.078781,"$GPGGA,171817.20,3721.9019711,N,07958.3638965,W,2,05,1.66,359.9226,M,-32.8284,M,1.6,0000*47"
155,0,0.000000,18.177263,"$GPGGA,171817.30,3721.9019773,N,07958.3638663,W,2,04,1.88,359.8503,M,-32.8284,M,0.5,0000*49"
156,0,0.000000,18.275557,"$GPGGA,171817.40,3721.9019585,N,07958.3638654,W,2,04,1.88,359.8448,M,-32.8284,M,0.6,0000*4C"
157,0,0.000000,18.375744,"$GPGGA,171817.50,3721.9019332,N,07958.3638848,W,2,04,1.88,359.8679,M,-32.8284,M,0.7,0000*45"
158,0,0.000000,18.474877,"$GPGGA,171817.60,3721.9019171,N,07958.3639052,W,2,04,1.88,359.8991,M,-32.8284,M,0.8,0000*47"
160,0,0.000000,18.578509,"$GPGGA,171817.70,3721.9019012,N,07958.3639158,W,2,04,1.88,359.9241,M,-32.8284,M,0.9,0000*4F"
161,0,0.000000,18.673676,"$GPGGA,171817.80,3721.9018799,N,07958.3639235,W,1,06,1.90,359.9785,M,-32.8284,M,,*6F"
163,0,0.000000,18.778174,"$GPGGA,171817.90,3721.9018517,N,07958.3639285,W,2,04,1.88,359.9881,M,-32.8284,M,1.1,0000*4C"
163,0,0.000000,18.903452,"$GPGGA,171818.00,3721.9018270,N,07958.3639292,W,2,04,1.88,359.9736,M,-32.8284,M,1.2,0000*4A"
165,0,0.000000,18.974981,"$GPGGA,171818.10,3721.9018086,N,07958.3639214,W,2,04,1.88,359.9463,M,-32.8284,M,1.3,0000*4C"
166,0,0.000000,19.074868,"$GPGGA,171818.20,3721.9017914,N,07958.3639145,W,2,04,1.88,359.8702,M,-32.8284,M,1.4,0000*47"
167,0,0.000000,19.174450,"$GPGGA,171818.30,3721.9017800,N,07958.3639123,W,2,05,1.66,359.8308,M,-32.8284,M,0.3,0000*4B"
169,0,0.000000,19.278430,"$GPGGA,171818.40,3721.9017676,N,07958.3639058,W,2,05,1.66,359.8087,M,-32.8284,M,0.4,0000*4D"
170,0,0.000000,19.377892,"$GPGGA,171818.50,3721.9017508,N,07958.3638925,W,2,05,1.66,359.8089,M,-32.8284,M,0.5,0000*4B"
171,0,0.000000,19.478306,"$GPGGA,171818.60,3721.9017296,N,07958.3638762,W,2,05,1.66,359.8117,M,-32.8284,M,0.6,0000*40"
172,0,0.000000,19.576875,"$GPGGA,171818.70,3721.9017070,N,07958.3638728,W,2,05,1.66,359.8093,M,-32.8284,M,0.7,0000*49"
173,0,0.000000,19.674620,"$GPGGA,171818.80,3721.9016869,N,07958.3638774,W,2,05,1.66,359.7934,M,-32.8284,M,0.8,0000*4A"
174,0,0.000000,19.775526,"$GPGGA,171818.90,3721.9016668,N,07958.3638751,W,2,05,1.66,359.7925,M,-32.8284,M,0.9,0000*42"
176,0,0.000000,19.901889,"$GPGGA,171819.00,3721.9016388,N,07958.3638807,W,2,05,1.66,359.7869,M,-32.8284,M,1.0,0000*4C"
177,0,0.000000,19.980446,"$GPGGA,171819.10,3721.9016061,N,07958.3638876,W,2,05,1.66,359.7735,M,-32.8284,M,1.1,0000*48"
179,0,0.000000,20.078272,"$GPGGA,171819.20,3721.9015810,N,07958.3638935,W,2,05,1.66,359.7561,M,-32.8284,M,1.2,0000*40"
180,0,0.000000,20.178206,"$GPGGA,171819.30,3721.9015562,N,07958.3639038,W,2,05,1.66,359.7658,M,-32.8284,M,0.7,0000*41"
181,0,0.000000,20.277724,"$GPGGA,171819.40,3721.9015429,N,07958.3639407,W,2,05,1.66,359.7672,M,-32.8284,M,0.8,0000*47"
182,0,0.000000,20.375684,"$GPGGA,171819.50,3721.9015135,N,07958.3639516,W,2,05,1.66,359.7642,M,-32.8284,M,0.9,0000*4D"
183,0,0.000000,20.474751,"$GPGGA,171819.60,3721.9014986,N,07958.3639584,W,2,05,1.66,359.7715,M,-32.8284,M,1.0,0000*4F"
184,0,0.000000,20.574341,"$GPGGA,171819.70,3721.9014813,N,07958.3639572,W,2,05,1.66,359.7951,M,-32.8284,M,1.1,0000*45"
185,0,0.000000,20.678203,"$GPGGA,171819.80,3721.9014636,N,07958.3639576,W,2,05,1.66,359.8216,M,-32.8284,M,1.2,0000*43"
186,0,0.000000,20.778519,"$GPGGA,171819.90,3721.9014468,N,07958.3639555,W,2,05,1.66,359.8611,M,-32.8284,M,1.3,0000*48"
188,0,0.000000,20.905639,"$GPGGA,171820.00,3721.9014243,N,07958.3639665,W,2,05,1.66,359.8743,M,-32.8284,M,1.4,0000*45"
189,0,0.000000,20.978237,"$GPGGA,171820.10,3721.9013892,N,07958.3639430,W,2,05,1.66,359.9010,M,-32.8284,M,1.5,0000*46"
190,0,0.000000,21.076225,"$GPGGA,171820.20,3721.9013270,N,07958.3639533,W,2,05,1.66,359.7593,M,-32.8284,M,1.6,0000*42"
192,0,0.000000,21.175928,"$GPGGA,171820.30,3721.9013137,N,07958.3639720,W,2,05,1.66,359.7916,M,-32.8284,M,1.7,0000*43"
193,0,0.000000,21.275110,"$GPGGA,171820.40,3721.9012924,N,07958.3639785,W,2,05,1.66,359.8352,M,-32.8284,M,0.6,0000*45"
195,0,0.000000,21.378593,"$GPGGA,171820.50,3721.9012660,N,07958.3639646,W,2,05,1.66,359.9003,M,-32.8284,M,0.7,0000*42"
196,0,0.000000,21.478642,"$GPGGA,171820.60,3721.9012376,N,07958.3639719,W,2,05,1.66,359.8347,M,-32.8284,M,0.8,0000*45"
197,0,0.000000,21.578335,"$GPGGA,171820.70,3721.9012044,N,07958.3639876,W,2,05,1.66,359.8585,M,-32.8284,M,0.9,0000*49"
197,0,0.000000,21.678187,"$GPGGA,171820.80,3721.9011601,N,07958.3640048,W,2,05,1.66,359.8470,M,-32.8284,M,1.0,0000*4A"
197,0,0.000000,21.776563,"$GPGGA,171820.90,3721.9011507,N,07958.3640128,W,2,05,1.66,359.8436,M,-32.8284,M,1.1,0000*4A"
197,0,0.000000,21.902506,"$GPGGA,171821.00,3721.9011486,N,07958.3640183,W,2,05,1.66,359.8426,M,-32.8284,M,1.2,0000*49"
197,0,0.000000,21.975179,"$GPGGA,171821.10,3721.9011401,N,07958.3640161,W,2,05,1.66,359.8359,M,-32.8284,M,1.3,0000*45"
197,0,0.000000,22.078683,"$GPGGA,171821.20,3721.9011420,N,07958.3640146,W,2,05,1.66,359.8290,M,-32.8284,M,1.4,0000*43"
197,0,0.000000,22.178267,"$GPGGA,171821.30,3721.9011405,N,07958.3640181,W,2,05,1.66,359.8283,M,-32.8284,M,1.5,0000*4D"
197,0,0.000000,22.278355,"$GPGGA,171821.40,3721.9011365,N,07958.3640219,W,2,05,1.66,359.8341,M,-32.8284,M,0.4,0000*46"
197,0,0.000000,22.377843,"$GPGGA,171821.50,3721.9011352,N,07958.3640197,W,2,05,1.66,359.8163,M,-32.8284,M,0.5,0000*45"
197,0,0.000000,22.475738,"$GPGGA,171821.60,3721.9011357,N,07958.3640200,W,2,05,1.66,359.8028,M,-32.8284,M,0.6,0000*43"
198,0,0.000000,22.575129,"$GPGGA,171821.70,3721.9011317,N,07958.3640227,W,2,05,1.66,359.8147,M,-32.8284,M,0.7,0000*4A"
199,0,0.000000,23.974878,"$GPGGA,171823.10,3721.9011068,N,07958.3640286,W,2,05,1.66,359.8464,M,-32.8284,M,1.5,0000*49"
200,0,0.000000,24.178841,"$GPGGA,171823.30,3721.9011124,N,07958.3640190,W,2,05,1.66,359.8404,M,-32.8284,M,0.5,0000*41"
200,0,0.000000,24.278541,"$GPGGA,171823.40,3721.9010974,N,07958.3640261,W,2,05,1.66,359.8301,M,-32.8284,M,0.6,0000*46"
201,0,0.000000,24.378259,"$GPGGA,171823.50,3721.9010917,N,07958.3640344,W,2,05,1.66,359.8372,M,-32.8284,M,0.7,0000*41"
201,0,0.000000,24.478346,"$GPGGA,171823.60,3721.9010819,N,07958.3640455,W,2,05,1.66,359.8466,M,-32.8284,M,0.8,0000*47"
201,0,0.000000,24.576497,"$GPGGA,171823.70,3721.9010655,N,07958.3640486,W,2,05,1.66,359.8503,M,-32.8284,M,0.9,0000*4D"
202,0,0.000000,24.675761,"$GPGGA,171823.80,3721.9010437,N,07958.3640206,W,2,05,1.66,359.8494,M,-32.8284,M,1.0,0000*4D"
204,0,0.000000,24.774619,"$GPGGA,171823.90,3721.9010196,N,07958.3639948,W,2,05,1.66,359.8718,M,-32.8284,M,1.1,0000*4B"
206,0,0.000000,24.906100,"$GPGGA,171824.00,3721.9009822,N,07958.3640136,W,2,05,1.66,359.7595,M,-32.8284,M,1.2,0000*4F"
207,0,0.000000,24.978456,"$GPGGA,171824.10,3721.9009497,N,07958.3640553,W,2,05,1.66,359.8393,M,-32.8284,M,1.3,0000*45"
209,0,0.000000,25.078309,"$GPGGA,171824.20,3721.9009330,N,07958.3640327,W,2,05,1.66,359.8075,M,-32.8284,M,1.4,0000*45"
210,0,0.000000,25.183522,"$GPGGA,171824.30,3721.9008998,N,07958.3640451,W,2,05,1.66,359.8590,M,-32.8284,M,0.3,0000*43"
212,0,0.000000,25.275714,"$GPGGA,171824.40,3721.9008598,N,07958.3640478,W,2,05,1.66,359.8266,M,-32.8284,M,0.4,0000*4A"
213,0,0.000000,25.375018,"$GPGGA,171824.50,3721.9008314,N,07958.3640713,W,2,05,1.66,359.6991,M,-32.8284,M,0.5,0000*4B"
215,0,0.000000,25.475054,"$GPGGA,171824.60,3721.9008006,N,07958.3641113,W,2,05,1.66,359.7794,M,-32.8284,M,0.6,0000*46"
216,0,0.000000,25.579085,"$GPGGA,171824.70,3721.9007572,N,07958.3640875,W,2,05,1.66,359.8098,M,-32.8284,M,0.7,0000*43"
217,0,0.000000,25.678356,"$GPGGA,171824.80,3721.9007184,N,07958.3641116,W,2,05,1.66,359.8008,M,-32.8284,M,0.8,0000*4A"
218,0,0.000000,25.779074,"$GPGGA,171824.90,3721.9006961,N,07958.3641374,W,2,05,1.66,359.7980,M,-32.8284,M,0.9,0000*48"
219,0,0.000000,25.907285,"$GPGGA,171825.00,3721.9006766,N,07958.3641491,W,2,05,1.66,359.8327,M,-32.8284,M,1.0,0000*45"
220,0,0.000000,25.977964,"$GPGGA,171825.10,3721.9006555,N,07958.3641364,W,2,05,1.66,359.8198,M,-32.8284,M,1.1,0000*4C"
221,0,0.000000,26.074908,"$GPGGA,171825.20,3721.9006337,N,07958.3641353,W,2,05,1.66,359.8277,M,-32.8284,M,1.2,0000*48"
222,0,0.000000,26.173874,"$GPGGA,171825.30,3721.9006127,N,07958.3641199,W,2,05,1.66,359.8226,M,-32.8284,M,0.7,0000*4E"
222,0,0.000000,26.278399,"$GPGGA,171825.40,3721.9006104,N,07958.3641351,W,2,05,1.66,359.8014,M,-32.8284,M,0.8,0000*42"
223,0,0.000000,26.378886,"$GPGGA,171825.50,3721.9005835,N,07958.3641524,W,2,05,1.66,359.8537,M,-32.8284,M,0.9,0000*4A"
223,0,0.000000,26.478224,"$GPGGA,171825.60,3721.9005700,N,07958.3641563,W,2,05,1.66,359.8712,M,-32.8284,M,1.0,0000*4E"
224,0,0.000000,26.578946,"$GPGGA,171825.70,3721.9005587,N,07958.3641349,W,2,05,1.66,359.8831,M,-32.8284,M,1.1,0000*43"
224,0,0.000000,26.675809,"$GPGGA,171825.80,3721.9005663,N,07958.3641411,W,2,05,1.66,359.8978,M,-32.8284,M,1.2,0000*40"
224,0,0.000000,26.774857,"$GPGGA,171825.90,3721.9005753,N,07958.3641462,W,2,05,1.66,359.9296,M,-32.8284,M,1.3,0000*4C"
225,0,0.000000,26.902202,"$GPGGA,171826.00,3721.9005722,N,07958.3641470,W,2,05,1.66,359.9557,M,-32.8284,M,1.4,0000*4E"
226,0,0.000000,26.974491,"$GPGGA,171826.10,3721.9005792,N,07958.3641639,W,2,05,1.66,359.9929,M,-32.8284,M,1.5,0000*4F"
227,0,0.000000,27.078284,"$GPGGA,171826.20,3721.9005620,N,07958.3641584,W,2,05,1.66,360.0344,M,-32.8284,M,1.6,0000*40"
228,0,0.000000,27.178200,"$GPGGA,171826.30,3721.9005462,N,07958.3641480,W,2,05,1.66,360.0664,M,-32.8284,M,0.5,0000*45"
230,0,0.000000,27.278204,"$GPGGA,171826.40,3721.9005273,N,07958.3641281,W,2,05,1.66,360.0469,M,-32.8284,M,0.6,0000*4F"
231,0,0.000000,27.378226,"$GPGGA,171826.50,3721.9005316,N,07958.3641443,W,2,05,1.66,360.0630,M,-32.8284,M,0.7,0000*4B"
232,0,0.000000,27.474658,"$GPGGA,171826.60,3721.9005052,N,07958.3641511,W,2,05,1.66,360.0762,M,-32.8284,M,0.8,0000*44"
233,0,0.000000,27.574913,"$GPGGA,171826.70,3721.9005359,N,07958.3642020,W,2,05,1.66,360.1750,M,-32.8284,M,0.9,0000*48"
233,0,0.000000,27.678323,"$GPGGA,171826.80,3721.9005041,N,07958.3642042,W,2,05,1.66,360.1426,M,-32.8284,M,1.0,0000*43"
234,0,0.000000,27.781514,"$GPGGA,171826.90,3721.9005110,N,07958.3642460,W,2,05,1.66,360.1566,M,-32.8284,M,1.1,0000*47"
235,0,0.000000,27.907515,"$GPGGA,171827.00,3721.9004914,N,07958.3642586,W,2,05,1.66,360.1678,M,-32.8284,M,1.2,0000*44"
236,0,0.000000,27.981170,"$GPGGA,171827.10,3721.9004560,N,07958.3642630,W,2,05,1.66,360.2085,M,-32.8284,M,1.3,0000*42"
238,0,0.000000,28.078603,"$GPGGA,171827.20,3721.9004321,N,07958.3642520,W,2,05,1.66,360.2217,M,-32.8284,M,1.4,0000*4E"
240,0,0.000000,28.176446,"$GPGGA,171827.30,3721.9004214,N,07958.3642743,W,2,05,1.66,360.2410,M,-32.8284,M,0.3,0000*48"
242,0,0.000000,28.277784,"$GPGGA,171827.40,3721.9003483,N,07958.3642534,W,2,05,1.66,360.1007,M,-32.8284,M,0.4,0000*44"
243,0,0.000000,28.375101,"$GPGGA,171827.50,3721.9003413,N,07958.3642445,W,2,05,1.66,360.1351,M,-32.8284,M,0.5,0000*4A"
245,0,0.000000,28.478769,"$GPGGA,171827.60,3721.9004094,N,07958.3642748,W,2,05,1.66,360.6229,M,-32.8284,M,0.6,0000*41"
246,0,0.000000,28.577906,"$GPGGA,171827.70,3721.9003983,N,07958.3642702,W,2,05,1.66,360.5996,M,-32.8284,M,0.7,0000*4B"
247,0,0.000000,28.678333,"$GPGGA,171827.80,3721.9003875,N,07958.3642695,W,2,05,1.66,360.6121,M,-32.8284,M,0.8,0000*4B"
247,0,0.000000,28.777137,"$GPGGA,171827.90,3721.9003660,N,07958.3642693,W,2,05,1.66,360.6592,M,-32.8284,M,0.9,0000*4B"
248,0,0.000000,28.902906,"$GPGGA,171828.00,3721.9002100,N,07958.3642166,W,2,05,1.66,360.7469,M,-32.8284,M,1.0,0000*4C"
248,0,0.000000,28.975382,"$GPGGA,171828.10,3721.9002049,N,07958.3642279,W,2,05,1.66,360.8319,M,-32.8284,M,1.1,0000*42"
249,0,0.000000,29.074921,"$GPGGA,171828.20,3721.9002222,N,07958.3642491,W,2,05,1.66,360.9235,M,-32.8284,M,1.2,0000*43"
249,0,0.000000,29.178008,"$GPGGA,171828.30,3721.9002181,N,07958.3642530,W,2,05,1.66,360.8775,M,-32.8284,M,0.7,0000*46"
250,0,0.000000,29.278059,"$GPGGA,171828.40,3721.9002218,N,07958.3642633,W,2,05,1.66,360.8930,M,-32.8284,M,0.8,0000*42"
250,0,0.000000,29.377634,"$GPGGA,171828.50,3721.9001789,N,07958.3642116,W,2,04,2.02,360.7821,M,-32.8284,M,0.9,0000*42"
251,0,0.000000,29.476077,"$GPGGA,171828.60,3721.9001656,N,07958.3642249,W,2,04,2.02,360.7525,M,-32.8284,M,1.0,0000*4A"
252,0,0.000000,29.574326,"$GPGGA,171828.70,3721.9001571,N,07958.3642751,W,2,05,1.66,360.7923,M,-32.8284,M,1.1,0000*4A"
253,0,0.000000,29.674658,"$GPGGA,171828.80,3721.9001628,N,07958.3642767,W,2,05,1.66,360.8004,M,-32.8284,M,1.2,0000*4F"
255,0,0.000000,29.775062,"$GPGGA,171828.90,3721.9001551,N,07958.3642879,W,2,05,1.66,360.7979,M,-32.8284,M,1.3,0000*4E"
256,0,0.000000,29.905012,"$GPGGA,171829.00,3721.9001724,N,07958.3642871,W,2,05,1.66,360.9021,M,-32.8284,M,1.4,0000*43"
257,0,0.000000,29.983665,"$GPGGA,171829.10,3721.9001560,N,07958.3643054,W,2,05,1.66,360.9293,M,-32.8284,M,1.5,0000*44"
259,0,0.000000,30.077814,"$GPGGA,171829.20,3721.9001201,N,07958.3643129,W,2,05,1.66,360.8439,M,-32.8284,M,1.6,0000*48"
260,0,0.000000,30.177019,"$GPGGA,171829.30,3721.9000895,N,07958.3643090,W,2,05,1.66,360.8044,M,-32.8284,M,0.5,0000*40"
262,0,0.000000,30.274265,"$GPGGA,171829.40,3721.9000668,N,07958.3643175,W,2,04,2.02,360.8176,M,-32.8284,M,0.6,0000*42"
263,0,0.000000,30.375290,"$GPGGA,171829.50,3721.9000576,N,07958.3643298,W,2,05,1.66,360.8560,M,-32.8284,M,0.7,0000*4D"
264,0,0.000000,30.478558,"$GPGGA,171829.60,3721.9000185,N,07958.3643193,W,2,05,1.66,360.9789,M,-32.8284,M,0.8,0000*45"
265,0,0.000000,30.578222,"$GPGGA,171829.70,3721.9000099,N,07958.3643189,W,2,05,1.66,360.9733,M,-32.8284,M,0.9,0000*43"
266,0,0.000000,30.677907,"$GPGGA,171829.80,3721.8999863,N,07958.3643395,W,2,05,1.66,360.9731,M,-32.8284,M,1.0,0000*4C"
268,0,0.000000,30.777415,"$GPGGA,171829.90,3721.8999318,N,07958.3643205,W,2,05,1.66,360.9837,M,-32.8284,M,1.1,0000*4A"
269,0,0.000000,30.904102,"$GPGGA,171830.00,3721.8998905,N,07958.3643044,W,2,05,1.66,360.9162,M,-32.8284,M,1.2,0000*41"
270,0,0.000000,30.975582,"$GPGGA,171830.10,3721.8998621,N,07958.3642953,W,2,05,1.66,360.8919,M,-32.8284,M,1.3,0000*43"
270,0,0.000000,31.074548,"$GPGGA,171830.20,3721.8998319,N,07958.3642877,W,2,05,1.66,360.8316,M,-32.8284,M,1.4,0000*4B"
271,0,0.000000,31.176992,"$GPGGA,171830.30,3721.8998079,N,07958.3642751,W,2,05,1.66,360.8012,M,-32.8284,M,0.3,0000*45"
272,0,0.000000,31.277631,"$GPGGA,171830.40,3721.8997900,N,07958.3642826,W,2,05,1.66,360.7560,M,-32.8284,M,0.4,0000*4D"
273,0,0.000000,31.382499,"$GPGGA,171830.50,3721.8998186,N,07958.3643181,W,2,05,1.66,360.8419,M,-32.8284,M,0.5,0000*41"
274,0,0.000000,31.478558,"$GPGGA,171830.60,3721.8998103,N,07958.3643212,W,2,05,1.66,360.8564,M,-32.8284,M,0.6,0000*4E"
275,0,0.000000,31.577016,"$GPGGA,171830.70,3721.8998067,N,07958.3643551,W,2,05,1.66,360.8810,M,-32.8284,M,0.7,0000*43"
276,0,0.000000,31.675676,"$GPGGA,171830.80,3721.8997922,N,07958.3643644,W,2,05,1.66,360.8830,M,-32.8284,M,0.8,0000*41"
277,0,0.000000,31.776090,"$GPGGA,171830.90,3721.8997737,N,07958.3643632,W,2,05,1.66,360.8611,M,-32.8284,M,0.9,0000*47"
278,0,0.000000,31.905807,"$GPGGA,171831.00,3721.8997460,N,07958.3643675,W,2,05,1.66,360.9043,M,-32.8284,M,1.0,0000*45"
279,0,0.000000,31.978008,"$GPGGA,171831.10,3721.8997113,N,07958.3643682,W,2,05,1.66,360.9530,M,-32.8284,M,1.1,0000*4D"
280,0,0.000000,32.077984,"$GPGGA,171831.20,3721.8996601,N,07958.3643664,W,2,05,1.66,360.8613,M,-32.8284,M,1.2,0000*43"
281,0,0.000000,32.178506,"$GPGGA,171831.30,3721.8996337,N,07958.3643474,W,2,04,2.02,360.8589,M,-32.8284,M,0.7,0000*45"
283,0,0.000000,32.276898,"$GPGGA,171831.40,3721.8996135,N,07958.3643397,W,2,04,2.02,360.8614,M,-32.8284,M,0.8,0000*40"
284,0,0.000000,32.374585,"$GPGGA,171831.50,3721.8995878,N,07958.3643212,W,2,04,2.02,360.8539,M,-32.8284,M,0.9,0000*43"
285,0,0.000000,32.474148,"$GPGGA,171831.60,3721.8995618,N,07958.3643161,W,2,04,2.02,360.8570,M,-32.8284,M,1.0,0000*4A"
286,0,0.000000,32.574875,"$GPGGA,171831.70,3721.8995294,N,07958.3643077,W,2,04,2.02,361.0114,M,-32.8284,M,1.1,0000*43"
287,0,0.000000,32.678507,"$GPGGA,171831.80,3721.8994978,N,07958.3642999,W,2,04,2.02,361.0343,M,-32.8284,M,1.2,0000*4F"
289,0,0.000000,32.777642,"$GPGGA,171831.90,3721.8994759,N,07958.3643027,W,2,04,2.02,361.0590,M,-32.8284,M,1.3,0000*47"
290,0,0.000000,32.904179,"$GPGGA,171832.00,3721.8994498,N,07958.3643234,W,2,04,2.02,360.9595,M,-32.8284,M,1.4,0000*49"
291,0,0.000000,32.976773,"$GPGGA,171832.10,3721.8994265,N,07958.3643181,W,2,04,2.02,360.9209,M,-32.8284,M,1.5,0000*42"
293,0,0.000000,33.074923,"$GPGGA,171832.20,3721.8993789,N,07958.3643019,W,2,04,2.02,360.8893,M,-32.8284,M,1.6,0000*4A"
294,0,0.000000,33.175322,"$GPGGA,171832.30,3721.8993564,N,07958.3642993,W,2,05,1.81,360.9130,M,-32.8284,M,0.5,0000*4A"
295,0,0.000000,33.274831,"$GPGGA,171832.40,3721.8993399,N,07958.3642965,W,2,04,2.02,360.9356,M,-32.8284,M,0.6,0000*48"
296,0,0.000000,33.378015,"$GPGGA,171832.50,3721.8993067,N,07958.3642959,W,2,04,2.02,360.9399,M,-32.8284,M,0.7,0000*46"
297,0,0.000000,33.477400,"$GPGGA,171832.60,3721.8992744,N,07958.3643011,W,2,04,2.02,360.9385,M,-32.8284,M,0.8,0000*44"
299,0,0.000000,33.578416,"$GPGGA,171832.70,3721.8992697,N,07958.3642890,W,2,04,2.02,360.9554,M,-32.8284,M,0.9,0000*41"
301,0,0.000000,33.678898,"$GPGGA,171832.80,3721.8992520,N,07958.3642976,W,2,04,2.02,360.9497,M,-32.8284,M,1.0,0000*4E"
302,0,0.000000,33.774474,"$GPGGA,171832.90,3721.8992127,N,07958.3642767,W,2,04,2.02,360.8853,M,-32.8284,M,1.1,0000*46"
303,0,0.000000,33.900594,"$GPGGA,171833.00,3721.8991724,N,07958.3642812,W,2,04,2.02,360.8341,M,-32.8284,M,1.2,0000*4E"
305,0,0.000000,33.974092,"$GPGGA,171833.10,3721.8991422,N,07958.3642886,W,2,04,2.02,360.8814,M,-32.8284,M,1.3,0000*4D"
306,0,0.000000,34.077576,"$GPGGA,171833.20,3721.8991155,N,07958.3642694,W,2,04,2.02,360.8693,M,-32.8284,M,1.4,0000*40"
308,0,0.000000,34.177878,"$GPGGA,171833.30,3721.8990879,N,07958.3642766,W,2,04,2.02,360.8731,M,-32.8284,M,0.3,0000*44"
309,0,0.000000,34.277889,"$GPGGA,171833.40,3721.8990614,N,07958.3642818,W,2,04,2.02,360.8673,M,-32.8284,M,0.4,0000*40"
310,0,0.000000,34.377295,"$GPGGA,171833.50,3721.8990338,N,07958.3642827,W,2,04,2.02,360.8750,M,-32.8284,M,0.5,0000*47"
312,0,0.000000,34.475408,"$GPGGA,171833.60,3721.8990047,N,07958.3642919,W,2,04,2.02,360.8799,M,-32.8284,M,0.6,0000*45"
313,0,0.000000,34.575308,"$GPGGA,171833.70,3721.8989687,N,07958.3642873,W,2,04,2.02,360.8086,M,-32.8284,M,0.7,0000*43"
314,0,0.000000,34.674728,"$GPGGA,171833.80,3721.8989381,N,07958.3642887,W,2,04,2.02,360.8475,M,-32.8284,M,0.8,0000*43"
315,0,0.000000,34.777625,"$GPGGA,171833.90,3721.8989115,N,07958.3643071,W,2,04,2.02,360.9010,M,-32.8284,M,0.9,0000*4A"
316,0,0.000000,34.903231,"$GPGGA,171834.00,3721.8988784,N,07958.3643033,W,2,04,2.02,360.8108,M,-32.8284,M,1.0,0000*4C"
316,0,0.000000,34.978314,"$GPGGA,171834.10,3721.8988550,N,07958.3642936,W,2,04,2.02,360.7727,M,-32.8284,M,1.1,0000*4E"
317,0,0.000000,35.076738,"$GPGGA,171834.20,3721.8988513,N,07958.3642795,W,2,04,2.02,360.7737,M,-32.8284,M,1.2,0000*4F"
318,0,0.000000,35.174937,"$GPGGA,171834.30,3721.8988274,N,07958.3643259,W,2,04,2.02,360.9435,M,-32.8284,M,0.7,0000*47"
319,0,0.000000,35.274752,"$GPGGA,171834.40,3721.8988517,N,07958.3642887,W,1,07,1.37,360.8934,M,-32.8284,M,,*6B"
320,0,0.000000,35.374115,"$GPGGA,171834.50,3721.8988116,N,07958.3643199,W,2,04,2.02,360.9629,M,-32.8284,M,0.9,0000*48"
322,0,0.000000,35.482737,"$GPGGA,171834.60,3721.8987706,N,07958.3643145,W,2,04,2.02,360.7315,M,-32.8284,M,1.0,0000*4E"
324,0,0.000000,35.578373,"$GPGGA,171834.70,3721.8987563,N,07958.3643895,W,2,04,2.02,360.9255,M,-32.8284,M,1.1,0000*40"
325,0,0.000000,35.677397,"$GPGGA,171834.80,3721.8987351,N,07958.3643776,W,2,04,2.02,360.8753,M,-32.8284,M,1.2,0000*4B"
327,0,0.000000,35.776606,"$GPGGA,171834.90,3721.8987574,N,07958.3643706,W,2,04,2.02,360.8597,M,-32.8284,M,1.3,0000*47"
329,0,0.000000,35.901386,"$GPGGA,171835.00,3721.8987317,N,07958.3643637,W,2,04,2.02,360.8491,M,-32.8284,M,1.4,0000*4F"
330,0,0.000000,35.974863,"$GPGGA,171835.10,3721.8986974,N,07958.3643602,W,2,04,2.02,360.8316,M,-32.8284,M,1.5,0000*4F"
332,0,0.000000,36.074718,"$GPGGA,171835.20,3721.8986538,N,07958.3643610,W,2,04,2.02,360.8263,M,-32.8284,M,1.6,0000*4B"
334,0,0.000000,36.177532,"$GPGGA,171835.30,3721.8986155,N,07958.3643709,W,2,04,2.02,360.8422,M,-32.8284,M,0.5,0000*4D"
336,0,0.000000,36.278278,"$GPGGA,171835.40,3721.8985816,N,07958.3643681,W,2,05,1.66,360.8842,M,-32.8284,M,0.6,0000*4F"
337,0,0.000000,36.378020,"$GPGGA,171835.50,3721.8985607,N,07958.3643673,W,2,05,1.66,360.9090,M,-32.8284,M,0.7,0000*4A"
339,0,0.000000,36.476493,"$GPGGA,171835.60,3721.8985466,N,07958.3643673,W,2,05,1.66,360.9243,M,-32.8284,M,0.8,0000*4F"
341,0,0.000000,36.576226,"$GPGGA,171835.70,3721.8985206,N,07958.3643695,W,2,05,1.66,360.9327,M,-32.8284,M,0.9,0000*44"
342,0,0.000000,36.673813,"$GPGGA,171835.80,3721.8984879,N,07958.3643709,W,2,05,1.66,360.9141,M,-32.8284,M,1.0,0000*46"
344,0,0.000000,36.783169,"$GPGGA,171835.90,3721.8984493,N,07958.3643746,W,2,05,1.66,360.9385,M,-32.8284,M,1.1,0000*4F"
346,0,0.000000,36.904796,"$GPGGA,171836.00,3721.8984166,N,07958.3643840,W,2,05,1.66,360.9432,M,-32.8284,M,1.2,0000*4B"
347,0,0.000000,36.978222,"$GPGGA,171836.10,3721.8983823,N,07958.3643949,W,2,05,1.66,360.9589,M,-32.8284,M,1.3,0000*4D"
349,0,0.000000,37.077866,"$GPGGA,171836.20,3721.8983414,N,07958.3644074,W,2,05,1.66,360.9963,M,-32.8284,M,1.4,0000*49"
350,0,0.000000,37.177136,"$GPGGA,171836.30,3721.8983102,N,07958.3644047,W,2,05,1.66,360.9686,M,-32.8284,M,0.3,0000*48"
352,0,0.000000,37.275214,"$GPGGA,171836.40,3721.8982750,N,07958.3643924,W,2,05,1.66,360.9561,M,-32.8284,M,0.4,0000*49"
353,0,0.000000,37.374676,"$GPGGA,171836.50,3721.8982462,N,07958.3643893,W,2,05,1.66,360.9625,M,-32.8284,M,0.5,0000*45"
354,0,0.000000,37.474691,"$GPGGA,171836.60,3721.8982220,N,07958.3643830,W,2,05,1.66,360.9632,M,-32.8284,M,0.6,0000*4A"
355,0,0.000000,37.578179,"$GPGGA,171836.70,3721.8981882,N,07958.3643783,W,2,05,1.66,360.9786,M,-32.8284,M,0.7,0000*42"
356,0,0.000000,37.678125,"$GPGGA,171836.80,3721.8981578,N,07958.3643751,W,2,05,1.66,360.9919,M,-32.8284,M,0.8,0000*4D"
358,0,0.000000,37.778414,"$GPGGA,171836.90,3721.8981301,N,07958.3643701,W,2,05,1.66,361.0004,M,-32.8284,M,0.9,0000*4D"
359,0,0.000000,37.905103,"$GPGGA,171837.00,3721.8980962,N,07958.3643612,W,2,05,1.66,361.0415,M,-32.8284,M,1.0,0000*44"
360,0,0.000000,37.976613,"$GPGGA,171837.10,3721.8980753,N,07958.3643386,W,2,05,1.66,361.0204,M,-32.8284,M,1.1,0000*46"
361,0,0.000000,38.074111,"$GPGGA,171837.20,3721.8980364,N,07958.3643467,W,2,05,1.66,361.0483,M,-32.8284,M,1.2,0000*47"
362,0,0.000000,38.174341,"$GPGGA,171837.30,3721.8979947,N,07958.3643685,W,2,05,1.66,361.1136,M,-32.8284,M,0.7,0000*4B"
364,0,0.000000,38.277975,"$GPGGA,171837.40,3721.8979495,N,07958.3643552,W,2,05,1.66,361.1173,M,-32.8284,M,0.8,0000*49"
365,0,0.000000,38.377057,"$GPGGA,171837.50,3721.8979283,N,07958.3643518,W,2,05,1.66,361.1166,M,-32.8284,M,0.9,0000*42"
366,0,0.000000,38.477835,"$GPGGA,171837.60,3721.8979308,N,07958.3643429,W,2,05,1.66,360.9992,M,-32.8284,M,1.0,0000*42"
368,0,0.000000,38.577528,"$GPGGA,171837.70,3721.8979407,N,07958.3643444,W,2,04,2.01,360.8624,M,-32.8284,M,1.1,0000*41"
369,0,0.000000,38.675069,"$GPGGA,171837.80,3721.8978540,N,07958.3643261,W,2,05,1.66,361.1293,M,-32.8284,M,1.2,0000*4C"
370,0,0.000000,38.774811,"$GPGGA,171837.90,3721.8978244,N,07958.3643318,W,2,05,1.66,361.1262,M,-32.8284,M,1.3,0000*4E"
372,0,0.000000,38.902594,"$GPGGA,171838.00,3721.8978183,N,07958.3643473,W,2,05,1.66,361.1351,M,-32.8284,M,1.4,0000*4C"
374,0,0.000000,38.983236,"$GPGGA,171838.10,3721.8977876,N,07958.3643519,W,2,05,1.66,361.1345,M,-32.8284,M,1.5,0000*48"
375,0,0.000000,39.078009,"$GPGGA,171838.20,3721.8977628,N,07958.3643407,W,2,05,1.66,361.1703,M,-32.8284,M,1.6,0000*45"
376,0,0.000000,39.177666,"$GPGGA,171838.30,3721.8977242,N,07958.3643361,W,2,05,1.66,361.1663,M,-32.8284,M,0.5,0000*4E"
378,0,0.000000,39.277513,"$GPGGA,171838.40,3721.8976782,N,07958.3643427,W,2,05,1.66,361.2022,M,-32.8284,M,0.6,0000*47"
379,0,0.000000,39.375460,"$GPGGA,171838.50,3721.8976453,N,07958.3643291,W,2,05,1.66,361.1795,M,-32.8284,M,0.7,0000*4B"
381,0,0.000000,39.474404,"$GPGGA,171838.60,3721.8976044,N,07958.3643138,W,2,05,1.66,361.1721,M,-32.8284,M,0.8,0000*4A"
382,0,0.000000,39.574208,"$GPGGA,171838.70,3721.8975778,N,07958.3643098,W,2,05,1.66,361.1820,M,-32.8284,M,0.9,0000*44"
383,0,0.000000,39.680758,"$GPGGA,171838.80,3721.8975744,N,07958.3643419,W,2,05,1.66,361.1160,M,-32.8284,M,1.0,0000*4C"
384,0,0.000000,39.778051,"$GPGGA,171838.90,3721.8975418,N,07958.3643303,W,2,05,1.66,361.0935,M,-32.8284,M,1.1,0000*43"
386,0,0.000000,39.905454,"$GPGGA,171839.00,3721.8974917,N,07958.3643091,W,2,05,1.66,361.1870,M,-32.8284,M,1.2,0000*42"
387,0,0.000000,39.977887,"$GPGGA,171839.10,3721.8974754,N,07958.3643261,W,2,05,1.66,361.2159,M,-32.8284,M,1.3,0000*47"
387,0,0.000000,40.077406,"$GPGGA,171839.20,3721.8974528,N,07958.3643284,W,2,05,1.66,361.1931,M,-32.8284,M,1.4,0000*44"
388,0,0.000000,40.174633,"$GPGGA,171839.30,3721.8974264,N,07958.3643308,W,2,05,1.66,361.1608,M,-32.8284,M,0.3,0000*4C"
389,0,0.000000,40.274526,"$GPGGA,171839.40,3721.8974010,N,07958.3643322,W,2,05,1.66,361.1358,M,-32.8284,M,0.4,0000*45"
390,0,0.000000,40.374376,"$GPGGA,171839.50,3721.8973886,N,07958.3643368,W,2,05,1.66,361.1593,M,-32.8284,M,0.5,0000*4A"
391,0,0.000000,40.476408,"$GPGGA,171839.60,3721.8973720,N,07958.3643322,W,2,05,1.66,361.1921,M,-32.8284,M,0.6,0000*42"
393,0,0.000000,40.577548,"$GPGGA,171839.70,3721.8973298,N,07958.3643096,W,2,05,1.66,361.1498,M,-32.8284,M,0.7,0000*47"
394,0,0.000000,40.677832,"$GPGGA,171839.80,3721.8973025,N,07958.3643231,W,2,05,1.66,361.0930,M,-32.8284,M,0.8,0000*42"
396,0,0.000000,40.775413,"$GPGGA,171839.90,3721.8972699,N,07958.3643136,W,2,05,1.66,361.1695,M,-32.8284,M,0.9,0000*47"
398,0,0.000000,40.901311,"$GPGGA,171840.00,3721.8972406,N,07958.3643116,W,2,05,1.66,361.1976,M,-32.8284,M,1.0,0000*4C"
399,0,0.000000,40.973983,"$GPGGA,171840.10,3721.8972220,N,07958.3643192,W,2,05,1.66,361.2038,M,-32.8284,M,1.1,0000*42"
401,0,0.000000,41.074185,"$GPGGA,171840.20,3721.8972011,N,07958.3643376,W,2,05,1.66,361.1967,M,-32.8284,M,1.2,0000*4A"
403,0,0.000000,41.177866,"$GPGGA,171840.30,3721.8971837,N,07958.3643463,W,2,05,1.66,361.2091,M,-32.8284,M,0.7,0000*40"
404,0,0.000000,41.277538,"$GPGGA,171840.40,3721.8971573,N,07958.3643588,W,2,05,1.66,361.1807,M,-32.8284,M,0.8,0000*45"
406,0,0.000000,41.378254,"$GPGGA,171840.50,3721.8971204,N,07958.3643589,W,2,05,1.66,361.2148,M,-32.8284,M,0.9,0000*42"
407,0,0.000000,41.476019,"$GPGGA,171840.60,3721.8970580,N,07958.3643373,W,2,05,1.66,361.2574,M,-32.8284,M,1.0,0000*4B"
409,0,0.000000,41.583449,"$GPGGA,171840.70,3721.8970141,N,07958.3643485,W,2,05,1.66,361.1613,M,-32.8284,M,1.1,0000*4D"
410,0,0.000000,41.675048,"$GPGGA,171840.80,3721.8969932,N,07958.3643477,W,2,05,1.66,361.1661,M,-32.8284,M,1.2,0000*4D"
412,0,0.000000,41.778659,"$GPGGA,171840.90,3721.8969489,N,07958.3643287,W,2,05,1.66,361.1406,M,-32.8284,M,1.3,0000*4A"
414,0,0.000000,41.905438,"$GPGGA,171841.00,3721.8969284,N,07958.3643503,W,2,05,1.66,361.1442,M,-32.8284,M,1.4,0000*45"
415,0,0.000000,41.977909,"$GPGGA,171841.10,3721.8968841,N,07958.3643304,W,2,05,1.66,361.1397,M,-32.8284,M,1.5,0000*49"
416,0,0.000000,42.077033,"$GPGGA,171841.20,3721.8968592,N,07958.3643414,W,2,05,1.66,361.1624,M,-32.8284,M,1.6,0000*41"
418,0,0.000000,42.174350,"$GPGGA,171841.30,3721.8968391,N,07958.3643495,W,2,05,1.66,361.2074,M,-32.8284,M,0.5,0000*4E"
419,0,0.000000,42.274207,"$GPGGA,171841.40,3721.8968013,N,07958.3643564,W,2,05,1.66,361.1302,M,-32.8284,M,0.6,0000*4D"
421,0,0.000000,42.374253,"$GPGGA,171841.50,3721.8967741,N,07958.3643555,W,2,05,1.66,361.1059,M,-32.8284,M,0.7,0000*4D"
422,0,0.000000,42.473810,"$GPGGA,171841.60,3721.8967265,N,07958.3643466,W,2,05,1.66,361.1455,M,-32.8284,M,0.8,0000*4B"
424,0,0.000000,42.577508,"$GPGGA,171841.70,3721.8966969,N,07958.3643536,W,2,05,1.66,361.1637,M,-32.8284,M,0.9,0000*4F"
425,0,0.000000,42.677368,"$GPGGA,171841.80,3721.8966688,N,07958.3643481,W,2,05,1.66,361.1477,M,-32.8284,M,1.0,0000*43"
427,0,0.000000,42.780266,"$GPGGA,171841.90,3721.8966353,N,07958.3643415,W,2,05,1.66,361.1475,M,-32.8284,M,1.1,0000*4F"
429,0,0.000000,42.903928,"$GPGGA,171842.00,3721.8966133,N,07958.3643662,W,2,05,1.66,361.1665,M,-32.8284,M,1.2,0000*43"
430,0,0.000000,42.974651,"$GPGGA,171842.10,3721.8966236,N,07958.3643953,W,2,05,1.66,361.2011,M,-32.8284,M,1.3,0000*4E"
432,0,0.000000,43.074130,"$GPGGA,171842.20,3721.8965998,N,07958.3643851,W,2,04,2.01,361.2102,M,-32.8284,M,1.4,0000*45"
434,0,0.000000,43.173983,"$GPGGA,171842.30,3721.8965571,N,07958.3644006,W,2,04,2.01,361.2420,M,-32.8284,M,0.3,0000*41"
435,0,0.000000,43.285974,"$GPGGA,171842.40,3721.8965345,N,07958.3644104,W,2,04,2.01,361.1977,M,-32.8284,M,0.4,0000*4F"
436,0,0.000000,43.378274,"$GPGGA,171842.50,3721.8965004,N,07958.3644163,W,2,04,2.01,361.1442,M,-32.8284,M,0.5,0000*43"
437,0,0.000000,43.477505,"$GPGGA,171842.60,3721.8964687,N,07958.3644103,W,2,04,2.01,361.1738,M,-32.8284,M,0.6,0000*47"
438,0,0.000000,43.575888,"$GPGGA,171842.70,3721.8964403,N,07958.3644008,W,2,04,2.01,361.2311,M,-32.8284,M,0.7,0000*4F"
440,0,0.000000,43.673532,"$GPGGA,171842.80,3721.8964108,N,07958.3643499,W,2,04,2.01,361.3769,M,-32.8284,M,0.8,0000*40"
441,0,0.000000,43.773665,"$GPGGA,171842.90,3721.8963798,N,07958.3643583,W,2,04,2.01,361.3898,M,-32.8284,M,0.9,0000*43"
442,0,0.000000,43.899960,"$GPGGA,171843.00,3721.8963537,N,07958.3643590,W,2,04,2.01,361.3869,M,-32.8284,M,1.0,0000*48"
443,0,0.000000,43.977145,"$GPGGA,171843.10,3721.8963272,N,07958.3643560,W,2,04,2.01,361.3583,M,-32.8284,M,1.1,0000*48"
444,0,0.000000,44.078331,"$GPGGA,171843.20,3721.8962951,N,07958.3643648,W,2,04,2.01,361.3426,M,-32.8284,M,1.2,0000*44"
446,0,0.000000,44.177263,"$GPGGA,171843.30,3721.8962652,N,07958.3643583,W,2,04,2.01,361.3259,M,-32.8284,M,0.7,0000*47"
447,0,0.000000,44.275733,"$GPGGA,171843.40,3721.8962370,N,07958.3643579,W,2,04,2.01,361.2558,M,-32.8284,M,0.8,0000*48"
449,0,0.000000,44.373933,"$GPGGA,171843.50,3721.8962085,N,07958.3643548,W,2,04,2.01,361.1990,M,-32.8284,M,0.9,0000*48"
450,0,0.000000,44.474150,"$GPGGA,171843.60,3721.8961809,N,07958.3643412,W,2,04,2.01,361.2024,M,-32.8284,M,1.0,0000*47"
452,0,0.000000,44.573704,"$GPGGA,171843.70,3721.8961515,N,07958.3643360,W,2,04,2.01,361.2367,M,-32.8284,M,1.1,0000*41"
453,0,0.000000,44.677368,"$GPGGA,171843.80,3721.8961188,N,07958.3643313,W,2,04,2.01,361.2460,M,-32.8284,M,1.2,0000*49"
455,0,0.000000,44.777519,"$GPGGA,171843.90,3721.8960849,N,07958.3643259,W,2,04,2.01,361.2614,M,-32.8284,M,1.3,0000*42"
457,0,0.000000,44.903516,"$GPGGA,171844.00,3721.8960532,N,07958.3643218,W,2,04,2.01,361.2926,M,-32.8284,M,1.4,0000*41"
458,0,0.000000,44.975039,"$GPGGA,171844.10,3721.8960242,N,07958.3643120,W,2,04,2.01,361.3080,M,-32.8284,M,1.5,0000*4D"
459,0,0.000000,45.073416,"$GPGGA,171844.20,3721.8960004,N,07958.3643154,W,2,04,2.01,361.2523,M,-32.8284,M,1.6,0000*43"
460,0,0.000000,45.173557,"$GPGGA,171844.30,3721.8959796,N,07958.3643174,W,2,04,2.01,361.1102,M,-32.8284,M,0.5,0000*40"
461,0,0.000000,45.274868,"$GPGGA,171844.40,3721.8959429,N,07958.3642862,W,2,04,2.01,361.0812,M,-32.8284,M,0.6,0000*45"
462,0,0.000000,45.377398,"$GPGGA,171844.50,3721.8959381,N,07958.3643250,W,2,04,2.01,361.1904,M,-32.8284,M,0.7,0000*4D"
463,0,0.000000,45.477432,"$GPGGA,171844.60,3721.8959172,N,07958.3643303,W,2,04,2.01,361.2278,M,-32.8284,M,0.8,0000*4B"
465,0,0.000000,45.577247,"$GPGGA,171844.70,3721.8958879,N,07958.3643172,W,2,04,2.01,361.2160,M,-32.8284,M,0.9,0000*46"
466,0,0.000000,45.675563,"$GPGGA,171844.80,3721.8958666,N,07958.3643073,W,2,04,2.01,361.2359,M,-32.8284,M,1.0,0000*49"
466,0,0.000000,45.780823,"$GPGGA,171844.90,3721.8958461,N,07958.3643066,W,2,04,2.01,361.2877,M,-32.8284,M,1.1,0000*4F"
468,0,0.000000,45.900551,"$GPGGA,171845.00,3721.8958287,N,07958.3642880,W,2,04,2.01,361.2789,M,-32.8284,M,1.2,0000*45"
468,0,0.000000,45.974302,"$GPGGA,171845.10,3721.8958116,N,07958.3642900,W,2,04,2.01,361.2555,M,-32.8284,M,1.3,0000*44"
469,0,0.000000,46.077798,"$GPGGA,171845.20,3721.8957933,N,07958.3642904,W,2,04,2.01,361.2321,M,-32.8284,M,1.4,0000*41"
470,0,0.000000,46.177855,"$GPGGA,171845.30,3721.8957689,N,07958.3642796,W,2,04,2.01,361.2227,M,-32.8284,M,0.3,0000*4A"
470,0,0.000000,46.277905,"$GPGGA,171845.40,3721.8957351,N,07958.3642927,W,2,04,2.01,361.4054,M,-32.8284,M,0.4,0000*4E"
470,0,0.000000,46.376094,"$GPGGA,171845.50,3721.8957421,N,07958.3642636,W,2,04,2.01,361.2545,M,-32.8284,M,0.5,0000*42"
470,0,0.000000,46.474218,"$GPGGA,171845.60,3721.8957301,N,07958.3642676,W,2,04,2.01,361.2872,M,-32.8284,M,0.6,0000*4A"
470,0,0.000000,46.573060,"$GPGGA,171845.70,3721.8957348,N,07958.3642681,W,2,04,2.01,361.2734,M,-32.8284,M,0.7,0000*42"
470,0,0.000000,46.674674,"$GPGGA,171845.80,3721.8957368,N,07958.3642670,W,2,04,2.01,361.2467,M,-32.8284,M,0.8,0000*4B"
470,0,0.000000,46.777154,"$GPGGA,171845.90,3721.8957478,N,07958.3642709,W,2,04,2.01,361.2126,M,-32.8284,M,0.9,0000*42"
470,0,0.000000,46.903918,"$GPGGA,171846.00,3721.8957495,N,07958.3642683,W,2,04,2.01,361.2296,M,-32.8284,M,1.0,0000*48"
470,0,0.000000,46.979956,"$GPGGA,171846.10,3721.8957433,N,07958.3642662,W,2,04,2.01,361.2279,M,-32.8284,M,1.1,0000*4A"
470,0,0.000000,47.075746,"$GPGGA,171846.20,3721.8957464,N,07958.3642677,W,2,04,2.01,361.2050,M,-32.8284,M,1.2,0000*45"
470,0,0.000000,47.174107,"$GPGGA,171846.30,3721.8957467,N,07958.3642686,W,2,04,2.01,361.1939,M,-32.8284,M,0.7,0000*48"
