;GPS@@@
;Ver=1.1.0
;DIP=2009-00152-00
;Date=2026-Jan-12 12:59:45
;----------------------------------------------------------------------------------------------------------------------------------------------------------------------------------------
traces,odo_tick,pos(m),time_elapsed(s),GPS
2,0,0.000000,8.710453,"$GPGGA,183956.70,3721.9837979,N,07958.3249088,W,1,09,1.19,356.8960,M,-32.8286,M,,*6C"
2,0,0.000000,8.815040,"$GPGGA,183956.80,3721.9838125,N,07958.3249117,W,1,09,1.19,356.9291,M,-32.8286,M,,*6E"
2,0,0.000000,8.913434,"$GPGGA,183956.90,3721.9838196,N,07958.3249159,W,1,09,1.19,356.9774,M,-32.8286,M,,*63"
3,0,0.000000,9.067540,"$GPGGA,183957.00,3721.9838319,N,07958.3249194,W,1,09,1.19,356.9636,M,-32.8286,M,,*68"
4,0,0.000000,9.135251,"$GPGGA,183957.10,3721.9838438,N,07958.3249222,W,1,09,1.19,356.9501,M,-32.8286,M,,*64"
4,0,0.000000,9.210800,"$GPGGA,183957.20,3721.9838630,N,07958.3249231,W,1,09,1.19,356.9949,M,-32.8286,M,,*6F"
5,0,0.000000,9.310866,"$GPGGA,183957.30,3721.9838771,N,07958.3249463,W,1,09,1.19,357.0014,M,-32.8286,M,,*62"
6,0,0.000000,9.410611,"$GPGGA,183957.40,3721.9838884,N,07958.3249816,W,1,09,1.19,356.9725,M,-32.8286,M,,*63"
6,0,0.000000,9.514747,"$GPGGA,183957.50,3721.9839081,N,07958.3249846,W,1,09,1.19,356.9679,M,-32.8286,M,,*63"
7,0,0.000000,9.614222,"$GPGGA,183957.60,3721.9839289,N,07958.3249877,W,1,09,1.19,356.9965,M,-32.8286,M,,*6A"
8,0,0.000000,9.712575,"$GPGGA,183957.70,3721.9839372,N,07958.3249972,W,1,09,1.19,356.9882,M,-32.8286,M,,*62"
8,0,0.000000,9.812399,"$GPGGA,183957.80,3721.9839486,N,07958.3250101,W,1,09,1.19,356.9634,M,-32.8286,M,,*66"
10,0,0.000000,9.910008,"$GPGGA,183957.90,3721.9839671,N,07958.3250200,W,1,09,1.19,357.0068,M,-32.8286,M,,*68"
13,0,0.000000,10.063967,"$GPGGA,183958.00,3721.9839833,N,07958.3250334,W,1,09,1.19,357.0137,M,-32.8286,M,,*6B"
13,0,0.000000,10.134142,"$GPGGA,183958.10,3721.9839966,N,07958.3250607,W,1,09,1.19,356.9987,M,-32.8286,M,,*65"
14,0,0.000000,10.214572,"$GPGGA,183958.20,3721.9840245,N,07958.3250941,W,1,09,1.19,356.9635,M,-32.8286,M,,*69"
15,0,0.000000,10.313642,"$GPGGA,183958.30,3721.9840420,N,07958.3251003,W,1,09,1.19,356.9885,M,-32.8286,M,,*66"
17,0,0.000000,10.413762,"$GPGGA,183958.40,3721.9840540,N,07958.3251046,W,1,09,1.19,357.0039,M,-32.8286,M,,*60"
18,0,0.000000,10.530723,"$GPGGA,183958.50,3721.9840722,N,07958.3251236,W,1,09,1.19,357.0044,M,-32.8286,M,,*68"
19,0,0.000000,10.623759,"$GPGGA,183958.60,3721.9840931,N,07958.3251526,W,1,09,1.19,356.9736,M,-32.8286,M,,*6B"
20,0,0.000000,10.711417,"$GPGGA,183958.70,3721.9841160,N,07958.3251740,W,1,09,1.19,356.9547,M,-32.8286,M,,*61"
21,0,0.000000,10.810971,"$GPGGA,183958.80,3721.9841344,N,07958.3251974,W,1,09,1.19,357.0113,M,-32.8286,M,,*6E"
21,0,0.000000,10.914619,"$GPGGA,183958.90,3721.9841557,N,07958.3252199,W,1,09,1.19,357.0111,M,-32.8286,M,,*61"
23,0,0.000000,11.068104,"$GPGGA,183959.00,3721.9841664,N,07958.3252240,W,1,09,1.19,357.0355,M,-32.8286,M,,*6F"
23,0,0.000000,11.135926,"$GPGGA,183959.10,3721.9841607,N,07958.3252479,W,1,09,1.19,357.0592,M,-32.8286,M,,*6A"
24,0,0.000000,11.212935,"$GPGGA,183959.20,3721.9841637,N,07958.3252641,W,1,09,1.19,357.0598,M,-32.8286,M,,*69"
25,0,0.000000,11.310390,"$GPGGA,183959.30,3721.9841727,N,07958.3252796,W,1,09,1.19,357.0680,M,-32.8286,M,,*69"
26,0,0.000000,11.410007,"$GPGGA,183959.40,3721.9841949,N,07958.3252864,W,1,09,1.19,357.1434,M,-32.8286,M,,*66"
28,0,0.000000,11.509115,"$GPGGA,183959.50,3721.9842091,N,07958.3253124,W,1,09,1.19,357.1336,M,-32.8286,M,,*61"
29,0,0.000000,11.613780,"$GPGGA,183959.60,3721.9842349,N,07958.3253282,W,1,09,1.19,357.1288,M,-32.8286,M,,*6F"
30,0,0.000000,11.713704,"$GPGGA,183959.70,3721.9842629,N,07958.3253546,W,1,08,1.24,357.0448,M,-32.8286,M,,*66"
32,0,0.000000,11.813251,"$GPGGA,183959.80,3721.9842672,N,07958.3253995,W,1,08,1.24,357.0154,M,-32.8286,M,,*6D"
33,0,0.000000,11.913220,"$GPGGA,183959.90,3721.9842863,N,07958.3254223,W,1,08,1.24,357.0835,M,-32.8286,M,,*6D"
34,0,0.000000,12.063237,"$GPGGA,184000.00,3721.9842967,N,07958.3254404,W,1,08,1.24,357.0783,M,-32.8286,M,,*62"
35,0,0.000000,12.131026,"$GPGGA,184000.10,3721.9843158,N,07958.3254489,W,1,08,1.24,357.2244,M,-32.8286,M,,*6F"
35,0,0.000000,12.218435,"$GPGGA,184000.20,3721.9843256,N,07958.3255075,W,1,08,1.24,357.0880,M,-32.8286,M,,*67"
36,0,0.000000,12.313052,"$GPGGA,184000.30,3721.9843338,N,07958.3255047,W,1,09,1.19,357.1205,M,-32.8286,M,,*67"
37,0,0.000000,12.413436,"$GPGGA,184000.40,3721.9843671,N,07958.3254889,W,1,09,1.19,357.2388,M,-32.8286,M,,*64"
37,0,0.000000,12.514134,"$GPGGA,184000.50,3721.9843839,N,07958.3254912,W,1,09,1.19,357.1955,M,-32.8286,M,,*6D"
38,0,0.000000,12.613456,"$GPGGA,184000.60,3721.9844078,N,07958.3254893,W,1,09,1.19,357.1373,M,-32.8286,M,,*62"
39,0,0.000000,12.710942,"$GPGGA,184000.70,3721.9844252,N,07958.3254960,W,1,09,1.19,357.1094,M,-32.8286,M,,*6E"
40,0,0.000000,12.809884,"$GPGGA,184000.80,3721.9844503,N,07958.3255072,W,1,09,1.19,357.0987,M,-32.8286,M,,*63"
41,0,0.000000,12.910301,"$GPGGA,184000.90,3721.9844729,N,07958.3255145,W,1,09,1.19,357.1389,M,-32.8286,M,,*68"
42,0,0.000000,13.067133,"$GPGGA,184001.00,3721.9844765,N,07958.3255153,W,1,09,1.19,357.1611,M,-32.8286,M,,*6B"
43,0,0.000000,13.134844,"$GPGGA,184001.10,3721.9844864,N,07958.3255289,W,1,09,1.19,357.1844,M,-32.8286,M,,*6E"
43,0,0.000000,13.213696,"$GPGGA,184001.20,3721.9844941,N,07958.3255439,W,1,09,1.19,357.2000,M,-32.8286,M,,*6D"
44,0,0.000000,13.313025,"$GPGGA,184001.30,3721.9845053,N,07958.3255549,W,1,09,1.19,357.1689,M,-32.8286,M,,*65"
45,0,0.000000,13.411950,"$GPGGA,184001.40,3721.9845195,N,07958.3255646,W,1,09,1.19,357.1428,M,-32.8286,M,,*6C"
46,0,0.000000,13.510645,"$GPGGA,184001.50,3721.9845512,N,07958.3255681,W,1,09,1.19,357.2164,M,-32.8286,M,,*63"
47,0,0.000000,13.611333,"$GPGGA,184001.60,3721.9845673,N,07958.3255981,W,1,09,1.19,357.1683,M,-32.8286,M,,*66"
48,0,0.000000,13.715003,"$GPGGA,184001.70,3721.9845810,N,07958.3256160,W,1,09,1.19,357.1744,M,-32.8286,M,,*62"
49,0,0.000000,13.813793,"$GPGGA,184001.80,3721.9845915,N,07958.3256223,W,1,08,1.23,357.1682,M,-32.8286,M,,*6E"
50,0,0.000000,13.913298,"$GPGGA,184001.90,3721.9846080,N,07958.3256401,W,1,08,1.23,357.1660,M,-32.8286,M,,*63"
52,0,0.000000,14.067988,"$GPGGA,184002.00,3721.9846331,N,07958.3256528,W,1,09,1.19,357.1627,M,-32.8286,M,,*61"
53,0,0.000000,14.135769,"$GPGGA,184002.10,3721.9846691,N,07958.3256716,W,1,09,1.19,357.1892,M,-32.8286,M,,*60"
54,0,0.000000,14.214961,"$GPGGA,184002.20,3721.9846898,N,07958.3256924,W,1,09,1.19,357.2169,M,-32.8286,M,,*65"
56,0,0.000000,14.310453,"$GPGGA,184002.30,3721.9847129,N,07958.3256990,W,1,09,1.19,357.2234,M,-32.8286,M,,*62"
58,0,0.000000,14.414369,"$GPGGA,184002.40,3721.9847375,N,07958.3257303,W,1,09,1.19,357.1600,M,-32.8286,M,,*6F"
59,0,0.000000,14.514402,"$GPGGA,184002.50,3721.9847631,N,07958.3257511,W,1,09,1.19,357.1285,M,-32.8286,M,,*67"
61,0,0.000000,14.614458,"$GPGGA,184002.60,3721.9847871,N,07958.3257782,W,1,09,1.19,357.1478,M,-32.8286,M,,*62"
62,0,0.000000,14.713086,"$GPGGA,184002.70,3721.9848088,N,07958.3257934,W,1,09,1.19,357.1400,M,-32.8286,M,,*6E"
63,0,0.000000,14.811347,"$GPGGA,184002.80,3721.9848399,N,07958.3257997,W,1,09,1.19,357.2118,M,-32.8286,M,,*64"
64,0,0.000000,14.910837,"$GPGGA,184002.90,3721.9848637,N,07958.3258159,W,1,09,1.19,357.2100,M,-32.8286,M,,*68"
65,0,0.000000,15.064206,"$GPGGA,184003.00,3721.9848696,N,07958.3258442,W,1,09,1.19,357.1433,M,-32.8286,M,,*62"
66,0,0.000000,15.133597,"$GPGGA,184003.10,3721.9848909,N,07958.3258619,W,1,09,1.19,357.1525,M,-32.8286,M,,*60"
67,0,0.000000,15.213791,"$GPGGA,184003.20,3721.9849219,N,07958.3258708,W,1,09,1.19,357.1646,M,-32.8286,M,,*6F"
68,0,0.000000,15.313915,"$GPGGA,184003.30,3721.9849502,N,07958.3258696,W,1,09,1.19,357.1582,M,-32.8286,M,,*6E"
69,0,0.000000,15.413611,"$GPGGA,184003.40,3721.9849805,N,07958.3258839,W,1,09,1.19,357.2157,M,-32.8286,M,,*67"
70,0,0.000000,15.512330,"$GPGGA,184003.50,3721.9849922,N,07958.3259046,W,1,09,1.19,357.1906,M,-32.8286,M,,*6C"
71,0,0.000000,15.614321,"$GPGGA,184003.60,3721.9850046,N,07958.3259261,W,1,09,1.19,357.2113,M,-32.8286,M,,*64"
72,0,0.000000,15.709836,"$GPGGA,184003.70,3721.9850479,N,07958.3259487,W,1,09,1.19,357.3132,M,-32.8286,M,,*61"
74,0,0.000000,15.824015,"$GPGGA,184003.80,3721.9850607,N,07958.3259695,W,1,09,1.19,357.2502,M,-32.8286,M,,*62"
75,0,0.000000,15.913462,"$GPGGA,184003.90,3721.9850776,N,07958.3259808,W,1,09,1.19,357.1967,M,-32.8286,M,,*62"
76,0,0.000000,16.066912,"$GPGGA,184004.00,3721.9851009,N,07958.3259946,W,1,09,1.19,357.1750,M,-32.8286,M,,*63"
77,0,0.000000,16.134683,"$GPGGA,184004.10,3721.9851156,N,07958.3260188,W,1,09,1.19,357.1751,M,-32.8286,M,,*68"
78,0,0.000000,16.212300,"$GPGGA,184004.20,3721.9851284,N,07958.3260343,W,1,09,1.19,357.1711,M,-32.8286,M,,*66"
78,0,0.000000,16.310788,"$GPGGA,184004.30,3721.9851538,N,07958.3260422,W,1,09,1.19,357.1802,M,-32.8286,M,,*6A"
79,0,0.000000,16.411427,"$GPGGA,184004.40,3721.9851876,N,07958.3260483,W,1,09,1.19,357.2316,M,-32.8286,M,,*6C"
80,0,0.000000,16.509475,"$GPGGA,184004.50,3721.9852042,N,07958.3260643,W,1,09,1.19,357.2340,M,-32.8286,M,,*6C"
82,0,0.000000,16.613604,"$GPGGA,184004.60,3721.9852255,N,07958.3260830,W,1,09,1.19,357.2692,M,-32.8286,M,,*6B"
83,0,0.000000,16.713783,"$GPGGA,184004.70,3721.9852493,N,07958.3260984,W,1,09,1.19,357.2857,M,-32.8286,M,,*6F"
84,0,0.000000,16.813954,"$GPGGA,184004.80,3721.9852832,N,07958.3261202,W,1,09,1.19,357.2712,M,-32.8286,M,,*6D"
85,0,0.000000,16.911210,"$GPGGA,184004.90,3721.9853071,N,07958.3261385,W,1,09,1.19,357.2626,M,-32.8286,M,,*6A"
87,0,0.000000,17.063290,"$GPGGA,184005.00,3721.9853225,N,07958.3261578,W,1,09,1.19,357.2626,M,-32.8286,M,,*65"
88,0,0.000000,17.131065,"$GPGGA,184005.10,3721.9853394,N,07958.3261789,W,1,09,1.19,357.2588,M,-32.8286,M,,*64"
88,0,0.000000,17.210017,"$GPGGA,184005.20,3721.9853637,N,07958.3262015,W,1,09,1.19,357.2784,M,-32.8286,M,,*64"
89,0,0.000000,17.314898,"$GPGGA,184005.30,3721.9853721,N,07958.3262195,W,1,09,1.19,357.2828,M,-32.8286,M,,*63"
90,0,0.000000,17.413776,"$GPGGA,184005.40,3721.9853823,N,07958.3262359,W,1,09,1.19,357.2956,M,-32.8286,M,,*63"
91,0,0.000000,17.513831,"$GPGGA,184005.50,3721.9854007,N,07958.3262540,W,1,09,1.19,357.3331,M,-32.8286,M,,*6F"
92,0,0.000000,17.611752,"$GPGGA,184005.60,3721.9854145,N,07958.3262677,W,1,09,1.19,357.3382,M,-32.8286,M,,*64"
93,0,0.000000,17.710551,"$GPGGA,184005.70,3721.9854347,N,07958.3262878,W,1,09,1.19,357.3107,M,-32.8286,M,,*6B"
94,0,0.000000,17.810289,"$GPGGA,184005.80,3721.9854619,N,07958.3263146,W,1,09,1.19,357.3100,M,-32.8286,M,,*68"
96,0,0.000000,17.923606,"$GPGGA,184005.90,3721.9854772,N,07958.3263423,W,1,09,1.19,357.2997,M,-32.8286,M,,*64"
98,0,0.000000,18.067250,"$GPGGA,184006.00,3721.9854878,N,07958.3263629,W,1,09,1.19,357.2810,M,-32.8286,M,,*6D"
99,0,0.000000,18.135022,"$GPGGA,184006.10,3721.9855153,N,07958.3263735,W,1,09,1.19,357.2999,M,-32.8286,M,,*61"
100,0,0.000000,18.212564,"$GPGGA,184006.20,3721.9855566,N,07958.3263879,W,1,09,1.19,357.3804,M,-32.8286,M,,*63"
102,0,0.000000,18.315238,"$GPGGA,184006.30,3721.9855749,N,07958.3264033,W,1,09,1.19,357.3166,M,-32.8286,M,,*61"
103,0,0.000000,18.410439,"$GPGGA,184006.40,3721.9856010,N,07958.3264325,W,1,09,1.19,357.2268,M,-32.8286,M,,*66"
105,0,0.000000,18.510123,"$GPGGA,184006.50,3721.9856074,N,07958.3264666,W,1,09,1.19,357.2034,M,-32.8286,M,,*6C"
106,0,0.000000,18.609783,"$GPGGA,184006.60,3721.9856243,N,07958.3264944,W,1,09,1.19,357.2817,M,-32.8286,M,,*6F"
107,0,0.000000,18.714029,"$GPGGA,184006.70,3721.9856405,N,07958.3265260,W,1,09,1.19,357.3085,M,-32.8286,M,,*64"
109,0,0.000000,18.816168,"$GPGGA,184006.80,3721.9856743,N,07958.3265499,W,1,09,1.19,357.3791,M,-32.8286,M,,*68"
110,0,0.000000,18.913048,"$GPGGA,184006.90,3721.9856829,N,07958.3265746,W,1,09,1.19,357.3547,M,-32.8286,M,,*62"
112,0,0.000000,19.064619,"$GPGGA,184007.00,3721.9856951,N,07958.3265986,W,1,09,1.19,357.3029,M,-32.8286,M,,*6B"
114,0,0.000000,19.132351,"$GPGGA,184007.10,3721.9857185,N,07958.3266135,W,1,09,1.19,357.2877,M,-32.8286,M,,*6B"
115,0,0.000000,19.209757,"$GPGGA,184007.20,3721.9857397,N,07958.3266384,W,1,09,1.19,357.2485,M,-32.8286,M,,*60"
116,0,0.000000,19.309982,"$GPGGA,184007.30,3721.9857632,N,07958.3266739,W,1,09,1.19,357.1440,M,-32.8286,M,,*63"
118,0,0.000000,19.413717,"$GPGGA,184007.40,3721.9857949,N,07958.3266959,W,1,09,1.19,357.1456,M,-32.8286,M,,*68"
119,0,0.000000,19.513348,"$GPGGA,184007.50,3721.9858197,N,07958.3267135,W,1,09,1.19,357.1426,M,-32.8286,M,,*69"
121,0,0.000000,19.613673,"$GPGGA,184007.60,3721.9858561,N,07958.3267288,W,1,09,1.19,357.1746,M,-32.8286,M,,*67"
122,0,0.000000,19.711890,"$GPGGA,184007.70,3721.9858702,N,07958.3267596,W,1,09,1.19,357.1369,M,-32.8286,M,,*60"
124,0,0.000000,19.809623,"$GPGGA,184007.80,3721.9858925,N,07958.3267729,W,1,09,1.19,357.2378,M,-32.8286,M,,*61"
125,0,0.000000,19.911238,"$GPGGA,184007.90,3721.9859188,N,07958.3267987,W,1,09,1.19,357.2866,M,-32.8286,M,,*60"
127,0,0.000000,20.062776,"$GPGGA,184008.00,3721.9859349,N,07958.3268236,W,1,09,1.19,357.3476,M,-32.8286,M,,*6B"
127,0,0.000000,20.130581,"$GPGGA,184008.10,3721.9859576,N,07958.3268487,W,1,09,1.19,357.3158,M,-32.8286,M,,*65"
129,0,0.000000,20.213713,"$GPGGA,184008.20,3721.9859530,N,07958.3268805,W,1,09,1.19,357.2681,M,-32.8286,M,,*60"
130,0,0.000000,20.313095,"$GPGGA,184008.30,3721.9859662,N,07958.3269077,W,1,09,1.19,357.2783,M,-32.8286,M,,*6A"
131,0,0.000000,20.412042,"$GPGGA,184008.40,3721.9859918,N,07958.3269271,W,1,09,1.19,357.2843,M,-32.8286,M,,*68"
133,0,0.000000,20.510117,"$GPGGA,184008.50,3721.9860186,N,07958.3269472,W,1,09,1.19,357.2504,M,-32.8286,M,,*67"
134,0,0.000000,20.610174,"$GPGGA,184008.60,3721.9860229,N,07958.3269702,W,1,09,1.19,357.2392,M,-32.8286,M,,*6F"
135,0,0.000000,20.710247,"$GPGGA,184008.70,3721.9860446,N,07958.3269917,W,1,09,1.19,357.3090,M,-32.8286,M,,*6B"
137,0,0.000000,20.815838,"$GPGGA,184008.80,3721.9860646,N,07958.3270102,W,1,09,1.19,357.4002,M,-32.8286,M,,*6E"
138,0,0.000000,20.913277,"$GPGGA,184008.90,3721.9860930,N,07958.3270277,W,1,09,1.19,357.3856,M,-32.8286,M,,*6E"
140,0,0.000000,21.066520,"$GPGGA,184009.00,3721.9861100,N,07958.3270450,W,1,09,1.19,357.3771,M,-32.8286,M,,*65"
141,0,0.000000,21.134328,"$GPGGA,184009.10,3721.9861296,N,07958.3270523,W,1,09,1.19,357.4100,M,-32.8286,M,,*6A"
141,0,0.000000,21.209619,"$GPGGA,184009.20,3721.9861682,N,07958.3270468,W,1,09,1.19,357.4560,M,-32.8286,M,,*64"
142,0,0.000000,21.309635,"$GPGGA,184009.30,3721.9861952,N,07958.3270470,W,1,09,1.19,357.5217,M,-32.8286,M,,*68"
144,0,0.000000,21.414048,"$GPGGA,184009.40,3721.9862245,N,07958.3270210,W,1,09,1.19,356.9153,M,-32.8286,M,,*6F"
145,0,0.000000,21.514055,"$GPGGA,184009.50,3721.9862398,N,07958.3270555,W,1,09,1.19,356.9200,M,-32.8286,M,,*6C"
146,0,0.000000,21.613332,"$GPGGA,184009.60,3721.9862556,N,07958.3270794,W,1,09,1.19,356.9700,M,-32.8286,M,,*61"
147,0,0.000000,21.712519,"$GPGGA,184009.70,3721.9862566,N,07958.3271769,W,1,09,1.19,357.4209,M,-32.8286,M,,*60"
148,0,0.000000,21.814097,"$GPGGA,184009.80,3721.9862798,N,07958.3272069,W,1,09,1.19,357.3709,M,-32.8286,M,,*6A"
149,0,0.000000,21.910465,"$GPGGA,184009.90,3721.9863124,N,07958.3272258,W,1,09,1.19,357.4142,M,-32.8286,M,,*65"
151,0,0.000000,22.063511,"$GPGGA,184010.00,3721.9863845,N,07958.3271265,W,1,09,1.19,356.7958,M,-32.8286,M,,*66"
151,0,0.000000,22.131346,"$GPGGA,184010.10,3721.9864030,N,07958.3271524,W,1,09,1.19,356.7704,M,-32.8286,M,,*6F"
152,0,0.000000,22.212902,"$GPGGA,184010.20,3721.9864185,N,07958.3271802,W,1,09,1.19,356.7213,M,-32.8286,M,,*69"
153,0,0.000000,22.313532,"$GPGGA,184010.30,3721.9864339,N,07958.3272032,W,1,09,1.19,356.7773,M,-32.8286,M,,*66"
154,0,0.000000,22.413812,"$GPGGA,184010.40,3721.9864407,N,07958.3272435,W,1,09,1.19,356.7432,M,-32.8286,M,,*6E"
155,0,0.000000,22.512091,"$GPGGA,184010.50,3721.9864668,N,07958.3272694,W,1,09,1.19,356.8020,M,-32.8286,M,,*65"
157,0,0.000000,22.609731,"$GPGGA,184010.60,3721.9864864,N,07958.3272858,W,1,09,1.19,356.7846,M,-32.8286,M,,*6D"
158,0,0.000000,22.709512,"$GPGGA,184010.70,3721.9864982,N,07958.3272969,W,1,09,1.19,356.7365,M,-32.8286,M,,*6C"
159,0,0.000000,22.810286,"$GPGGA,184010.80,3721.9865064,N,07958.3273150,W,1,09,1.19,356.7419,M,-32.8286,M,,*6C"
160,0,0.000000,22.913364,"$GPGGA,184010.90,3721.9865180,N,07958.3273312,W,1,09,1.19,356.7391,M,-32.8286,M,,*65"
162,0,0.000000,23.066819,"$GPGGA,184011.00,3721.9865380,N,07958.3273420,W,1,09,1.19,356.7917,M,-32.8286,M,,*6D"
163,0,0.000000,23.134607,"$GPGGA,184011.10,3721.9865846,N,07958.3273759,W,1,09,1.19,356.8239,M,-32.8286,M,,*68"
164,0,0.000000,23.212088,"$GPGGA,184011.20,3721.9866023,N,07958.3273741,W,1,09,1.19,356.7974,M,-32.8286,M,,*67"
165,0,0.000000,23.309918,"$GPGGA,184011.30,3721.9866568,N,07958.3273836,W,1,09,1.19,356.9079,M,-32.8286,M,,*69"
167,0,0.000000,23.411851,"$GPGGA,184011.40,3721.9866315,N,07958.3273893,W,1,09,1.19,356.7144,M,-32.8286,M,,*6C"
168,0,0.000000,23.510091,"$GPGGA,184011.50,3721.9867176,N,07958.3274542,W,1,09,1.19,356.8412,M,-32.8286,M,,*64"
170,0,0.000000,23.614799,"$GPGGA,184011.60,3721.9867426,N,07958.3275009,W,1,09,1.19,356.7811,M,-32.8286,M,,*6C"
171,0,0.000000,23.713450,"$GPGGA,184011.70,3721.9867618,N,07958.3275116,W,1,09,1.19,356.7979,M,-32.8286,M,,*62"
172,0,0.000000,23.813850,"$GPGGA,184011.80,3721.9867782,N,07958.3275203,W,1,09,1.19,356.8529,M,-32.8286,M,,*6E"
174,0,0.000000,23.912513,"$GPGGA,184011.90,3721.9868116,N,07958.3275540,W,1,09,1.19,356.8904,M,-32.8286,M,,*68"
176,0,0.000000,24.066254,"$GPGGA,184012.00,3721.9868357,N,07958.3275801,W,1,09,1.19,356.8334,M,-32.8286,M,,*64"
177,0,0.000000,24.131944,"$GPGGA,184012.10,3721.9868654,N,07958.3275975,W,1,09,1.19,356.8144,M,-32.8286,M,,*64"
178,0,0.000000,24.209626,"$GPGGA,184012.20,3721.9868849,N,07958.3276006,W,1,09,1.19,356.7766,M,-32.8286,M,,*62"
180,0,0.000000,24.315469,"$GPGGA,184012.30,3721.9869222,N,07958.3276036,W,1,08,1.24,356.8631,M,-32.8286,M,,*65"
181,0,0.000000,24.412636,"$GPGGA,184012.40,3721.9869463,N,07958.3276278,W,1,08,1.24,356.8641,M,-32.8286,M,,*6E"
182,0,0.000000,24.513830,"$GPGGA,184012.50,3721.9869693,N,07958.3276392,W,1,08,1.24,356.9048,M,-32.8286,M,,*69"
184,0,0.000000,24.612103,"$GPGGA,184012.60,3721.9869972,N,07958.3276630,W,1,08,1.24,356.8757,M,-32.8286,M,,*6F"
185,0,0.000000,24.709729,"$GPGGA,184012.70,3721.9870293,N,07958.3276583,W,1,08,1.24,356.8204,M,-32.8286,M,,*6A"
186,0,0.000000,24.809954,"$GPGGA,184012.80,3721.9870461,N,07958.3276689,W,1,08,1.24,356.7976,M,-32.8286,M,,*66"
187,0,0.000000,24.909964,"$GPGGA,184012.90,3721.9870934,N,07958.3277055,W,1,08,1.24,356.9036,M,-32.8286,M,,*6F"
190,0,0.000000,25.065261,"$GPGGA,184013.00,3721.9871105,N,07958.3277271,W,1,08,1.24,356.9255,M,-32.8286,M,,*6F"
191,0,0.000000,25.133056,"$GPGGA,184013.10,3721.9871433,N,07958.3277384,W,1,09,1.19,356.9585,M,-32.8286,M,,*60"
192,0,0.000000,25.212958,"$GPGGA,184013.20,3721.9871593,N,07958.3277583,W,1,09,1.19,356.9324,M,-32.8286,M,,*64"
194,0,0.000000,25.312026,"$GPGGA,184013.30,3721.9871810,N,07958.3277701,W,1,09,1.19,356.8824,M,-32.8286,M,,*61"
196,0,0.000000,25.410689,"$GPGGA,184013.40,3721.9872109,N,07958.3278026,W,1,10,1.10,356.8717,M,-32.8286,M,,*67"
197,0,0.000000,25.510536,"$GPGGA,184013.50,3721.9872618,N,07958.3278299,W,1,10,1.10,356.9528,M,-32.8286,M,,*68"
199,0,0.000000,25.610613,"$GPGGA,184013.60,3721.9872943,N,07958.3278613,W,1,10,1.10,356.9479,M,-32.8286,M,,*69"
200,0,0.000000,25.720044,"$GPGGA,184013.70,3721.9873182,N,07958.3278705,W,1,10,1.10,356.8872,M,-32.8286,M,,*6C"
202,0,0.000000,25.813282,"$GPGGA,184013.80,3721.9873551,N,07958.3278750,W,1,10,1.10,356.8602,M,-32.8286,M,,*60"
203,0,0.000000,25.912823,"$GPGGA,184013.90,3721.9873673,N,07958.3278803,W,1,10,1.10,356.7969,M,-32.8286,M,,*66"
205,0,0.000000,26.066566,"$GPGGA,184014.00,3721.9873809,N,07958.3278881,W,1,10,1.10,356.8602,M,-32.8286,M,,*6C"
206,0,0.000000,26.134387,"$GPGGA,184014.10,3721.9874047,N,07958.3279066,W,1,10,1.10,356.8643,M,-32.8286,M,,*6D"
207,0,0.000000,26.209809,"$GPGGA,184014.20,3721.9873859,N,07958.3279509,W,1,10,1.10,356.7326,M,-32.8286,M,,*6B"
208,0,0.000000,26.309360,"$GPGGA,184014.30,3721.9873943,N,07958.3279671,W,1,10,1.10,356.6744,M,-32.8286,M,,*6D"
209,0,0.000000,26.413637,"$GPGGA,184014.40,3721.9874134,N,07958.3279867,W,1,10,1.10,356.6605,M,-32.8286,M,,*68"
210,0,0.000000,26.514370,"$GPGGA,184014.50,3721.9874443,N,07958.3279954,W,1,10,1.10,356.6985,M,-32.8286,M,,*6A"
210,0,0.000000,26.613496,"$GPGGA,184014.60,3721.9874495,N,07958.3280004,W,1,10,1.10,356.6425,M,-32.8286,M,,*6F"
211,0,0.000000,26.712864,"$GPGGA,184014.70,3721.9874522,N,07958.3280132,W,1,10,1.10,356.6315,M,-32.8286,M,,*63"
211,0,0.000000,26.810582,"$GPGGA,184014.80,3721.9874587,N,07958.3280138,W,1,10,1.10,356.6412,M,-32.8286,M,,*69"
212,0,0.000000,26.911470,"$GPGGA,184014.90,3721.9874616,N,07958.3280272,W,1,10,1.10,356.6542,M,-32.8286,M,,*6A"
215,0,0.000000,27.065344,"$GPGGA,184015.00,3721.9874694,N,07958.3280403,W,1,10,1.10,356.6505,M,-32.8286,M,,*6B"
216,0,0.000000,27.133200,"$GPGGA,184015.10,3721.9874931,N,07958.3280337,W,1,10,1.10,356.6934,M,-32.8286,M,,*64"
217,0,0.000000,27.213784,"$GPGGA,184015.20,3721.9875575,N,07958.3280445,W,1,10,1.10,356.7028,M,-32.8286,M,,*6D"
218,0,0.000000,27.314096,"$GPGGA,184015.30,3721.9875776,N,07958.3280760,W,1,10,1.10,356.6583,M,-32.8286,M,,*6C"
219,0,0.000000,27.413366,"$GPGGA,184015.40,3721.9875967,N,07958.3281272,W,1,10,1.10,356.6046,M,-32.8286,M,,*6E"
220,0,0.000000,27.513268,"$GPGGA,184015.50,3721.9876470,N,07958.3281781,W,1,10,1.10,356.6355,M,-32.8286,M,,*6F"
221,0,0.000000,27.609626,"$GPGGA,184015.60,3721.9876504,N,07958.3282020,W,1,10,1.10,356.6312,M,-32.8286,M,,*62"
222,0,0.000000,27.709714,"$GPGGA,184015.70,3721.9876550,N,07958.3282136,W,1,10,1.10,356.6508,M,-32.8286,M,,*69"
224,0,0.000000,27.813243,"$GPGGA,184015.80,3721.9876792,N,07958.3282249,W,1,10,1.10,356.6851,M,-32.8286,M,,*60"
225,0,0.000000,27.913642,"$GPGGA,184015.90,3721.9877037,N,07958.3282578,W,1,10,1.10,356.6063,M,-32.8286,M,,*64"
227,0,0.000000,28.067768,"$GPGGA,184016.00,3721.9877209,N,07958.3282689,W,1,10,1.10,356.6155,M,-32.8286,M,,*68"
227,0,0.000000,28.135479,"$GPGGA,184016.10,3721.9877407,N,07958.3282892,W,1,10,1.10,356.6390,M,-32.8286,M,,*6E"
228,0,0.000000,28.210924,"$GPGGA,184016.20,3721.9877658,N,07958.3283041,W,1,10,1.10,356.6622,M,-32.8286,M,,*6E"
228,0,0.000000,28.310090,"$GPGGA,184016.30,3721.9877751,N,07958.3283131,W,1,10,1.10,356.6325,M,-32.8286,M,,*63"
229,0,0.000000,28.410493,"$GPGGA,184016.40,3721.9877853,N,07958.3283220,W,1,10,1.10,356.6177,M,-32.8286,M,,*6F"
230,0,0.000000,28.512504,"$GPGGA,184016.50,3721.9877937,N,07958.3283297,W,1,10,1.10,356.6054,M,-32.8286,M,,*61"
231,0,0.000000,28.614189,"$GPGGA,184016.60,3721.9878333,N,07958.3283419,W,1,10,1.10,356.6697,M,-32.8286,M,,*6A"
233,0,0.000000,28.713908,"$GPGGA,184016.70,3721.9878468,N,07958.3283624,W,1,10,1.10,356.6384,M,-32.8286,M,,*69"
235,0,0.000000,28.813519,"$GPGGA,184016.80,3721.9878556,N,07958.3284095,W,1,10,1.10,356.6041,M,-32.8286,M,,*6B"
237,0,0.000000,28.911173,"$GPGGA,184016.90,3721.9878661,N,07958.3284569,W,1,10,1.10,356.5909,M,-32.8286,M,,*6D"
239,0,0.000000,29.064039,"$GPGGA,184017.00,3721.9878781,N,07958.3284828,W,1,10,1.10,356.6077,M,-32.8286,M,,*61"
240,0,0.000000,29.133083,"$GPGGA,184017.10,3721.9879114,N,07958.3285128,W,1,10,1.10,356.6416,M,-32.8286,M,,*60"
242,0,0.000000,29.213536,"$GPGGA,184017.20,3721.9879356,N,07958.3285323,W,1,10,1.10,356.6223,M,-32.8286,M,,*6E"
243,0,0.000000,29.313844,"$GPGGA,184017.30,3721.9879620,N,07958.3285548,W,1,10,1.10,356.6243,M,-32.8286,M,,*66"
245,0,0.000000,29.413704,"$GPGGA,184017.40,3721.9879876,N,07958.3285901,W,1,10,1.10,356.5974,M,-32.8286,M,,*61"
246,0,0.000000,29.512732,"$GPGGA,184017.50,3721.9880053,N,07958.3286198,W,1,10,1.10,356.6050,M,-32.8286,M,,*6E"
247,0,0.000000,29.610997,"$GPGGA,184017.60,3721.9880140,N,07958.3286425,W,1,10,1.10,356.5780,M,-32.8286,M,,*64"
248,0,0.000000,29.710297,"$GPGGA,184017.70,3721.9880216,N,07958.3286497,W,1,10,1.10,356.5371,M,-32.8286,M,,*66"
249,0,0.000000,29.810266,"$GPGGA,184017.80,3721.9880344,N,07958.3286622,W,1,10,1.10,356.5141,M,-32.8286,M,,*62"
250,0,0.000000,29.914358,"$GPGGA,184017.90,3721.9880525,N,07958.3286878,W,1,10,1.10,356.5186,M,-32.8286,M,,*68"
252,0,0.000000,30.067672,"$GPGGA,184018.00,3721.9880443,N,07958.3287329,W,1,10,1.10,356.4687,M,-32.8286,M,,*66"
253,0,0.000000,30.135443,"$GPGGA,184018.10,3721.9880448,N,07958.3287684,W,1,10,1.10,356.4157,M,-32.8286,M,,*64"
254,0,0.000000,30.213104,"$GPGGA,184018.20,3721.9880396,N,07958.3287955,W,1,10,1.10,356.3395,M,-32.8286,M,,*6B"
255,0,0.000000,30.310730,"$GPGGA,184018.30,3721.9880608,N,07958.3288199,W,1,10,1.10,356.3426,M,-32.8286,M,,*60"
256,0,0.000000,30.411870,"$GPGGA,184018.40,3721.9880807,N,07958.3288385,W,1,10,1.10,356.3183,M,-32.8286,M,,*63"
258,0,0.000000,30.509473,"$GPGGA,184018.50,3721.9880952,N,07958.3288498,W,1,10,1.10,356.2995,M,-32.8286,M,,*66"
259,0,0.000000,30.609287,"$GPGGA,184018.60,3721.9881224,N,07958.3288644,W,1,10,1.10,356.3163,M,-32.8286,M,,*6D"
260,0,0.000000,30.713715,"$GPGGA,184018.70,3721.9881514,N,07958.3288890,W,1,10,1.10,356.3262,M,-32.8286,M,,*6D"
262,0,0.000000,30.813918,"$GPGGA,184018.80,3721.9881660,N,07958.3289077,W,1,10,1.10,356.3023,M,-32.8286,M,,*65"
263,0,0.000000,30.913139,"$GPGGA,184018.90,3721.9881801,N,07958.3289268,W,1,10,1.10,356.2817,M,-32.8286,M,,*6F"
265,0,0.000000,31.065017,"$GPGGA,184019.00,3721.9881943,N,07958.3289480,W,1,10,1.10,356.2840,M,-32.8286,M,,*62"
265,0,0.000000,31.132841,"$GPGGA,184019.10,3721.9882324,N,07958.3289443,W,1,10,1.10,356.3995,M,-32.8286,M,,*6C"
266,0,0.000000,31.209968,"$GPGGA,184019.20,3721.9882351,N,07958.3289751,W,1,10,1.10,356.3817,M,-32.8286,M,,*66"
267,0,0.000000,31.314168,"$GPGGA,184019.30,3721.9882611,N,07958.3290061,W,1,10,1.10,356.3341,M,-32.8286,M,,*62"
269,0,0.000000,31.413224,"$GPGGA,184019.40,3721.9882907,N,07958.3290199,W,1,10,1.10,356.3436,M,-32.8286,M,,*6C"
270,0,0.000000,31.514050,"$GPGGA,184019.50,3721.9883285,N,07958.3290402,W,1,10,1.10,356.3033,M,-32.8286,M,,*6B"
272,0,0.000000,31.614747,"$GPGGA,184019.60,3721.9883356,N,07958.3290832,W,1,10,1.10,356.2845,M,-32.8286,M,,*60"
274,0,0.000000,31.712484,"$GPGGA,184019.70,3721.9883337,N,07958.3291211,W,1,10,1.10,356.2173,M,-32.8286,M,,*60"
275,0,0.000000,31.809637,"$GPGGA,184019.80,3721.9883360,N,07958.3291578,W,1,10,1.10,356.1040,M,-32.8286,M,,*67"
277,0,0.000000,31.909758,"$GPGGA,184019.90,3721.9883819,N,07958.3291782,W,1,10,1.10,356.1209,M,-32.8286,M,,*6B"
279,0,0.000000,32.068383,"$GPGGA,184020.00,3721.9884120,N,07958.3291861,W,1,10,1.10,356.0932,M,-32.8286,M,,*6C"
280,0,0.000000,32.136125,"$GPGGA,184020.10,3721.9884324,N,07958.3292121,W,1,10,1.10,356.0654,M,-32.8286,M,,*6A"
281,0,0.000000,32.213306,"$GPGGA,184020.20,3721.9884585,N,07958.3292239,W,1,10,1.10,356.1610,M,-32.8286,M,,*6F"
282,0,0.000000,32.316245,"$GPGGA,184020.30,3721.9884725,N,07958.3292485,W,1,10,1.10,356.0772,M,-32.8286,M,,*63"
283,0,0.000000,32.411261,"$GPGGA,184020.40,3721.9884932,N,07958.3292708,W,1,10,1.10,355.9333,M,-32.8286,M,,*61"
285,0,0.000000,32.512961,"$GPGGA,184020.50,3721.9884862,N,07958.3292908,W,1,10,1.10,355.8381,M,-32.8286,M,,*62"
286,0,0.000000,32.610975,"$GPGGA,184020.60,3721.9884999,N,07958.3292925,W,1,10,1.10,355.8327,M,-32.8286,M,,*67"
288,0,0.000000,32.714475,"$GPGGA,184020.70,3721.9885825,N,07958.3293041,W,1,10,1.10,356.2057,M,-32.8286,M,,*66"
290,0,0.000000,32.813484,"$GPGGA,184020.80,3721.9886123,N,07958.3293412,W,1,10,1.10,356.1877,M,-32.8286,M,,*6E"
292,0,0.000000,32.913241,"$GPGGA,184020.90,3721.9886182,N,07958.3293863,W,1,10,1.10,356.0889,M,-32.8286,M,,*6E"
294,0,0.000000,33.068192,"$GPGGA,184021.00,3721.9886409,N,07958.3294174,W,1,10,1.10,356.0900,M,-32.8286,M,,*68"
295,0,0.000000,33.135926,"$GPGGA,184021.10,3721.9886739,N,07958.3294297,W,1,10,1.10,356.1501,M,-32.8286,M,,*6B"
296,0,0.000000,33.209975,"$GPGGA,184021.20,3721.9886982,N,07958.3294410,W,1,10,1.10,356.2810,M,-32.8286,M,,*61"
297,0,0.000000,33.309565,"$GPGGA,184021.30,3721.9887276,N,07958.3294689,W,1,10,1.10,356.1790,M,-32.8286,M,,*67"
298,0,0.000000,33.413504,"$GPGGA,184021.40,3721.9887608,N,07958.3295047,W,1,10,1.10,356.0293,M,-32.8286,M,,*6F"
300,0,0.000000,33.513595,"$GPGGA,184021.50,3721.9887970,N,07958.3295090,W,1,10,1.10,356.1222,M,-32.8286,M,,*6F"
301,0,0.000000,33.612989,"$GPGGA,184021.60,3721.9888205,N,07958.3295173,W,1,10,1.10,356.0903,M,-32.8286,M,,*6F"
302,0,0.000000,33.713480,"$GPGGA,184021.70,3721.9888309,N,07958.3295704,W,1,10,1.10,356.0573,M,-32.8286,M,,*6E"
303,0,0.000000,33.813820,"$GPGGA,184021.80,3721.9888543,N,07958.3295903,W,1,10,1.10,356.1075,M,-32.8286,M,,*62"
304,0,0.000000,33.911032,"$GPGGA,184021.90,3721.9888725,N,07958.3295921,W,1,10,1.10,356.1345,M,-32.8286,M,,*61"
306,0,0.000000,34.064598,"$GPGGA,184022.00,3721.9888821,N,07958.3296124,W,1,10,1.10,356.0901,M,-32.8286,M,,*65"
306,0,0.000000,34.132364,"$GPGGA,184022.10,3721.9888912,N,07958.3296467,W,1,10,1.10,356.0834,M,-32.8286,M,,*60"
307,0,0.000000,34.213567,"$GPGGA,184022.20,3721.9889055,N,07958.3296745,W,1,10,1.10,356.0580,M,-32.8286,M,,*69"
308,0,0.000000,34.311788,"$GPGGA,184022.30,3721.9889236,N,07958.3296930,W,1,10,1.10,356.1587,M,-32.8286,M,,*65"
309,0,0.000000,34.413241,"$GPGGA,184022.40,3721.9889323,N,07958.3297132,W,1,10,1.10,356.1904,M,-32.8286,M,,*6B"
310,0,0.000000,34.512913,"$GPGGA,184022.50,3721.9889508,N,07958.3297319,W,1,10,1.10,356.1224,M,-32.8286,M,,*67"
311,0,0.000000,34.609901,"$GPGGA,184022.60,3721.9889827,N,07958.3297518,W,1,10,1.10,356.1029,M,-32.8286,M,,*6C"
312,0,0.000000,34.709825,"$GPGGA,184022.70,3721.9890020,N,07958.3297752,W,1,10,1.10,356.0745,M,-32.8286,M,,*6A"
314,0,0.000000,34.811686,"$GPGGA,184022.80,3721.9890262,N,07958.3298125,W,1,10,1.10,356.0269,M,-32.8286,M,,*63"
315,0,0.000000,34.913076,"$GPGGA,184022.90,3721.9890520,N,07958.3298318,W,1,10,1.10,356.0349,M,-32.8286,M,,*6C"
316,0,0.000000,35.068252,"$GPGGA,184023.00,3721.9890898,N,07958.3298557,W,1,10,1.10,356.0510,M,-32.8286,M,,*6D"
317,0,0.000000,35.136004,"$GPGGA,184023.10,3721.9891213,N,07958.3298938,W,1,09,1.18,356.0358,M,-32.8286,M,,*6B"
318,0,0.000000,35.211444,"$GPGGA,184023.20,3721.9891351,N,07958.3299169,W,1,09,1.18,356.0045,M,-32.8286,M,,*6D"
319,0,0.000000,35.309824,"$GPGGA,184023.30,3721.9891567,N,07958.3299333,W,1,09,1.18,356.0105,M,-32.8286,M,,*67"
321,0,0.000000,35.415963,"$GPGGA,184023.40,3721.9891624,N,07958.3299740,W,1,09,1.18,355.9625,M,-32.8286,M,,*6B"
322,0,0.000000,35.509959,"$GPGGA,184023.50,3721.9891828,N,07958.3299966,W,1,09,1.18,355.9418,M,-32.8286,M,,*6E"
323,0,0.000000,35.611997,"$GPGGA,184023.60,3721.9892172,N,07958.3300005,W,1,09,1.18,355.9772,M,-32.8286,M,,*6A"
324,0,0.000000,35.713335,"$GPGGA,184023.70,3721.9892228,N,07958.3300243,W,1,09,1.18,355.9440,M,-32.8286,M,,*65"
326,0,0.000000,35.812310,"$GPGGA,184023.80,3721.9892280,N,07958.3300365,W,1,09,1.18,355.9621,M,-32.8286,M,,*68"
327,0,0.000000,35.913537,"$GPGGA,184023.90,3721.9892256,N,07958.3300512,W,1,10,1.10,355.9803,M,-32.8286,M,,*6A"
330,0,0.000000,36.068985,"$GPGGA,184024.00,3721.9892276,N,07958.3300717,W,1,10,1.10,356.0018,M,-32.8286,M,,*69"
332,0,0.000000,36.134723,"$GPGGA,184024.10,3721.9892334,N,07958.3301105,W,1,09,1.18,355.9392,M,-32.8286,M,,*60"
334,0,0.000000,36.209486,"$GPGGA,184024.20,3721.9892488,N,07958.3301437,W,1,09,1.18,355.9094,M,-32.8286,M,,*62"
336,0,0.000000,36.316259,"$GPGGA,184024.30,3721.9892617,N,07958.3301737,W,1,09,1.18,355.8914,M,-32.8286,M,,*64"
338,0,0.000000,36.413812,"$GPGGA,184024.40,3721.9892969,N,07958.3301881,W,1,09,1.18,355.9403,M,-32.8286,M,,*6D"
339,0,0.000000,36.512706,"$GPGGA,184024.50,3721.9893429,N,07958.3301982,W,1,09,1.18,356.0835,M,-32.8286,M,,*65"
339,0,0.000000,36.611366,"$GPGGA,184024.60,3721.9893691,N,07958.3302187,W,1,09,1.18,356.0224,M,-32.8286,M,,*63"
340,0,0.000000,36.710125,"$GPGGA,184024.70,3721.9894040,N,07958.3302239,W,1,09,1.18,356.0142,M,-32.8286,M,,*6A"
341,0,0.000000,36.809970,"$GPGGA,184024.80,3721.9894205,N,07958.3302446,W,1,09,1.18,355.9939,M,-32.8286,M,,*66"
341,0,0.000000,36.909598,"$GPGGA,184024.90,3721.9894316,N,07958.3302738,W,1,09,1.18,355.9622,M,-32.8286,M,,*6B"
342,0,0.000000,37.066161,"$GPGGA,184025.00,3721.9894428,N,07958.3302932,W,1,09,1.18,355.9533,M,-32.8286,M,,*6E"
343,0,0.000000,37.133994,"$GPGGA,184025.10,3721.9894638,N,07958.3303099,W,1,09,1.18,355.9527,M,-32.8286,M,,*60"
343,0,0.000000,37.212929,"$GPGGA,184025.20,3721.9894814,N,07958.3303360,W,1,09,1.18,355.9508,M,-32.8286,M,,*6B"
344,0,0.000000,37.311327,"$GPGGA,184025.30,3721.9894927,N,07958.3303611,W,1,09,1.18,355.9716,M,-32.8286,M,,*65"
345,0,0.000000,37.410318,"$GPGGA,184025.40,3721.9895106,N,07958.3303795,W,1,09,1.18,355.9854,M,-32.8286,M,,*6C"
346,0,0.000000,37.508894,"$GPGGA,184025.50,3721.9895422,N,07958.3303895,W,1,09,1.18,355.9765,M,-32.8286,M,,*6C"
347,0,0.000000,37.609317,"$GPGGA,184025.60,3721.9895699,N,07958.3304139,W,1,09,1.18,356.0114,M,-32.8286,M,,*6F"
348,0,0.000000,37.712294,"$GPGGA,184025.70,3721.9895873,N,07958.3304361,W,1,09,1.18,356.0327,M,-32.8286,M,,*69"
349,0,0.000000,37.812511,"$GPGGA,184025.80,3721.9896038,N,07958.3304438,W,1,09,1.18,356.0579,M,-32.8286,M,,*64"
350,0,0.000000,37.914594,"$GPGGA,184025.90,3721.9896249,N,07958.3304544,W,1,09,1.18,356.0872,M,-32.8286,M,,*6D"
352,0,0.000000,38.064739,"$GPGGA,184026.00,3721.9896443,N,07958.3304833,W,1,09,1.18,356.0812,M,-32.8286,M,,*60"
353,0,0.000000,38.135818,"$GPGGA,184026.10,3721.9896523,N,07958.3305325,W,1,09,1.18,356.0099,M,-32.8286,M,,*60"
354,0,0.000000,38.209674,"$GPGGA,184026.20,3721.9896726,N,07958.3305549,W,1,09,1.18,355.9987,M,-32.8286,M,,*64"
356,0,0.000000,38.309391,"$GPGGA,184026.30,3721.9896691,N,07958.3305929,W,1,09,1.18,355.9448,M,-32.8286,M,,*6C"
358,0,0.000000,38.413507,"$GPGGA,184026.40,3721.9896701,N,07958.3306191,W,1,09,1.18,355.9522,M,-32.8286,M,,*66"
360,0,0.000000,38.512354,"$GPGGA,184026.50,3721.9896799,N,07958.3306401,W,1,09,1.18,356.0237,M,-32.8286,M,,*63"
362,0,0.000000,38.613826,"$GPGGA,184026.60,3721.9896989,N,07958.3306730,W,1,09,1.18,356.0737,M,-32.8286,M,,*6B"
364,0,0.000000,38.712282,"$GPGGA,184026.70,3721.9897282,N,07958.3307061,W,1,09,1.18,356.0230,M,-32.8286,M,,*6B"
367,0,0.000000,38.809382,"$GPGGA,184026.80,3721.9897441,N,07958.3307352,W,1,09,1.18,356.0135,M,-32.8286,M,,*68"
369,0,0.000000,38.909621,"$GPGGA,184026.90,3721.9897654,N,07958.3307501,W,1,08,2.03,356.0191,M,-32.8286,M,,*69"
371,0,0.000000,39.062477,"$GPGGA,184027.00,3721.9897725,N,07958.3307841,W,1,08,2.03,355.8727,M,-32.8286,M,,*6F"
372,0,0.000000,39.130300,"$GPGGA,184027.10,3721.9898725,N,07958.3308138,W,1,07,2.26,356.0400,M,-32.8286,M,,*6C"
373,0,0.000000,39.212817,"$GPGGA,184027.20,3721.9898902,N,07958.3308518,W,1,07,2.26,356.0476,M,-32.8286,M,,*63"
375,0,0.000000,39.312714,"$GPGGA,184027.30,3721.9899404,N,07958.3308914,W,1,07,2.26,356.1294,M,-32.8286,M,,*63"
376,0,0.000000,39.411644,"$GPGGA,184027.40,3721.9899568,N,07958.3309279,W,1,07,2.26,356.1081,M,-32.8286,M,,*68"
377,0,0.000000,39.513137,"$GPGGA,184027.50,3721.9899712,N,07958.3309965,W,1,07,2.26,355.9997,M,-32.8286,M,,*65"
378,0,0.000000,39.609573,"$GPGGA,184027.60,3721.9899805,N,07958.3310393,W,1,07,2.26,355.9932,M,-32.8286,M,,*6B"
379,0,0.000000,39.709128,"$GPGGA,184027.70,3721.9899929,N,07958.3310572,W,1,07,2.26,355.9905,M,-32.8286,M,,*68"
380,0,0.000000,39.812723,"$GPGGA,184027.80,3721.9899914,N,07958.3310832,W,1,07,2.26,355.9619,M,-32.8286,M,,*62"
382,0,0.000000,39.912777,"$GPGGA,184027.90,3721.9899954,N,07958.3311224,W,1,07,2.26,355.9260,M,-32.8286,M,,*61"
384,0,0.000000,40.065276,"$GPGGA,184028.00,3721.9900141,N,07958.3311379,W,1,08,1.51,355.9402,M,-32.8286,M,,*6D"
385,0,0.000000,40.133013,"$GPGGA,184028.10,3721.9900291,N,07958.3311551,W,1,08,1.51,355.9621,M,-32.8286,M,,*6D"
386,0,0.000000,40.209201,"$GPGGA,184028.20,3721.9900491,N,07958.3311832,W,1,08,1.51,355.9963,M,-32.8286,M,,*69"
388,0,0.000000,40.309161,"$GPGGA,184028.30,3721.9900584,N,07958.3312103,W,1,08,1.51,356.0159,M,-32.8286,M,,*6E"
390,0,0.000000,40.408865,"$GPGGA,184028.40,3721.9900629,N,07958.3312335,W,1,08,1.51,356.0323,M,-32.8286,M,,*65"
391,0,0.000000,40.512514,"$GPGGA,184028.50,3721.9900667,N,07958.3312725,W,1,08,1.51,355.9430,M,-32.8286,M,,*64"
392,0,0.000000,40.613451,"$GPGGA,184028.60,3721.9902197,N,07958.3312082,W,1,08,1.51,356.1014,M,-32.8286,M,,*6E"
393,0,0.000000,40.712300,"$GPGGA,184028.70,3721.9902613,N,07958.3312365,W,1,08,1.51,356.3054,M,-32.8286,M,,*68"
394,0,0.000000,40.811948,"$GPGGA,184028.80,3721.9902430,N,07958.3312532,W,1,08,1.51,356.2420,M,-32.8286,M,,*66"
395,0,0.000000,40.910110,"$GPGGA,184028.90,3721.9902072,N,07958.3312924,W,1,08,1.51,356.1547,M,-32.8286,M,,*6D"
396,0,0.000000,41.061935,"$GPGGA,184029.00,3721.9902204,N,07958.3313080,W,1,08,1.51,356.1051,M,-32.8286,M,,*62"
397,0,0.000000,41.129624,"$GPGGA,184029.10,3721.9902538,N,07958.3313129,W,1,08,1.51,356.1115,M,-32.8286,M,,*68"
397,0,0.000000,41.212801,"$GPGGA,184029.20,3721.9902820,N,07958.3313137,W,1,08,1.51,356.1418,M,-32.8286,M,,*68"
399,0,0.000000,41.312691,"$GPGGA,184029.30,3721.9902985,N,07958.3313206,W,1,08,1.51,356.1204,M,-32.8286,M,,*6D"
400,0,0.000000,41.412786,"$GPGGA,184029.40,3721.9903241,N,07958.3313337,W,1,08,1.51,356.1337,M,-32.8286,M,,*6A"
402,0,0.000000,41.512505,"$GPGGA,184029.50,3721.9903523,N,07958.3313492,W,1,08,1.51,356.1500,M,-32.8286,M,,*62"
403,0,0.000000,41.610842,"$GPGGA,184029.60,3721.9903820,N,07958.3313739,W,1,08,1.51,356.1597,M,-32.8286,M,,*63"
405,0,0.000000,41.709130,"$GPGGA,184029.70,3721.9904339,N,07958.3313707,W,1,08,1.51,356.2061,M,-32.8286,M,,*64"
407,0,0.000000,41.809474,"$GPGGA,184029.80,3721.9904352,N,07958.3314101,W,1,08,1.51,356.0936,M,-32.8286,M,,*68"
410,0,0.000000,41.912468,"$GPGGA,184029.90,3721.9904564,N,07958.3314645,W,1,08,1.51,356.1216,M,-32.8286,M,,*65"
412,0,0.000000,42.065427,"$GPGGA,184030.00,3721.9905224,N,07958.3314952,W,1,08,1.51,356.2411,M,-32.8286,M,,*6D"
413,0,0.000000,42.133256,"$GPGGA,184030.10,3721.9905667,N,07958.3314974,W,1,08,1.51,356.1885,M,-32.8286,M,,*69"
413,0,0.000000,42.215709,"$GPGGA,184030.20,3721.9905843,N,07958.3315112,W,1,08,1.51,356.1993,M,-32.8286,M,,*6D"
414,0,0.000000,42.309573,"$GPGGA,184030.30,3721.9906365,N,07958.3315112,W,1,08,1.51,356.2150,M,-32.8286,M,,*64"
415,0,0.000000,42.408913,"$GPGGA,184030.40,3721.9906844,N,07958.3315132,W,1,08,1.51,356.2184,M,-32.8286,M,,*60"
416,0,0.000000,42.509265,"$GPGGA,184030.50,3721.9906803,N,07958.3315644,W,1,08,1.51,356.1944,M,-32.8286,M,,*63"
417,0,0.000000,42.612727,"$GPGGA,184030.60,3721.9907125,N,07958.3315674,W,1,08,1.51,356.1954,M,-32.8286,M,,*6E"
418,0,0.000000,42.711897,"$GPGGA,184030.70,3721.9907580,N,07958.3315681,W,1,08,1.51,356.2304,M,-32.8286,M,,*62"
419,0,0.000000,42.811359,"$GPGGA,184030.80,3721.9907911,N,07958.3315731,W,1,08,1.51,356.2032,M,-32.8286,M,,*65"
419,0,0.000000,42.911812,"$GPGGA,184030.90,3721.9908245,N,07958.3315843,W,1,08,1.51,356.1956,M,-32.8286,M,,*63"
420,0,0.000000,43.061631,"$GPGGA,184031.00,3721.9908477,N,07958.3316122,W,1,08,1.51,356.2394,M,-32.8286,M,,*66"
420,0,0.000000,43.130161,"$GPGGA,184031.10,3721.9908538,N,07958.3316382,W,1,08,1.51,356.2589,M,-32.8286,M,,*6F"
421,0,0.000000,43.209822,"$GPGGA,184031.20,3721.9908522,N,07958.3316481,W,1,08,1.51,356.2200,M,-32.8286,M,,*65"
421,0,0.000000,43.312596,"$GPGGA,184031.30,3721.9908573,N,07958.3316601,W,1,08,1.51,356.2032,M,-32.8286,M,,*69"
421,0,0.000000,43.412524,"$GPGGA,184031.40,3721.9908591,N,07958.3316708,W,1,08,1.51,356.1787,M,-32.8286,M,,*60"
421,0,0.000000,43.512850,"$GPGGA,184031.50,3721.9908638,N,07958.3316889,W,1,08,1.51,356.1794,M,-32.8286,M,,*65"
422,0,0.000000,43.611610,"$GPGGA,184031.60,3721.9908643,N,07958.3317132,W,1,08,1.51,356.1944,M,-32.8286,M,,*61"
423,0,0.000000,43.713825,"$GPGGA,184031.70,3721.9908838,N,07958.3317225,W,1,08,1.51,356.2290,M,-32.8286,M,,*66"
423,0,0.000000,43.808846,"$GPGGA,184031.80,3721.9909006,N,07958.3317386,W,1,08,1.51,356.2053,M,-32.8286,M,,*68"
424,0,0.000000,43.909119,"$GPGGA,184031.90,3721.9909070,N,07958.3317681,W,1,08,1.51,356.1543,M,-32.8286,M,,*6D"
426,0,0.000000,44.065435,"$GPGGA,184032.00,3721.9909196,N,07958.3317908,W,1,08,1.51,356.1884,M,-32.8286,M,,*66"
427,0,0.000000,44.133281,"$GPGGA,184032.10,3721.9909337,N,07958.3318186,W,1,08,1.51,356.1789,M,-32.8286,M,,*6D"
428,0,0.000000,44.213846,"$GPGGA,184032.20,3721.9909539,N,07958.3318399,W,1,08,1.51,356.1288,M,-32.8286,M,,*6E"
429,0,0.000000,44.312705,"$GPGGA,184032.30,3721.9909962,N,07958.3318465,W,1,08,1.51,356.2382,M,-32.8286,M,,*61"
430,0,0.000000,44.410437,"$GPGGA,184032.40,3721.9910179,N,07958.3318615,W,1,08,1.51,356.2039,M,-32.8286,M,,*6A"
431,0,0.000000,44.508791,"$GPGGA,184032.50,3721.9910115,N,07958.3318845,W,1,08,1.51,356.1189,M,-32.8286,M,,*63"
433,0,0.000000,44.609506,"$GPGGA,184032.60,3721.9910283,N,07958.3318964,W,1,08,1.51,356.0932,M,-32.8286,M,,*67"
434,0,0.000000,44.712378,"$GPGGA,184032.70,3721.9910470,N,07958.3319199,W,1,08,1.51,356.1451,M,-32.8286,M,,*6E"
436,0,0.000000,44.812883,"$GPGGA,184032.80,3721.9910613,N,07958.3319263,W,1,08,1.51,356.1497,M,-32.8286,M,,*6A"
437,0,0.000000,44.913661,"$GPGGA,184032.90,3721.9910667,N,07958.3319340,W,1,08,1.51,356.1667,M,-32.8286,M,,*65"
440,0,0.000000,45.065007,"$GPGGA,184033.00,3721.9910845,N,07958.3319499,W,1,08,1.51,356.1964,M,-32.8286,M,,*6C"
441,0,0.000000,45.132789,"$GPGGA,184033.10,3721.9911182,N,07958.3319763,W,1,08,1.51,356.2322,M,-32.8286,M,,*63"
443,0,0.000000,45.209385,"$GPGGA,184033.20,3721.9911030,N,07958.3320118,W,1,08,1.51,356.2023,M,-32.8286,M,,*6A"
444,0,0.000000,45.308744,"$GPGGA,184033.30,3721.9910942,N,07958.3320534,W,1,08,1.51,356.1432,M,-32.8286,M,,*6B"
446,0,0.000000,45.413128,"$GPGGA,184033.40,3721.9911136,N,07958.3320873,W,1,08,1.51,356.1005,M,-32.8286,M,,*68"
448,0,0.000000,45.512766,"$GPGGA,184033.50,3721.9911146,N,07958.3321114,W,1,08,1.51,356.0168,M,-32.8286,M,,*6C"
449,0,0.000000,45.612002,"$GPGGA,184033.60,3721.9910978,N,07958.3321431,W,1,08,1.51,355.9075,M,-32.8286,M,,*6E"
451,0,0.000000,45.713148,"$GPGGA,184033.70,3721.9910209,N,07958.3321850,W,1,08,1.51,355.5783,M,-32.8286,M,,*6B"
452,0,0.000000,45.810462,"$GPGGA,184033.80,3721.9910601,N,07958.3321929,W,1,08,1.51,355.5176,M,-32.8286,M,,*6B"
454,0,0.000000,45.909756,"$GPGGA,184033.90,3721.9910872,N,07958.3322219,W,1,08,1.51,355.4726,M,-32.8286,M,,*69"
456,0,0.000000,46.061440,"$GPGGA,184034.00,3721.9911028,N,07958.3322651,W,1,08,1.51,355.4676,M,-32.8286,M,,*6D"
457,0,0.000000,46.129203,"$GPGGA,184034.10,3721.9911360,N,07958.3322840,W,1,08,1.51,355.5443,M,-32.8286,M,,*68"
458,0,0.000000,46.213469,"$GPGGA,184034.20,3721.9911255,N,07958.3323545,W,1,08,1.51,355.3826,M,-32.8286,M,,*6C"
460,0,0.000000,46.313110,"$GPGGA,184034.30,3721.9911465,N,07958.3323713,W,1,08,1.51,355.4621,M,-32.8286,M,,*67"
461,0,0.000000,46.412072,"$GPGGA,184034.40,3721.9911614,N,07958.3323953,W,1,08,1.51,355.4247,M,-32.8286,M,,*6A"
462,0,0.000000,46.510709,"$GPGGA,184034.50,3721.9912540,N,07958.3323908,W,1,08,1.51,355.5944,M,-32.8286,M,,*6D"
463,0,0.000000,46.609185,"$GPGGA,184034.60,3721.9912836,N,07958.3324066,W,1,08,1.51,355.5818,M,-32.8286,M,,*6C"
465,0,0.000000,46.708675,"$GPGGA,184034.70,3721.9913133,N,07958.3324233,W,1,08,1.51,355.5693,M,-32.8286,M,,*6F"
466,0,0.000000,46.809158,"$GPGGA,184034.80,3721.9913369,N,07958.3324444,W,1,08,1.51,355.5641,M,-32.8286,M,,*64"
467,0,0.000000,46.912636,"$GPGGA,184034.90,3721.9913564,N,07958.3324632,W,1,08,1.51,355.5706,M,-32.8286,M,,*6F"
469,0,0.000000,47.064542,"$GPGGA,184035.00,3721.9913715,N,07958.3324784,W,1,08,1.51,355.5764,M,-32.8286,M,,*6B"
470,0,0.000000,47.132265,"$GPGGA,184035.10,3721.9913962,N,07958.3324907,W,1,08,1.51,355.5922,M,-32.8286,M,,*6D"
471,0,0.000000,47.210106,"$GPGGA,184035.20,3721.9914555,N,07958.3325008,W,1,08,1.51,355.6213,M,-32.8286,M,,*6C"
473,0,0.000000,47.309647,"$GPGGA,184035.30,3721.9915047,N,07958.3325130,W,1,08,1.51,355.7460,M,-32.8286,M,,*63"
474,0,0.000000,47.410137,"$GPGGA,184035.40,3721.9915541,N,07958.3325329,W,1,08,1.51,355.8833,M,-32.8286,M,,*68"
475,0,0.000000,47.514732,"$GPGGA,184035.50,3721.9916414,N,07958.3325525,W,1,08,1.51,356.0484,M,-32.8286,M,,*6A"
475,0,0.000000,47.613262,"$GPGGA,184035.60,3721.9916433,N,07958.3325610,W,1,08,1.51,355.9726,M,-32.8286,M,,*68"
476,0,0.000000,47.712082,"$GPGGA,184035.70,3721.9916180,N,07958.3325683,W,1,08,1.51,355.8416,M,-32.8286,M,,*6F"
477,0,0.000000,47.812945,"$GPGGA,184035.80,3721.9914599,N,07958.3325850,W,1,08,1.51,355.1479,M,-32.8286,M,,*6E"
478,0,0.000000,47.910721,"$GPGGA,184035.90,3721.9914452,N,07958.3325928,W,1,08,1.51,355.0394,M,-32.8286,M,,*62"
479,0,0.000000,48.060923,"$GPGGA,184036.00,3721.9914325,N,07958.3326021,W,1,08,1.51,354.9360,M,-32.8286,M,,*6F"
479,0,0.000000,48.128362,"$GPGGA,184036.10,3721.9914271,N,07958.3326041,W,1,08,1.51,354.8347,M,-32.8286,M,,*6C"
480,0,0.000000,48.208691,"$GPGGA,184036.20,3721.9915231,N,07958.3326085,W,1,08,1.51,355.1084,M,-32.8286,M,,*66"
481,0,0.000000,48.312902,"$GPGGA,184036.30,3721.9915768,N,07958.3326174,W,1,08,1.51,355.2052,M,-32.8286,M,,*69"
482,0,0.000000,48.412059,"$GPGGA,184036.40,3721.9916391,N,07958.3326215,W,1,08,1.51,355.3956,M,-32.8286,M,,*67"
483,0,0.000000,48.512158,"$GPGGA,184036.50,3721.9916534,N,07958.3326254,W,1,09,1.19,355.3988,M,-32.8286,M,,*64"
483,0,0.000000,48.610836,"$GPGGA,184036.60,3721.9916658,N,07958.3326299,W,1,09,1.19,355.4019,M,-32.8286,M,,*69"
484,0,0.000000,48.711902,"$GPGGA,184036.70,3721.9915202,N,07958.3326292,W,1,09,1.19,354.8610,M,-32.8286,M,,*69"
485,0,0.000000,48.809747,"$GPGGA,184036.80,3721.9915394,N,07958.3326408,W,1,09,1.19,354.8655,M,-32.8286,M,,*6C"
485,0,0.000000,48.908788,"$GPGGA,184036.90,3721.9915584,N,07958.3326526,W,1,09,1.19,354.8512,M,-32.8286,M,,*67"
486,0,0.000000,49.065660,"$GPGGA,184037.00,3721.9915724,N,07958.3326630,W,1,09,1.18,354.8298,M,-32.8286,M,,*67"
486,0,0.000000,49.133430,"$GPGGA,184037.10,3721.9916309,N,07958.3326776,W,1,09,1.18,354.9523,M,-32.8286,M,,*6B"
487,0,0.000000,49.213021,"$GPGGA,184037.20,3721.9916225,N,07958.3326861,W,1,09,1.18,354.8746,M,-32.8286,M,,*6E"
488,0,0.000000,49.310836,"$GPGGA,184037.30,3721.9916139,N,07958.3326997,W,1,08,1.22,354.8067,M,-32.8286,M,,*65"
489,0,0.000000,49.408283,"$GPGGA,184037.40,3721.9916412,N,07958.3327157,W,1,08,1.22,354.8516,M,-32.8286,M,,*68"
489,0,0.000000,49.508892,"$GPGGA,184037.50,3721.9916193,N,07958.3327260,W,1,08,1.22,354.7397,M,-32.8286,M,,*62"
489,0,0.000000,49.608621,"$GPGGA,184037.60,3721.9916322,N,07958.3327331,W,1,08,1.22,354.7384,M,-32.8286,M,,*6E"
489,0,0.000000,49.711691,"$GPGGA,184037.70,3721.9916470,N,07958.3327369,W,1,08,1.22,354.7204,M,-32.8286,M,,*6B"
490,0,0.000000,49.812659,"$GPGGA,184037.80,3721.9916579,N,07958.3327353,W,1,08,1.22,354.6984,M,-32.8286,M,,*67"
490,0,0.000000,49.912209,"$GPGGA,184037.90,3721.9916646,N,07958.3327324,W,1,08,1.22,354.6837,M,-32.8286,M,,*60"
491,0,0.000000,50.063184,"$GPGGA,184038.00,3721.9916730,N,07958.3327301,W,1,08,1.22,354.6949,M,-32.8286,M,,*69"
491,0,0.000000,50.130971,"$GPGGA,184038.10,3721.9916821,N,07958.3327314,W,1,08,1.22,354.7112,M,-32.8286,M,,*64"
491,0,0.000000,50.208898,"$GPGGA,184038.20,3721.9916893,N,07958.3327313,W,1,08,1.22,354.7227,M,-32.8286,M,,*6C"
492,0,0.000000,50.309649,"$GPGGA,184038.30,3721.9916970,N,07958.3327312,W,1,08,1.22,354.7323,M,-32.8286,M,,*65"
492,0,0.000000,50.411894,"$GPGGA,184038.40,3721.9917024,N,07958.3327324,W,1,08,1.22,354.7354,M,-32.8286,M,,*6E"
492,0,0.000000,50.512556,"$GPGGA,184038.50,3721.9917094,N,07958.3327336,W,1,08,1.22,354.7500,M,-32.8286,M,,*60"
493,0,0.000000,50.612530,"$GPGGA,184038.60,3721.9917174,N,07958.3327377,W,1,08,1.22,354.7541,M,-32.8286,M,,*6C"
493,0,0.000000,50.710914,"$GPGGA,184038.70,3721.9917290,N,07958.3327428,W,1,08,1.22,354.7527,M,-32.8286,M,,*69"
494,0,0.000000,50.809085,"$GPGGA,184038.80,3721.9917457,N,07958.3327475,W,1,08,1.22,354.7070,M,-32.8286,M,,*64"
495,0,0.000000,50.908813,"$GPGGA,184038.90,3721.9917697,N,07958.3327521,W,1,08,1.22,354.6153,M,-32.8286,M,,*6A"
497,0,0.000000,51.060762,"$GPGGA,184039.00,3721.9917909,N,07958.3327671,W,1,08,1.22,354.5695,M,-32.8286,M,,*62"
498,0,0.000000,51.128569,"$GPGGA,184039.10,3721.9918163,N,07958.3327811,W,1,08,1.22,354.5461,M,-32.8286,M,,*69"
499,0,0.000000,51.213787,"$GPGGA,184039.20,3721.9918402,N,07958.3327875,W,1,08,1.22,354.5827,M,-32.8286,M,,*64"
500,0,0.000000,51.312846,"$GPGGA,184039.30,3721.9918451,N,07958.3328045,W,1,08,1.22,354.5210,M,-32.8286,M,,*69"
500,0,0.000000,51.410977,"$GPGGA,184039.40,3721.9919264,N,07958.3328196,W,1,08,1.22,354.7340,M,-32.8286,M,,*66"
501,0,0.000000,51.509605,"$GPGGA,184039.50,3721.9919330,N,07958.3328330,W,1,08,1.22,354.7141,M,-32.8286,M,,*6A"
502,0,0.000000,51.609329,"$GPGGA,184039.60,3721.9918860,N,07958.3328390,W,1,08,1.22,354.5378,M,-32.8286,M,,*66"
502,0,0.000000,51.710688,"$GPGGA,184039.70,3721.9918797,N,07958.3328445,W,1,08,1.22,354.4556,M,-32.8286,M,,*64"
503,0,0.000000,51.811664,"$GPGGA,184039.80,3721.9918724,N,07958.3328471,W,1,08,1.22,354.3713,M,-32.8286,M,,*60"
504,0,0.000000,51.911542,"$GPGGA,184039.90,3721.9918276,N,07958.3328591,W,1,08,1.22,354.1054,M,-32.8286,M,,*6A"
506,0,0.000000,52.065863,"$GPGGA,184040.00,3721.9918934,N,07958.3328590,W,1,08,1.22,354.1361,M,-32.8286,M,,*64"
506,0,0.000000,52.132885,"$GPGGA,184040.10,3721.9919571,N,07958.3328666,W,1,08,1.22,354.3039,M,-32.8286,M,,*6F"
507,0,0.000000,52.208420,"$GPGGA,184040.20,3721.9918997,N,07958.3328866,W,1,08,1.22,354.1607,M,-32.8286,M,,*6E"
508,0,0.000000,52.308468,"$GPGGA,184040.30,3721.9919045,N,07958.3328949,W,1,08,1.22,354.1585,M,-32.8286,M,,*6D"
509,0,0.000000,52.408476,"$GPGGA,184040.40,3721.9919235,N,07958.3329032,W,1,08,1.22,354.1695,M,-32.8286,M,,*69"
510,0,0.000000,52.515014,"$GPGGA,184040.50,3721.9918943,N,07958.3329132,W,1,08,1.22,354.0705,M,-32.8286,M,,*6B"
511,0,0.000000,52.612898,"$GPGGA,184040.60,3721.9919279,N,07958.3329180,W,1,08,1.22,354.1078,M,-32.8286,M,,*6E"
512,0,0.000000,52.712945,"$GPGGA,184040.70,3721.9919812,N,07958.3329155,W,1,08,1.22,354.2099,M,-32.8286,M,,*6C"
514,0,0.000000,52.811324,"$GPGGA,184040.80,3721.9920232,N,07958.3329028,W,1,08,1.22,354.2915,M,-32.8286,M,,*67"
516,0,0.000000,52.909031,"$GPGGA,184040.90,3721.9920571,N,07958.3328802,W,1,08,1.22,354.3693,M,-32.8286,M,,*67"
518,0,0.000000,53.061203,"$GPGGA,184041.00,3721.9921493,N,07958.3328710,W,1,08,1.22,354.6707,M,-32.8286,M,,*66"
520,0,0.000000,53.129041,"$GPGGA,184041.10,3721.9921606,N,07958.3328667,W,1,08,1.22,354.6822,M,-32.8286,M,,*60"
522,0,0.000000,53.213661,"$GPGGA,184041.20,3721.9921721,N,07958.3328641,W,1,08,1.22,354.6235,M,-32.8286,M,,*6F"
524,0,0.000000,53.312804,"$GPGGA,184041.30,3721.9921888,N,07958.3328787,W,1,08,1.22,354.5654,M,-32.8286,M,,*69"
525,0,0.000000,53.411603,"$GPGGA,184041.40,3721.9922162,N,07958.3328740,W,1,08,1.22,354.3883,M,-32.8286,M,,*69"
527,0,0.000000,53.511920,"$GPGGA,184041.50,3721.9922216,N,07958.3328893,W,1,08,1.22,354.3736,M,-32.8286,M,,*68"
528,0,0.000000,53.609550,"$GPGGA,184041.60,3721.9922324,N,07958.3328925,W,1,08,1.22,354.3515,M,-32.8286,M,,*64"
529,0,0.000000,53.709178,"$GPGGA,184041.70,3721.9922470,N,07958.3329019,W,1,08,1.22,354.3451,M,-32.8286,M,,*65"
530,0,0.000000,53.812804,"$GPGGA,184041.80,3721.9922521,N,07958.3329410,W,1,08,1.22,354.3571,M,-32.8286,M,,*61"
531,0,0.000000,53.912845,"$GPGGA,184041.90,3721.9922506,N,07958.3329807,W,1,08,1.22,354.3737,M,-32.8286,M,,*6F"
532,0,0.000000,54.064511,"$GPGGA,184042.00,3721.9922412,N,07958.3330037,W,1,08,1.22,354.3736,M,-32.8286,M,,*63"
533,0,0.000000,54.132297,"$GPGGA,184042.10,3721.9922504,N,07958.3330111,W,1,08,1.22,354.3877,M,-32.8286,M,,*6B"
534,0,0.000000,54.211107,"$GPGGA,184042.20,3721.9922628,N,07958.3330210,W,1,08,1.22,354.3736,M,-32.8286,M,,*6D"
534,0,0.000000,54.308748,"$GPGGA,184042.30,3721.9922863,N,07958.3330427,W,1,08,1.22,354.3767,M,-32.8286,M,,*6B"
535,0,0.000000,54.409843,"$GPGGA,184042.40,3721.9923056,N,07958.3330513,W,1,08,1.22,354.3895,M,-32.8286,M,,*67"
536,0,0.000000,54.509396,"$GPGGA,184042.50,3721.9923193,N,07958.3330544,W,1,08,1.22,354.4230,M,-32.8286,M,,*6E"
537,0,0.000000,54.613557,"$GPGGA,184042.60,3721.9923274,N,07958.3330609,W,1,08,1.22,354.4537,M,-32.8286,M,,*6D"
537,0,0.000000,54.711173,"$GPGGA,184042.70,3721.9923385,N,07958.3330723,W,1,08,1.22,354.4437,M,-32.8286,M,,*6B"
538,0,0.000000,54.812035,"$GPGGA,184042.80,3721.9923573,N,07958.3330811,W,1,08,1.22,354.4432,M,-32.8286,M,,*60"
539,0,0.000000,54.910476,"$GPGGA,184042.90,3721.9923744,N,07958.3330912,W,1,08,1.22,354.4238,M,-32.8286,M,,*69"
540,0,0.000000,55.061302,"$GPGGA,184043.00,3721.9923847,N,07958.3330934,W,1,08,1.22,354.4353,M,-32.8286,M,,*65"
541,0,0.000000,55.129078,"$GPGGA,184043.10,3721.9924219,N,07958.3330936,W,1,08,1.22,354.5363,M,-32.8286,M,,*62"
541,0,0.000000,55.208554,"$GPGGA,184043.20,3721.9924379,N,07958.3330913,W,1,08,1.22,354.5011,M,-32.8286,M,,*67"
542,0,0.000000,55.312469,"$GPGGA,184043.30,3721.9924559,N,07958.3331105,W,1,08,1.22,354.5063,M,-32.8286,M,,*69"
543,0,0.000000,55.412918,"$GPGGA,184043.40,3721.9924688,N,07958.3331215,W,1,08,1.22,354.5608,M,-32.8286,M,,*68"
545,0,0.000000,55.511762,"$GPGGA,184043.50,3721.9924751,N,07958.3331340,W,1,08,1.22,354.5630,M,-32.8286,M,,*66"
546,0,0.000000,55.610862,"$GPGGA,184043.60,3721.9924954,N,07958.3331485,W,1,08,1.22,354.5171,M,-32.8286,M,,*62"
548,0,0.000000,55.709285,"$GPGGA,184043.70,3721.9925143,N,07958.3331496,W,1,08,1.22,354.4983,M,-32.8286,M,,*6A"
549,0,0.000000,55.809421,"$GPGGA,184043.80,3721.9925522,N,07958.3331585,W,1,08,1.22,354.5081,M,-32.8286,M,,*6F"
551,0,0.000000,55.908556,"$GPGGA,184043.90,3721.9925769,N,07958.3331978,W,1,08,1.22,354.4013,M,-32.8286,M,,*67"
554,0,0.000000,56.064547,"$GPGGA,184044.00,3721.9925827,N,07958.3332124,W,1,08,1.22,354.3678,M,-32.8286,M,,*62"
555,0,0.000000,56.132284,"$GPGGA,184044.10,3721.9925949,N,07958.3332198,W,1,08,1.22,354.3615,M,-32.8286,M,,*66"
556,0,0.000000,56.218990,"$GPGGA,184044.20,3721.9926426,N,07958.3332658,W,1,08,1.22,354.4115,M,-32.8286,M,,*69"
559,0,0.000000,56.322987,"$GPGGA,184044.30,3721.9926430,N,07958.3332890,W,1,08,1.22,354.3220,M,-32.8286,M,,*67"
560,0,0.000000,56.409611,"$GPGGA,184044.40,3721.9926524,N,07958.3333021,W,1,08,1.22,354.2835,M,-32.8286,M,,*68"
562,0,0.000000,56.508640,"$GPGGA,184044.50,3721.9926576,N,07958.3333123,W,1,08,1.22,354.2202,M,-32.8286,M,,*63"
563,0,0.000000,56.608898,"$GPGGA,184044.60,3721.9926906,N,07958.3333679,W,1,08,1.22,354.3006,M,-32.8286,M,,*64"
564,0,0.000000,56.712374,"$GPGGA,184044.70,3721.9926909,N,07958.3334030,W,1,08,1.22,354.2862,M,-32.8286,M,,*6D"
565,0,0.000000,56.812684,"$GPGGA,184044.80,3721.9927084,N,07958.3334170,W,1,08,1.22,354.3177,M,-32.8286,M,,*66"
566,0,0.000000,56.911715,"$GPGGA,184044.90,3721.9927263,N,07958.3334289,W,1,08,1.22,354.3514,M,-32.8286,M,,*68"
569,0,0.000000,57.073093,"$GPGGA,184045.00,3721.9927347,N,07958.3334174,W,1,08,1.22,354.3763,M,-32.8286,M,,*64"
570,0,0.000000,57.131924,"$GPGGA,184045.10,3721.9927475,N,07958.3333984,W,1,08,1.22,354.3654,M,-32.8286,M,,*66"
571,0,0.000000,57.208633,"$GPGGA,184045.20,3721.9927607,N,07958.3334088,W,1,08,1.22,354.3590,M,-32.8286,M,,*6B"
573,0,0.000000,57.312664,"$GPGGA,184045.30,3721.9928700,N,07958.3334228,W,1,08,1.22,354.7013,M,-32.8286,M,,*61"
575,0,0.000000,57.412390,"$GPGGA,184045.40,3721.9928562,N,07958.3334371,W,1,08,1.22,354.6841,M,-32.8286,M,,*63"
576,0,0.000000,57.512725,"$GPGGA,184045.50,3721.9926877,N,07958.3334553,W,1,08,1.22,354.0190,M,-32.8286,M,,*60"
578,0,0.000000,57.613940,"$GPGGA,184045.60,3721.9928535,N,07958.3334642,W,1,08,1.22,354.3815,M,-32.8286,M,,*62"
580,0,0.000000,57.711287,"$GPGGA,184045.70,3721.9928854,N,07958.3335395,W,1,08,1.22,354.5314,M,-32.8286,M,,*6B"
581,0,0.000000,57.808850,"$GPGGA,184045.80,3721.9927659,N,07958.3335854,W,1,08,1.22,354.0596,M,-32.8286,M,,*67"
583,0,0.000000,57.908681,"$GPGGA,184045.90,3721.9930472,N,07958.3336360,W,1,08,1.22,355.0035,M,-32.8286,M,,*69"
585,0,0.000000,58.062155,"$GPGGA,184046.00,3721.9929203,N,07958.3336386,W,1,08,1.22,354.5296,M,-32.8286,M,,*6C"
586,0,0.000000,58.129936,"$GPGGA,184046.10,3721.9930377,N,07958.3336719,W,1,08,1.22,354.8729,M,-32.8286,M,,*69"
586,0,0.000000,58.211812,"$GPGGA,184046.20,3721.9929532,N,07958.3336895,W,1,08,1.22,354.5459,M,-32.8286,M,,*67"
588,0,0.000000,58.311976,"$GPGGA,184046.30,3721.9929669,N,07958.3337093,W,1,08,1.22,354.4758,M,-32.8286,M,,*67"
588,0,0.000000,58.412045,"$GPGGA,184046.40,3721.9929761,N,07958.3337254,W,1,08,1.22,354.4868,M,-32.8286,M,,*6C"
589,0,0.000000,58.518144,"$GPGGA,184046.50,3721.9929907,N,07958.3337274,W,1,08,1.22,354.5566,M,-32.8286,M,,*63"
590,0,0.000000,58.610173,"$GPGGA,184046.60,3721.9929960,N,07958.3337343,W,1,08,1.22,354.5873,M,-32.8286,M,,*6D"
591,0,0.000000,58.710234,"$GPGGA,184046.70,3721.9930064,N,07958.3337396,W,1,08,1.22,354.6089,M,-32.8286,M,,*6F"
591,0,0.000000,58.812733,"$GPGGA,184046.80,3721.9930170,N,07958.3337445,W,1,08,1.22,354.6263,M,-32.8286,M,,*6B"
592,0,0.000000,58.911906,"$GPGGA,184046.90,3721.9930266,N,07958.3337458,W,1,08,1.22,354.6374,M,-32.8286,M,,*65"
592,0,0.000000,59.065059,"$GPGGA,184047.00,3721.9930348,N,07958.3337446,W,1,08,1.22,354.6426,M,-32.8286,M,,*6F"
593,0,0.000000,59.132822,"$GPGGA,184047.10,3721.9930447,N,07958.3337481,W,1,08,1.22,354.6567,M,-32.8286,M,,*69"
593,0,0.000000,59.209301,"$GPGGA,184047.20,3721.9930537,N,07958.3337532,W,1,08,1.22,354.6698,M,-32.8286,M,,*66"
594,0,0.000000,59.308095,"$GPGGA,184047.30,3721.9930665,N,07958.3337529,W,1,08,1.22,354.6853,M,-32.8286,M,,*60"
595,0,0.000000,59.413955,"$GPGGA,184047.40,3721.9930755,N,07958.3337586,W,1,08,1.22,354.7249,M,-32.8286,M,,*60"
596,0,0.000000,59.512636,"$GPGGA,184047.50,3721.9930930,N,07958.3337900,W,1,08,1.22,354.7231,M,-32.8286,M,,*61"
598,0,0.000000,59.613546,"$GPGGA,184047.60,3721.9931094,N,07958.3338150,W,1,08,1.22,354.7201,M,-32.8286,M,,*65"
599,0,0.000000,59.712167,"$GPGGA,184047.70,3721.9931544,N,07958.3338535,W,1,08,1.22,354.7154,M,-32.8286,M,,*68"
600,0,0.000000,59.812115,"$GPGGA,184047.80,3721.9931661,N,07958.3338754,W,1,08,1.22,354.7364,M,-32.8286,M,,*67"
601,0,0.000000,59.910075,"$GPGGA,184047.90,3721.9931716,N,07958.3338847,W,1,08,1.22,354.7979,M,-32.8286,M,,*6C"
604,0,0.000000,60.061236,"$GPGGA,184048.00,3721.9931903,N,07958.3339139,W,1,08,1.22,354.8015,M,-32.8286,M,,*6D"
605,0,0.000000,60.130208,"$GPGGA,184048.10,3721.9932000,N,07958.3339341,W,1,08,1.22,354.8557,M,-32.8286,M,,*6B"
606,0,0.000000,60.208051,"$GPGGA,184048.20,3721.9932036,N,07958.3339452,W,1,08,1.22,354.8934,M,-32.8286,M,,*61"
608,0,0.000000,60.315431,"$GPGGA,184048.30,3721.9932795,N,07958.3340390,W,1,08,1.22,354.7895,M,-32.8286,M,,*6C"
610,0,0.000000,60.413509,"$GPGGA,184048.40,3721.9932876,N,07958.3340145,W,1,08,1.22,354.9317,M,-32.8286,M,,*6C"
611,0,0.000000,60.512077,"$GPGGA,184048.50,3721.9933194,N,07958.3340196,W,1,08,1.22,354.8967,M,-32.8286,M,,*6B"
613,0,0.000000,60.609386,"$GPGGA,184048.60,3721.9933629,N,07958.3340368,W,1,08,1.22,354.9962,M,-32.8286,M,,*6E"
614,0,0.000000,60.708945,"$GPGGA,184048.70,3721.9934131,N,07958.3341003,W,1,08,1.22,354.9086,M,-32.8286,M,,*6A"
616,0,0.000000,60.809859,"$GPGGA,184048.80,3721.9934247,N,07958.3341187,W,1,08,1.22,354.9358,M,-32.8286,M,,*6A"
617,0,0.000000,60.912742,"$GPGGA,184048.90,3721.9934348,N,07958.3341263,W,1,08,1.22,355.0169,M,-32.8286,M,,*64"
620,0,0.000000,61.065831,"$GPGGA,184049.00,3721.9934501,N,07958.3341344,W,1,08,1.22,355.1074,M,-32.8286,M,,*6F"
621,0,0.000000,61.132577,"$GPGGA,184049.10,3721.9934776,N,07958.3341766,W,1,08,1.22,355.1190,M,-32.8286,M,,*63"
622,0,0.000000,61.211522,"$GPGGA,184049.20,3721.9934893,N,07958.3342056,W,1,08,1.22,355.1315,M,-32.8286,M,,*6C"
623,0,0.000000,61.309655,"$GPGGA,184049.30,3721.9934963,N,07958.3341935,W,1,08,1.22,355.1624,M,-32.8286,M,,*6B"
624,0,0.000000,61.408761,"$GPGGA,184049.40,3721.9935215,N,07958.3341971,W,1,09,1.18,355.2327,M,-32.8286,M,,*6A"
625,0,0.000000,61.510413,"$GPGGA,184049.50,3721.9935264,N,07958.3341887,W,1,09,1.18,355.3109,M,-32.8286,M,,*6A"
626,0,0.000000,61.608671,"$GPGGA,184049.60,3721.9935222,N,07958.3341818,W,1,09,1.18,355.3443,M,-32.8286,M,,*66"
627,0,0.000000,61.712735,"$GPGGA,184049.70,3721.9935291,N,07958.3341791,W,1,09,1.18,355.3781,M,-32.8286,M,,*6C"
628,0,0.000000,61.811653,"$GPGGA,184049.80,3721.9935515,N,07958.3341692,W,1,09,1.18,355.5192,M,-32.8286,M,,*68"
630,0,0.000000,61.911865,"$GPGGA,184049.90,3721.9935560,N,07958.3341630,W,1,09,1.18,355.5429,M,-32.8286,M,,*66"
632,0,0.000000,62.064074,"$GPGGA,184050.00,3721.9935629,N,07958.3341759,W,1,09,1.18,355.5276,M,-32.8286,M,,*6B"
