;GPS@@@
;Ver=1.1.0
;DIP=2009-00152-00
;Date=2026-Jan-12 12:06:03
;----------------------------------------------------------------------------------------------------------------------------------------------------------------------------------------
traces,odo_tick,pos(m),time_elapsed(s),GPS
2,0,0.000000,6.288347,"$GPGGA,174612.60,3721.9519743,N,07958.3894327,W,2,06,1.19,364.2416,M,-32.8285,M,0.6,0000*40"
2,0,0.000000,6.388549,"$GPGGA,174612.70,3721.9519745,N,07958.3894290,W,2,06,1.19,364.2411,M,-32.8285,M,0.7,0000*4C"
3,0,0.000000,6.491680,"$GPGGA,174612.80,3721.9519795,N,07958.3894283,W,2,06,1.19,364.2400,M,-32.8285,M,0.8,0000*43"
3,0,0.000000,6.591367,"$GPGGA,174612.90,3721.9519845,N,07958.3894272,W,2,06,1.19,364.2307,M,-32.8285,M,0.9,0000*4F"
3,0,0.000000,6.719709,"$GPGGA,174613.00,3721.9519879,N,07958.3894208,W,2,06,1.19,364.2248,M,-32.8285,M,1.0,0000*47"
3,0,0.000000,6.791147,"$GPGGA,174613.10,3721.9519921,N,07958.3894204,W,2,06,1.19,364.2255,M,-32.8285,M,1.1,0000*4B"
4,0,0.000000,6.888004,"$GPGGA,174613.20,3721.9519950,N,07958.3894210,W,2,06,1.19,364.2302,M,-32.8285,M,1.2,0000*4B"
4,0,0.000000,6.987631,"$GPGGA,174613.30,3721.9519974,N,07958.3894206,W,2,06,1.19,364.2325,M,-32.8285,M,1.3,0000*4F"
5,0,0.000000,7.087480,"$GPGGA,174613.40,3721.9520013,N,07958.3894198,W,2,06,1.19,364.2250,M,-32.8285,M,0.8,0000*47"
5,0,0.000000,7.194440,"$GPGGA,174613.50,3721.9520029,N,07958.3894145,W,2,06,1.19,364.2181,M,-32.8285,M,0.9,0000*41"
6,0,0.000000,7.291517,"$GPGGA,174613.60,3721.9520060,N,07958.3894121,W,2,06,1.19,364.2132,M,-32.8285,M,1.0,0000*4D"
6,0,0.000000,7.391302,"$GPGGA,174613.70,3721.9520083,N,07958.3894033,W,2,06,1.19,364.2082,M,-32.8285,M,1.1,0000*48"
7,0,0.000000,7.497892,"$GPGGA,174613.80,3721.9520135,N,07958.3893987,W,2,06,1.19,364.2086,M,-32.8285,M,1.2,0000*4D"
7,0,0.000000,7.587995,"$GPGGA,174613.90,3721.9520181,N,07958.3894057,W,2,06,1.19,364.2252,M,-32.8285,M,1.3,0000*4A"
8,0,0.000000,7.716948,"$GPGGA,174614.00,3721.9520237,N,07958.3894024,W,2,06,1.19,364.2191,M,-32.8285,M,1.4,0000*45"
8,0,0.000000,7.788471,"$GPGGA,174614.10,3721.9520316,N,07958.3894075,W,2,06,1.19,364.2274,M,-32.8285,M,1.5,0000*4B"
9,0,0.000000,7.891462,"$GPGGA,174614.20,3721.9520370,N,07958.3894195,W,2,06,1.19,364.2427,M,-32.8285,M,1.6,0000*44"
10,0,0.000000,7.991588,"$GPGGA,174614.30,3721.9520414,N,07958.3894336,W,2,06,1.19,364.2479,M,-32.8285,M,1.7,0000*41"
11,0,0.000000,8.091294,"$GPGGA,174614.40,3721.9520402,N,07958.3894457,W,2,06,1.19,364.2506,M,-32.8285,M,0.6,0000*48"
11,0,0.000000,8.190501,"$GPGGA,174614.50,3721.9520402,N,07958.3894512,W,2,06,1.19,364.2493,M,-32.8285,M,0.7,0000*45"
12,0,0.000000,8.290670,"$GPGGA,174614.60,3721.9520395,N,07958.3894635,W,2,06,1.19,364.2485,M,-32.8285,M,0.8,0000*41"
12,0,0.000000,8.400787,"$GPGGA,174614.70,3721.9520472,N,07958.3894840,W,2,06,1.19,364.2842,M,-32.8285,M,0.9,0000*44"
12,0,0.000000,8.488031,"$GPGGA,174614.80,3721.9520526,N,07958.3894895,W,2,06,1.19,364.2819,M,-32.8285,M,1.0,0000*45"
12,0,0.000000,8.591815,"$GPGGA,174614.90,3721.9520528,N,07958.3894970,W,2,06,1.19,364.2807,M,-32.8285,M,1.1,0000*4E"
13,0,0.000000,8.721334,"$GPGGA,174615.00,3721.9520612,N,07958.3895094,W,2,06,1.19,364.2658,M,-32.8285,M,1.2,0000*49"
13,0,0.000000,8.792974,"$GPGGA,174615.10,3721.9520726,N,07958.3895391,W,2,06,1.19,364.2350,M,-32.8285,M,1.3,0000*44"
14,0,0.000000,8.890636,"$GPGGA,174615.20,3721.9520690,N,07958.3895415,W,2,06,1.19,364.2372,M,-32.8285,M,1.4,0000*47"
14,0,0.000000,8.987965,"$GPGGA,174615.30,3721.9520793,N,07958.3895419,W,2,06,1.19,364.2437,M,-32.8285,M,1.5,0000*4F"
15,0,0.000000,9.087940,"$GPGGA,174615.40,3721.9520862,N,07958.3895500,W,2,06,1.19,364.2504,M,-32.8285,M,0.4,0000*41"
16,0,0.000000,9.188272,"$GPGGA,174615.50,3721.9521060,N,07958.3895309,W,2,06,1.19,364.1949,M,-32.8285,M,0.5,0000*43"
17,0,0.000000,9.301020,"$GPGGA,174615.60,3721.9521226,N,07958.3896453,W,2,06,1.19,364.5020,M,-32.8285,M,0.6,0000*4A"
17,0,0.000000,9.391309,"$GPGGA,174615.70,3721.9521424,N,07958.3896707,W,2,06,1.19,364.5169,M,-32.8285,M,0.7,0000*40"
18,0,0.000000,9.491269,"$GPGGA,174615.80,3721.9521499,N,07958.3896792,W,2,06,1.19,364.5098,M,-32.8285,M,0.8,0000*45"
19,0,0.000000,9.590902,"$GPGGA,174615.90,3721.9521597,N,07958.3896686,W,2,06,1.19,364.4522,M,-32.8285,M,0.9,0000*4B"
19,0,0.000000,9.717346,"$GPGGA,174616.00,3721.9521781,N,07958.3896755,W,2,06,1.19,364.4222,M,-32.8285,M,1.0,0000*44"
19,0,0.000000,9.788803,"$GPGGA,174616.10,3721.9521826,N,07958.3896944,W,2,05,1.64,364.4229,M,-32.8285,M,1.1,0000*4A"
19,0,0.000000,9.886880,"$GPGGA,174616.20,3721.9521771,N,07958.3896997,W,2,05,1.64,364.4283,M,-32.8285,M,1.2,0000*49"
19,0,0.000000,9.991097,"$GPGGA,174616.30,3721.9521804,N,07958.3896981,W,2,05,1.64,364.4304,M,-32.8285,M,1.3,0000*4D"
19,0,0.000000,10.090997,"$GPGGA,174616.40,3721.9521826,N,07958.3896898,W,2,05,1.64,364.4252,M,-32.8285,M,0.8,0000*4B"
19,0,0.000000,10.191017,"$GPGGA,174616.50,3721.9521840,N,07958.3896878,W,2,05,1.64,364.4189,M,-32.8285,M,0.9,0000*40"
19,0,0.000000,10.290619,"$GPGGA,174616.60,3721.9521868,N,07958.3896837,W,2,05,1.64,364.4320,M,-32.8285,M,1.0,0000*4B"
19,0,0.000000,10.388291,"$GPGGA,174616.70,3721.9521781,N,07958.3896797,W,2,05,1.64,364.4243,M,-32.8285,M,1.1,0000*42"
19,0,0.000000,10.488039,"$GPGGA,174616.80,3721.9521791,N,07958.3896810,W,2,05,1.64,364.4368,M,-32.8285,M,1.2,0000*47"
21,0,0.000000,14.391602,"$GPGGA,174620.70,3721.9521710,N,07958.3897120,W,2,04,11.39,364.4230,M,-32.8285,M,0.9,0000*71"
21,0,0.000000,14.490884,"$GPGGA,174620.80,3721.9521710,N,07958.3897247,W,2,04,11.39,364.4320,M,-32.8285,M,1.0,0000*74"
22,0,0.000000,14.588997,"$GPGGA,174620.90,3721.9521717,N,07958.3897415,W,2,04,11.39,364.4597,M,-32.8285,M,1.1,0000*78"
24,0,0.000000,14.715706,"$GPGGA,174621.00,3721.9521776,N,07958.3897607,W,2,04,11.39,364.4742,M,-32.8285,M,1.2,0000*7F"
25,0,0.000000,14.787709,"$GPGGA,174621.10,3721.9521857,N,07958.3897880,W,2,04,11.39,364.4926,M,-32.8285,M,1.3,0000*7E"
25,0,0.000000,14.887521,"$GPGGA,174621.20,3721.9521983,N,07958.3898005,W,2,04,11.39,364.5055,M,-32.8285,M,1.4,0000*74"
26,0,0.000000,14.991230,"$GPGGA,174621.30,3721.9521968,N,07958.3898139,W,2,04,11.39,364.5401,M,-32.8285,M,1.5,0000*7A"
26,0,0.000000,15.091352,"$GPGGA,174621.40,3721.9522041,N,07958.3898304,W,2,04,11.40,364.5495,M,-32.8285,M,0.4,0000*73"
26,0,0.000000,15.191765,"$GPGGA,174621.50,3721.9522152,N,07958.3898302,W,2,04,11.40,364.5464,M,-32.8285,M,0.5,0000*78"
26,0,0.000000,15.289526,"$GPGGA,174621.60,3721.9522206,N,07958.3898296,W,2,04,11.40,364.5531,M,-32.8285,M,0.6,0000*77"
26,0,0.000000,15.387792,"$GPGGA,174621.70,3721.9522292,N,07958.3898303,W,2,04,11.40,364.5558,M,-32.8285,M,0.7,0000*78"
26,0,0.000000,15.487321,"$GPGGA,174621.80,3721.9522324,N,07958.3898324,W,2,04,11.40,364.5391,M,-32.8285,M,0.8,0000*72"
27,0,0.000000,15.591569,"$GPGGA,174621.90,3721.9522334,N,07958.3898327,W,2,04,11.40,364.5635,M,-32.8285,M,0.9,0000*7B"
27,0,0.000000,15.721244,"$GPGGA,174622.00,3721.9522443,N,07958.3898309,W,2,04,11.40,364.5512,M,-32.8285,M,1.0,0000*74"
27,0,0.000000,15.791507,"$GPGGA,174622.10,3721.9522510,N,07958.3898342,W,2,04,11.40,364.5524,M,-32.8285,M,1.1,0000*79"
27,0,0.000000,15.891957,"$GPGGA,174622.20,3721.9522605,N,07958.3898355,W,2,04,11.41,364.5444,M,-32.8285,M,1.2,0000*7E"
28,0,0.000000,15.992293,"$GPGGA,174622.30,3721.9522627,N,07958.3898378,W,2,04,11.41,364.5524,M,-32.8285,M,1.3,0000*76"
28,0,0.000000,16.088132,"$GPGGA,174622.40,3721.9522682,N,07958.3898374,W,2,04,11.41,364.5401,M,-32.8285,M,0.8,0000*7E"
29,0,0.000000,16.187772,"$GPGGA,174622.50,3721.9522736,N,07958.3898385,W,2,04,11.41,364.5114,M,-32.8285,M,0.9,0000*7F"
29,0,0.000000,16.291965,"$GPGGA,174622.60,3721.9522791,N,07958.3898442,W,2,04,11.41,364.5259,M,-32.8285,M,1.0,0000*7F"
30,0,0.000000,16.391323,"$GPGGA,174622.70,3721.9522868,N,07958.3898506,W,2,04,11.41,364.5509,M,-32.8285,M,1.1,0000*75"
31,0,0.000000,16.491742,"$GPGGA,174622.80,3721.9522970,N,07958.3898680,W,2,04,11.41,364.6027,M,-32.8285,M,1.2,0000*76"
32,0,0.000000,16.592913,"$GPGGA,174622.90,3721.9523087,N,07958.3898774,W,2,04,11.42,364.6007,M,-32.8285,M,1.3,0000*7D"
33,0,0.000000,16.716945,"$GPGGA,174623.00,3721.9523165,N,07958.3898872,W,2,04,11.42,364.5818,M,-32.8285,M,1.4,0000*73"
34,0,0.000000,16.788875,"$GPGGA,174623.10,3721.9523249,N,07958.3899034,W,2,04,11.42,364.5717,M,-32.8285,M,1.5,0000*75"
34,0,0.000000,16.888392,"$GPGGA,174623.20,3721.9523393,N,07958.3899087,W,2,04,11.42,364.6004,M,-32.8285,M,1.6,0000*7D"
35,0,0.000000,16.987637,"$GPGGA,174623.30,3721.9523609,N,07958.3899281,W,2,04,11.42,364.6172,M,-32.8285,M,1.7,0000*7F"
35,0,0.000000,17.091724,"$GPGGA,174623.40,3721.9523783,N,07958.3899387,W,2,04,11.42,364.6167,M,-32.8285,M,0.6,0000*78"
35,0,0.000000,17.190662,"$GPGGA,174623.50,3721.9523873,N,07958.3899429,W,2,04,11.42,364.6221,M,-32.8285,M,0.7,0000*7A"
35,0,0.000000,17.292099,"$GPGGA,174623.60,3721.9524029,N,07958.3899485,W,2,04,11.42,364.6224,M,-32.8285,M,0.8,0000*75"
35,0,0.000000,17.389661,"$GPGGA,174623.70,3721.9524173,N,07958.3899464,W,2,04,11.43,364.6176,M,-32.8285,M,0.9,0000*71"
35,0,0.000000,17.487671,"$GPGGA,174623.80,3721.9524231,N,07958.3899437,W,2,04,11.43,364.6156,M,-32.8285,M,1.0,0000*77"
35,0,0.000000,17.587558,"$GPGGA,174623.90,3721.9524179,N,07958.3899452,W,2,04,11.43,364.6160,M,-32.8285,M,1.1,0000*7E"
35,0,0.000000,17.715714,"$GPGGA,174624.00,3721.9524189,N,07958.3899446,W,2,04,11.43,364.6175,M,-32.8285,M,1.2,0000*7D"
35,0,0.000000,17.791457,"$GPGGA,174624.10,3721.9524239,N,07958.3899452,W,2,04,11.43,364.6146,M,-32.8285,M,1.3,0000*70"
35,0,0.000000,17.890650,"$GPGGA,174624.20,3721.9524268,N,07958.3899509,W,2,04,11.43,364.6201,M,-32.8285,M,1.4,0000*7F"
37,0,0.000000,18.388085,"$GPGGA,174624.70,3721.9524472,N,07958.3899910,W,2,04,11.44,364.6426,M,-32.8285,M,0.7,0000*75"
37,0,0.000000,18.491052,"$GPGGA,174624.80,3721.9524517,N,07958.3900096,W,2,04,11.44,364.6268,M,-32.8285,M,0.8,0000*7D"
37,0,0.000000,18.591228,"$GPGGA,174624.90,3721.9524619,N,07958.3900185,W,2,04,11.44,364.6170,M,-32.8285,M,0.9,0000*79"
38,0,0.000000,18.719547,"$GPGGA,174625.00,3721.9524939,N,07958.3900295,W,2,04,11.44,364.6286,M,-32.8285,M,1.0,0000*7C"
38,0,0.000000,18.791538,"$GPGGA,174625.10,3721.9525044,N,07958.3900332,W,2,04,11.44,364.6290,M,-32.8285,M,1.1,0000*75"
38,0,0.000000,18.886740,"$GPGGA,174625.20,3721.9525044,N,07958.3900486,W,2,04,11.45,364.6177,M,-32.8285,M,1.2,0000*76"
38,0,0.000000,18.987516,"$GPGGA,174625.30,3721.9525140,N,07958.3900562,W,2,04,11.45,364.6348,M,-32.8285,M,1.3,0000*76"
40,0,0.000000,19.091796,"$GPGGA,174625.40,3721.9525284,N,07958.3900646,W,2,04,11.45,364.6563,M,-32.8285,M,1.4,0000*77"
40,0,0.000000,19.190896,"$GPGGA,174625.50,3721.9525536,N,07958.3900773,W,2,04,11.45,364.6992,M,-32.8285,M,0.9,0000*71"
40,0,0.000000,19.290967,"$GPGGA,174625.60,3721.9525649,N,07958.3900920,W,2,04,11.45,364.7300,M,-32.8285,M,1.0,0000*79"
41,0,0.000000,19.390470,"$GPGGA,174625.70,3721.9525561,N,07958.3901167,W,2,04,11.45,364.7406,M,-32.8285,M,1.1,0000*7B"
41,0,0.000000,19.489690,"$GPGGA,174625.80,3721.9525380,N,07958.3901398,W,2,04,11.45,364.7281,M,-32.8285,M,1.2,0000*75"
42,0,0.000000,19.587166,"$GPGGA,174625.90,3721.9525232,N,07958.3901637,W,2,04,11.46,364.7269,M,-32.8285,M,1.3,0000*78"
43,0,0.000000,19.715633,"$GPGGA,174626.00,3721.9525521,N,07958.3901742,W,2,04,11.46,364.7615,M,-32.8285,M,1.4,0000*7C"
43,0,0.000000,19.788313,"$GPGGA,174626.10,3721.9525760,N,07958.3901797,W,2,04,11.46,364.7628,M,-32.8285,M,1.5,0000*7D"
44,0,0.000000,19.890742,"$GPGGA,174626.20,3721.9526063,N,07958.3901730,W,2,04,11.46,364.7468,M,-32.8285,M,1.6,0000*71"
44,0,0.000000,19.991008,"$GPGGA,174626.30,3721.9526221,N,07958.3901770,W,2,04,11.46,364.7602,M,-32.8285,M,1.7,0000*7F"
45,0,0.000000,20.090677,"$GPGGA,174626.40,3721.9526385,N,07958.3901818,W,2,04,11.46,364.7696,M,-32.8285,M,1.8,0000*74"
46,0,0.000000,20.189659,"$GPGGA,174626.50,3721.9526559,N,07958.3901757,W,2,04,11.46,364.7425,M,-32.8285,M,0.7,0000*72"
46,0,0.000000,20.287713,"$GPGGA,174626.60,3721.9526718,N,07958.3901738,W,2,04,11.47,364.7131,M,-32.8285,M,0.8,0000*71"
47,0,0.000000,20.387215,"$GPGGA,174626.70,3721.9526837,N,07958.3901829,W,2,04,11.47,364.7148,M,-32.8285,M,0.9,0000*72"
47,0,0.000000,20.487682,"$GPGGA,174626.80,3721.9527003,N,07958.3901855,W,2,04,11.47,364.7258,M,-32.8285,M,1.0,0000*72"
48,0,0.000000,20.590758,"$GPGGA,174626.90,3721.9527093,N,07958.3901939,W,2,04,11.47,364.7254,M,-32.8285,M,1.1,0000*7C"
48,0,0.000000,20.718004,"$GPGGA,174627.00,3721.9527235,N,07958.3902018,W,2,05,1.64,364.7492,M,-32.8285,M,1.2,0000*4D"
48,0,0.000000,20.790766,"$GPGGA,174627.10,3721.9527310,N,07958.3902141,W,2,05,1.64,364.7497,M,-32.8285,M,1.3,0000*43"
48,0,0.000000,20.889554,"$GPGGA,174627.20,3721.9527409,N,07958.3902162,W,2,05,1.64,364.7362,M,-32.8285,M,1.4,0000*44"
48,0,0.000000,20.987954,"$GPGGA,174627.30,3721.9527458,N,07958.3902228,W,2,05,1.64,364.6993,M,-32.8285,M,1.5,0000*48"
48,0,0.000000,21.086983,"$GPGGA,174627.40,3721.9527519,N,07958.3902280,W,2,05,1.64,364.6858,M,-32.8285,M,1.6,0000*4C"
48,0,0.000000,21.187687,"$GPGGA,174627.50,3721.9527561,N,07958.3902310,W,2,05,1.64,364.6952,M,-32.8285,M,0.5,0000*43"
48,0,0.000000,21.290360,"$GPGGA,174627.60,3721.9527520,N,07958.3902233,W,2,05,1.64,364.6968,M,-32.8285,M,0.6,0000*4F"
48,0,0.000000,21.391507,"$GPGGA,174627.70,3721.9527553,N,07958.3902201,W,2,05,1.64,364.7163,M,-32.8285,M,0.7,0000*48"
48,0,0.000000,21.491256,"$GPGGA,174627.80,3721.9527500,N,07958.3902262,W,2,05,1.64,364.7025,M,-32.8285,M,0.8,0000*48"
48,0,0.000000,21.589267,"$GPGGA,174627.90,3721.9527554,N,07958.3902236,W,2,05,1.64,364.7113,M,-32.8285,M,0.9,0000*4C"
50,0,0.000000,22.190925,"$GPGGA,174628.50,3721.9527604,N,07958.3902415,W,2,05,1.64,364.7170,M,-32.8285,M,0.9,0000*4B"
50,0,0.000000,22.289567,"$GPGGA,174628.60,3721.9527627,N,07958.3902384,W,2,05,1.64,364.7152,M,-32.8285,M,1.0,0000*4E"
50,0,0.000000,22.387737,"$GPGGA,174628.70,3721.9527686,N,07958.3902437,W,2,05,1.64,364.7094,M,-32.8285,M,1.1,0000*41"
51,0,0.000000,22.487897,"$GPGGA,174628.80,3721.9527751,N,07958.3902548,W,2,05,1.64,364.7214,M,-32.8285,M,1.2,0000*45"
51,0,0.000000,22.587484,"$GPGGA,174628.90,3721.9527909,N,07958.3902732,W,2,05,1.64,364.7347,M,-32.8285,M,1.3,0000*4E"
52,0,0.000000,22.718256,"$GPGGA,174629.00,3721.9528085,N,07958.3902912,W,2,05,1.64,364.7639,M,-32.8285,M,1.4,0000*43"
53,0,0.000000,22.800557,"$GPGGA,174629.10,3721.9528279,N,07958.3903067,W,2,05,1.64,364.7814,M,-32.8285,M,1.5,0000*49"
53,0,0.000000,22.890901,"$GPGGA,174629.20,3721.9528433,N,07958.3903178,W,2,05,1.64,364.8008,M,-32.8285,M,1.6,0000*44"
54,0,0.000000,22.990071,"$GPGGA,174629.30,3721.9528710,N,07958.3903291,W,2,05,1.64,364.8455,M,-32.8285,M,1.7,0000*4E"
55,0,0.000000,23.087513,"$GPGGA,174629.40,3721.9528771,N,07958.3903444,W,2,05,1.64,364.8360,M,-32.8285,M,1.8,0000*4E"
55,0,0.000000,23.187584,"$GPGGA,174629.50,3721.9528748,N,07958.3903629,W,2,05,1.64,364.7916,M,-32.8285,M,0.7,0000*46"
56,0,0.000000,23.286847,"$GPGGA,174629.60,3721.9528939,N,07958.3903697,W,2,05,1.64,364.8014,M,-32.8285,M,0.8,0000*43"
57,0,0.000000,23.390964,"$GPGGA,174629.70,3721.9529124,N,07958.3903801,W,2,05,1.64,364.8354,M,-32.8285,M,0.9,0000*40"
57,0,0.000000,23.490003,"$GPGGA,174629.80,3721.9529288,N,07958.3903895,W,2,05,1.64,364.8547,M,-32.8285,M,1.0,0000*4B"
58,0,0.000000,23.590927,"$GPGGA,174629.90,3721.9529344,N,07958.3904093,W,2,05,1.64,364.8537,M,-32.8285,M,1.1,0000*44"
59,0,0.000000,23.716987,"$GPGGA,174630.00,3721.9529347,N,07958.3904330,W,2,05,1.64,364.8331,M,-32.8285,M,1.2,0000*4F"
59,0,0.000000,23.788461,"$GPGGA,174630.10,3721.9529437,N,07958.3904531,W,2,05,1.64,364.8339,M,-32.8285,M,1.3,0000*40"
59,0,0.000000,23.888149,"$GPGGA,174630.20,3721.9529530,N,07958.3904622,W,2,05,1.64,364.8481,M,-32.8285,M,1.4,0000*47"
59,0,0.000000,23.987363,"$GPGGA,174630.30,3721.9529626,N,07958.3904710,W,2,05,1.64,364.8554,M,-32.8285,M,1.5,0000*4A"
59,0,0.000000,24.091523,"$GPGGA,174630.40,3721.9529733,N,07958.3904748,W,2,05,1.64,364.8606,M,-32.8285,M,1.6,0000*42"
59,0,0.000000,24.191338,"$GPGGA,174630.50,3721.9529775,N,07958.3904782,W,2,05,1.64,364.8551,M,-32.8285,M,0.5,0000*44"
60,0,0.000000,24.290939,"$GPGGA,174630.60,3721.9529784,N,07958.3904783,W,2,05,1.64,364.8616,M,-32.8285,M,0.6,0000*4B"
60,0,0.000000,24.389865,"$GPGGA,174630.70,3721.9529774,N,07958.3904757,W,2,05,1.64,364.8604,M,-32.8285,M,0.7,0000*4E"
60,0,0.000000,24.489181,"$GPGGA,174630.80,3721.9529772,N,07958.3904763,W,2,05,1.64,364.8508,M,-32.8285,M,0.8,0000*40"
60,0,0.000000,24.586912,"$GPGGA,174630.90,3721.9529808,N,07958.3904748,W,2,05,1.64,364.8585,M,-32.8285,M,0.9,0000*4E"
61,0,0.000000,24.715011,"$GPGGA,174631.00,3721.9529834,N,07958.3904775,W,2,05,1.64,364.8490,M,-32.8285,M,1.0,0000*4A"
61,0,0.000000,24.790836,"$GPGGA,174631.10,3721.9529873,N,07958.3904813,W,2,05,1.64,364.8349,M,-32.8285,M,1.1,0000*45"
62,0,0.000000,24.890919,"$GPGGA,174631.20,3721.9529952,N,07958.3904866,W,2,05,1.64,364.8208,M,-32.8285,M,1.2,0000*41"
62,0,0.000000,24.990512,"$GPGGA,174631.30,3721.9530052,N,07958.3904918,W,2,05,1.64,364.8120,M,-32.8285,M,1.3,0000*41"
62,0,0.000000,25.090309,"$GPGGA,174631.40,3721.9530144,N,07958.3905017,W,2,05,1.64,364.8182,M,-32.8285,M,1.4,0000*48"
63,0,0.000000,25.187889,"$GPGGA,174631.50,3721.9530261,N,07958.3905099,W,2,05,1.64,364.8409,M,-32.8285,M,0.9,0000*41"
64,0,0.000000,25.287719,"$GPGGA,174631.60,3721.9530411,N,07958.3905206,W,2,05,1.64,364.8656,M,-32.8285,M,1.0,0000*47"
64,0,0.000000,25.387741,"$GPGGA,174631.70,3721.9530594,N,07958.3905352,W,2,05,1.64,364.8904,M,-32.8285,M,1.1,0000*43"
65,0,0.000000,25.489397,"$GPGGA,174631.80,3721.9530631,N,07958.3905530,W,2,05,1.64,364.9022,M,-32.8285,M,1.2,0000*4D"
66,0,0.000000,25.590877,"$GPGGA,174631.90,3721.9530648,N,07958.3905712,W,2,05,1.64,364.8942,M,-32.8285,M,1.3,0000*4F"
67,0,0.000000,25.717800,"$GPGGA,174632.00,3721.9530633,N,07958.3905896,W,2,05,1.64,364.8645,M,-32.8285,M,1.4,0000*45"
68,0,0.000000,25.790305,"$GPGGA,174632.10,3721.9530765,N,07958.3906011,W,2,05,1.64,364.8448,M,-32.8285,M,1.5,0000*4C"
68,0,0.000000,25.887728,"$GPGGA,174632.20,3721.9530905,N,07958.3906171,W,2,05,1.64,364.8452,M,-32.8285,M,1.6,0000*48"
69,0,0.000000,25.986714,"$GPGGA,174632.30,3721.9531003,N,07958.3906376,W,2,05,1.64,364.8607,M,-32.8285,M,1.7,0000*41"
70,0,0.000000,26.087479,"$GPGGA,174632.40,3721.9531095,N,07958.3906541,W,2,05,1.64,364.8538,M,-32.8285,M,1.8,0000*4B"
70,0,0.000000,26.190982,"$GPGGA,174632.50,3721.9531172,N,07958.3906696,W,2,05,1.64,364.8354,M,-32.8285,M,0.7,0000*49"
71,0,0.000000,26.293318,"$GPGGA,174632.60,3721.9531285,N,07958.3906854,W,2,05,1.64,364.8364,M,-32.8285,M,0.8,0000*4D"
72,0,0.000000,26.390036,"$GPGGA,174632.70,3721.9531624,N,07958.3906980,W,2,05,1.64,364.8616,M,-32.8285,M,0.9,0000*4A"
72,0,0.000000,26.490038,"$GPGGA,174632.80,3721.9531620,N,07958.3906974,W,2,05,1.64,364.8462,M,-32.8285,M,1.0,0000*43"
72,0,0.000000,26.588292,"$GPGGA,174632.90,3721.9531641,N,07958.3907039,W,2,05,1.64,364.8427,M,-32.8285,M,1.1,0000*44"
72,0,0.000000,26.715004,"$GPGGA,174633.00,3721.9531690,N,07958.3907028,W,2,05,1.64,364.8287,M,-32.8285,M,1.2,0000*4F"
72,0,0.000000,26.787709,"$GPGGA,174633.10,3721.9531690,N,07958.3907020,W,2,05,1.64,364.8300,M,-32.8285,M,1.3,0000*49"
72,0,0.000000,26.891014,"$GPGGA,174633.20,3721.9531710,N,07958.3907013,W,2,05,1.64,364.8326,M,-32.8285,M,1.4,0000*40"
72,0,0.000000,26.989564,"$GPGGA,174633.30,3721.9531628,N,07958.3907076,W,2,05,1.64,364.8486,M,-32.8285,M,1.5,0000*44"
72,0,0.000000,27.090894,"$GPGGA,174633.40,3721.9531640,N,07958.3907034,W,2,05,1.64,364.8481,M,-32.8285,M,1.6,0000*4F"
72,0,0.000000,27.190661,"$GPGGA,174633.50,3721.9531658,N,07958.3907001,W,2,05,1.64,364.8460,M,-32.8285,M,0.5,0000*4C"
72,0,0.000000,27.288369,"$GPGGA,174633.60,3721.9531615,N,07958.3907077,W,2,05,1.64,364.8559,M,-32.8285,M,0.6,0000*4F"
74,0,0.000000,28.990883,"$GPGGA,174635.30,3721.9531844,N,07958.3907209,W,2,05,1.64,364.8317,M,-32.8285,M,1.7,0000*41"
74,0,0.000000,29.090477,"$GPGGA,174635.40,3721.9531962,N,07958.3907269,W,2,05,1.64,364.8296,M,-32.8285,M,1.8,0000*42"
74,0,0.000000,29.190741,"$GPGGA,174635.50,3721.9532060,N,07958.3907347,W,2,05,1.64,364.8283,M,-32.8285,M,0.7,0000*4C"
75,0,0.000000,29.290310,"$GPGGA,174635.60,3721.9532119,N,07958.3907539,W,2,05,1.64,364.8366,M,-32.8285,M,0.8,0000*4A"
76,0,0.000000,29.388584,"$GPGGA,174635.70,3721.9532153,N,07958.3907797,W,2,05,1.64,364.8336,M,-32.8285,M,0.9,0000*47"
77,0,0.000000,29.487547,"$GPGGA,174635.80,3721.9532279,N,07958.3908021,W,2,05,1.64,364.8134,M,-32.8285,M,1.0,0000*4E"
78,0,0.000000,29.587430,"$GPGGA,174635.90,3721.9532633,N,07958.3908098,W,2,05,1.64,364.8304,M,-32.8285,M,1.1,0000*47"
79,0,0.000000,29.718450,"$GPGGA,174636.00,3721.9532080,N,07958.3908953,W,2,05,1.64,364.9770,M,-32.8285,M,1.2,0000*48"
79,0,0.000000,29.790508,"$GPGGA,174636.10,3721.9532049,N,07958.3909054,W,2,05,1.64,364.9233,M,-32.8285,M,1.3,0000*40"
80,0,0.000000,29.890620,"$GPGGA,174636.20,3721.9532427,N,07958.3909206,W,2,05,1.64,364.9560,M,-32.8285,M,1.4,0000*4C"
81,0,0.000000,29.990820,"$GPGGA,174636.30,3721.9532595,N,07958.3909309,W,2,05,1.64,364.9617,M,-32.8285,M,1.5,0000*49"
81,0,0.000000,30.089086,"$GPGGA,174636.40,3721.9532706,N,07958.3909447,W,2,05,1.64,364.9567,M,-32.8285,M,1.6,0000*4C"
81,0,0.000000,30.198739,"$GPGGA,174636.50,3721.9532723,N,07958.3909620,W,2,05,1.64,364.9490,M,-32.8285,M,0.5,0000*42"
81,0,0.000000,30.286691,"$GPGGA,174636.60,3721.9532715,N,07958.3909831,W,2,05,1.64,364.9325,M,-32.8285,M,0.6,0000*40"
81,0,0.000000,30.386822,"$GPGGA,174636.70,3721.9532753,N,07958.3909937,W,2,05,1.64,364.9423,M,-32.8285,M,0.7,0000*44"
81,0,0.000000,30.490940,"$GPGGA,174636.80,3721.9532793,N,07958.3909990,W,2,05,1.64,364.9327,M,-32.8285,M,0.8,0000*46"
81,0,0.000000,30.590090,"$GPGGA,174636.90,3721.9532766,N,07958.3910000,W,2,05,1.64,364.9330,M,-32.8285,M,0.9,0000*42"
81,0,0.000000,30.718753,"$GPGGA,174637.00,3721.9532773,N,07958.3909901,W,2,05,1.64,364.9434,M,-32.8285,M,1.0,0000*45"
81,0,0.000000,30.790209,"$GPGGA,174637.10,3721.9532760,N,07958.3909870,W,2,05,1.64,364.9448,M,-32.8285,M,1.1,0000*4B"
81,0,0.000000,30.887493,"$GPGGA,174637.20,3721.9532748,N,07958.3909868,W,2,05,1.64,364.9346,M,-32.8285,M,1.2,0000*41"
81,0,0.000000,30.987186,"$GPGGA,174637.30,3721.9532753,N,07958.3909881,W,2,05,1.64,364.9365,M,-32.8285,M,1.3,0000*4D"
83,0,0.000000,32.387420,"$GPGGA,174638.70,3721.9532829,N,07958.3909996,W,2,05,1.49,364.9529,M,-32.8285,M,0.9,0000*49"
83,0,0.000000,32.486463,"$GPGGA,174638.80,3721.9532849,N,07958.3910110,W,2,05,1.49,364.9542,M,-32.8285,M,1.0,0000*4B"
84,0,0.000000,32.590676,"$GPGGA,174638.90,3721.9532889,N,07958.3910215,W,2,05,1.49,364.9499,M,-32.8285,M,1.1,0000*46"
84,0,0.000000,32.716728,"$GPGGA,174639.00,3721.9532951,N,07958.3910394,W,2,05,1.49,364.9593,M,-32.8285,M,1.2,0000*4A"
85,0,0.000000,32.789440,"$GPGGA,174639.10,3721.9533002,N,07958.3910584,W,2,05,1.49,364.9763,M,-32.8285,M,1.3,0000*4E"
85,0,0.000000,32.888785,"$GPGGA,174639.20,3721.9533109,N,07958.3910677,W,2,05,1.49,364.9883,M,-32.8285,M,1.4,0000*4E"
86,0,0.000000,32.986663,"$GPGGA,174639.30,3721.9533290,N,07958.3910829,W,2,05,1.49,365.0128,M,-32.8285,M,1.5,0000*48"
87,0,0.000000,33.086899,"$GPGGA,174639.40,3721.9533415,N,07958.3910994,W,2,05,1.49,364.9971,M,-32.8285,M,1.6,0000*4C"
88,0,0.000000,33.190336,"$GPGGA,174639.50,3721.9533414,N,07958.3911243,W,2,05,1.49,364.9860,M,-32.8285,M,0.5,0000*4F"
89,0,0.000000,33.290728,"$GPGGA,174639.60,3721.9533380,N,07958.3911438,W,2,05,1.49,364.9933,M,-32.8285,M,0.6,0000*48"
89,0,0.000000,33.390286,"$GPGGA,174639.70,3721.9533183,N,07958.3911605,W,2,05,1.49,364.9866,M,-32.8285,M,0.7,0000*44"
89,0,0.000000,33.490523,"$GPGGA,174639.80,3721.9533031,N,07958.3911785,W,2,05,1.49,364.9660,M,-32.8285,M,0.8,0000*4D"
89,0,0.000000,33.588639,"$GPGGA,174639.90,3721.9533187,N,07958.3911969,W,2,05,1.49,364.9872,M,-32.8285,M,0.9,0000*40"
90,0,0.000000,33.714074,"$GPGGA,174640.00,3721.9533247,N,07958.3911986,W,2,05,1.49,364.9962,M,-32.8285,M,1.0,0000*41"
90,0,0.000000,33.787234,"$GPGGA,174640.10,3721.9533207,N,07958.3911982,W,2,05,1.49,365.0043,M,-32.8285,M,1.1,0000*43"
90,0,0.000000,33.887000,"$GPGGA,174640.20,3721.9533075,N,07958.3911904,W,2,05,1.49,364.9961,M,-32.8285,M,1.2,0000*4B"
90,0,0.000000,33.990484,"$GPGGA,174640.30,3721.9532876,N,07958.3911893,W,2,05,1.49,364.9825,M,-32.8285,M,1.3,0000*4F"
90,0,0.000000,34.090782,"$GPGGA,174640.40,3721.9532773,N,07958.3912022,W,2,05,1.49,364.9761,M,-32.8285,M,1.4,0000*4B"
90,0,0.000000,34.190252,"$GPGGA,174640.50,3721.9532810,N,07958.3912091,W,2,05,1.49,364.9921,M,-32.8285,M,0.9,0000*4E"
90,0,0.000000,34.289217,"$GPGGA,174640.60,3721.9532695,N,07958.3912324,W,2,05,1.49,364.9692,M,-32.8285,M,1.0,0000*4C"
90,0,0.000000,34.386886,"$GPGGA,174640.70,3721.9532708,N,07958.3912467,W,2,05,1.49,364.9561,M,-32.8285,M,1.1,0000*46"
91,0,0.000000,34.717378,"$GPGGA,174641.00,3721.9532744,N,07958.3912726,W,2,05,1.49,364.9569,M,-32.8285,M,1.4,0000*43"
91,0,0.000000,34.790687,"$GPGGA,174641.10,3721.9532818,N,07958.3912898,W,2,05,1.49,364.9695,M,-32.8285,M,1.5,0000*4F"
91,0,0.000000,34.890492,"$GPGGA,174641.20,3721.9532939,N,07958.3913043,W,2,05,1.49,364.9766,M,-32.8285,M,1.6,0000*4F"
92,0,0.000000,34.989084,"$GPGGA,174641.30,3721.9533007,N,07958.3913222,W,2,05,1.49,364.9896,M,-32.8285,M,1.7,0000*4F"
93,0,0.000000,35.087374,"$GPGGA,174641.40,3721.9533074,N,07958.3913327,W,2,05,1.49,364.9846,M,-32.8285,M,1.8,0000*4A"
94,0,0.000000,35.186313,"$GPGGA,174641.50,3721.9532938,N,07958.3913672,W,2,04,3.10,365.0094,M,-32.8285,M,0.7,0000*40"
94,0,0.000000,35.286699,"$GPGGA,174641.60,3721.9532808,N,07958.3914001,W,2,04,3.10,365.0306,M,-32.8285,M,0.8,0000*43"
95,0,0.000000,35.389625,"$GPGGA,174641.70,3721.9532643,N,07958.3914356,W,2,04,3.10,365.0596,M,-32.8285,M,0.9,0000*4C"
96,0,0.000000,35.490089,"$GPGGA,174641.80,3721.9532652,N,07958.3914520,W,2,04,3.10,365.0416,M,-32.8285,M,1.0,0000*45"
96,0,0.000000,35.590470,"$GPGGA,174641.90,3721.9532862,N,07958.3914591,W,2,04,3.10,365.0366,M,-32.8285,M,1.1,0000*42"
97,0,0.000000,35.715050,"$GPGGA,174642.00,3721.9532994,N,07958.3914702,W,2,04,3.10,365.0274,M,-32.8285,M,1.2,0000*49"
97,0,0.000000,35.786690,"$GPGGA,174642.10,3721.9533053,N,07958.3914826,W,2,04,3.10,365.0228,M,-32.8285,M,1.3,0000*4A"
97,0,0.000000,35.886509,"$GPGGA,174642.20,3721.9533142,N,07958.3914919,W,2,04,3.10,365.0277,M,-32.8285,M,1.4,0000*48"
97,0,0.000000,35.987142,"$GPGGA,174642.30,3721.9533157,N,07958.3914972,W,2,04,3.10,365.0268,M,-32.8285,M,1.5,0000*4F"
98,0,0.000000,36.089766,"$GPGGA,174642.40,3721.9533164,N,07958.3915081,W,2,04,3.10,365.0339,M,-32.8285,M,1.6,0000*4A"
99,0,0.000000,36.189743,"$GPGGA,174642.50,3721.9533176,N,07958.3915138,W,2,04,3.10,365.0406,M,-32.8285,M,0.5,0000*42"
99,0,0.000000,36.290025,"$GPGGA,174642.60,3721.9533208,N,07958.3915252,W,2,04,3.10,365.0518,M,-32.8285,M,0.6,0000*49"
99,0,0.000000,36.388944,"$GPGGA,174642.70,3721.9533175,N,07958.3915381,W,2,04,3.10,365.0734,M,-32.8285,M,0.7,0000*43"
100,0,0.000000,36.486651,"$GPGGA,174642.80,3721.9533176,N,07958.3915552,W,2,04,3.10,365.0969,M,-32.8285,M,0.8,0000*4E"
100,0,0.000000,36.586273,"$GPGGA,174642.90,3721.9533164,N,07958.3915690,W,2,04,3.10,365.0925,M,-32.8285,M,0.9,0000*48"
101,0,0.000000,36.712596,"$GPGGA,174643.00,3721.9533154,N,07958.3915825,W,2,04,3.10,365.0950,M,-32.8285,M,1.0,0000*49"
101,0,0.000000,36.790176,"$GPGGA,174643.10,3721.9533208,N,07958.3915882,W,2,04,3.10,365.0874,M,-32.8285,M,1.1,0000*49"
102,0,0.000000,36.889718,"$GPGGA,174643.20,3721.9533248,N,07958.3915960,W,2,04,3.10,365.0878,M,-32.8285,M,1.2,0000*4C"
102,0,0.000000,36.990017,"$GPGGA,174643.30,3721.9533254,N,07958.3916032,W,2,04,3.10,365.0947,M,-32.8285,M,1.3,0000*41"
102,0,0.000000,37.089302,"$GPGGA,174643.40,3721.9533305,N,07958.3916087,W,2,04,3.10,365.0831,M,-32.8285,M,1.4,0000*4A"
103,0,0.000000,37.186754,"$GPGGA,174643.50,3721.9533319,N,07958.3916172,W,2,04,3.10,365.0833,M,-32.8285,M,0.9,0000*43"
104,0,0.000000,37.287630,"$GPGGA,174643.60,3721.9533360,N,07958.3916282,W,2,05,1.62,365.0690,M,-32.8285,M,1.0,0000*4B"
104,0,0.000000,37.387070,"$GPGGA,174643.70,3721.9533345,N,07958.3916451,W,2,05,1.62,365.0452,M,-32.8285,M,1.1,0000*48"
105,0,0.000000,37.490438,"$GPGGA,174643.80,3721.9533339,N,07958.3916531,W,2,05,1.62,365.0304,M,-32.8285,M,1.2,0000*4C"
105,0,0.000000,37.590192,"$GPGGA,174643.90,3721.9533367,N,07958.3916679,W,2,05,1.62,365.0194,M,-32.8285,M,1.3,0000*43"
106,0,0.000000,37.717872,"$GPGGA,174644.00,3721.9533404,N,07958.3916760,W,2,05,1.62,365.0145,M,-32.8285,M,1.4,0000*4D"
106,0,0.000000,37.789517,"$GPGGA,174644.10,3721.9533437,N,07958.3916910,W,2,05,1.62,365.0285,M,-32.8285,M,1.5,0000*4B"
107,0,0.000000,37.887094,"$GPGGA,174644.20,3721.9533450,N,07958.3917066,W,2,05,1.62,365.0433,M,-32.8285,M,1.6,0000*48"
107,0,0.000000,37.986485,"$GPGGA,174644.30,3721.9533483,N,07958.3917293,W,2,05,1.62,365.0855,M,-32.8285,M,1.7,0000*42"
108,0,0.000000,38.086430,"$GPGGA,174644.40,3721.9533528,N,07958.3917490,W,2,05,1.62,365.1078,M,-32.8285,M,1.8,0000*49"
108,0,0.000000,38.190521,"$GPGGA,174644.50,3721.9533571,N,07958.3917640,W,2,05,1.62,365.1173,M,-32.8285,M,0.7,0000*4F"
109,0,0.000000,38.290079,"$GPGGA,174644.60,3721.9533603,N,07958.3917745,W,2,05,1.62,365.1192,M,-32.8285,M,0.8,0000*4E"
109,0,0.000000,38.390274,"$GPGGA,174644.70,3721.9533569,N,07958.3917814,W,2,05,1.62,365.1229,M,-32.8285,M,0.9,0000*49"
110,0,0.000000,38.489493,"$GPGGA,174644.80,3721.9533588,N,07958.3917895,W,2,05,1.62,365.0660,M,-32.8285,M,1.0,0000*40"
110,0,0.000000,38.587638,"$GPGGA,174644.90,3721.9533638,N,07958.3917978,W,2,05,1.62,365.0214,M,-32.8285,M,1.1,0000*4D"
112,0,0.000000,38.714643,"$GPGGA,174645.00,3721.9533727,N,07958.3918099,W,2,05,1.62,364.9541,M,-32.8285,M,1.2,0000*4F"
112,0,0.000000,38.786959,"$GPGGA,174645.10,3721.9533641,N,07958.3918338,W,2,05,1.62,364.9766,M,-32.8285,M,1.3,0000*41"
113,0,0.000000,38.889244,"$GPGGA,174645.20,3721.9533687,N,07958.3918439,W,2,05,1.62,364.8991,M,-32.8285,M,1.4,0000*4E"
113,0,0.000000,38.991343,"$GPGGA,174645.30,3721.9533623,N,07958.3918617,W,2,05,1.62,364.8861,M,-32.8285,M,1.5,0000*40"
114,0,0.000000,39.093855,"$GPGGA,174645.40,3721.9533595,N,07958.3918792,W,2,05,1.62,364.8770,M,-32.8285,M,1.6,0000*49"
114,0,0.000000,39.189453,"$GPGGA,174645.50,3721.9533040,N,07958.3919175,W,2,05,1.62,365.2319,M,-32.8285,M,0.5,0000*49"
115,0,0.000000,39.287359,"$GPGGA,174645.60,3721.9533642,N,07958.3918950,W,2,05,1.62,364.8666,M,-32.8285,M,0.6,0000*45"
115,0,0.000000,39.386550,"$GPGGA,174645.70,3721.9533046,N,07958.3919214,W,2,05,1.62,365.2387,M,-32.8285,M,0.7,0000*4C"
115,0,0.000000,39.488629,"$GPGGA,174645.80,3721.9533213,N,07958.3919279,W,2,05,1.62,365.1705,M,-32.8285,M,0.8,0000*48"
115,0,0.000000,39.590162,"$GPGGA,174645.90,3721.9533232,N,07958.3919356,W,2,05,1.62,365.1780,M,-32.8285,M,0.9,0000*4A"
116,0,0.000000,39.717600,"$GPGGA,174646.00,3721.9533231,N,07958.3919472,W,2,05,1.62,365.1828,M,-32.8285,M,1.0,0000*47"
116,0,0.000000,39.789655,"$GPGGA,174646.10,3721.9533192,N,07958.3919641,W,2,05,1.62,365.2186,M,-32.8285,M,1.1,0000*41"
117,0,0.000000,39.889734,"$GPGGA,174646.20,3721.9533210,N,07958.3919789,W,2,05,1.62,365.2402,M,-32.8285,M,1.2,0000*44"
117,0,0.000000,39.987419,"$GPGGA,174646.30,3721.9533316,N,07958.3919917,W,2,05,1.62,365.2193,M,-32.8285,M,1.3,0000*47"
118,0,0.000000,40.090999,"$GPGGA,174646.40,3721.9533361,N,07958.3920064,W,2,05,1.62,365.2012,M,-32.8285,M,1.4,0000*48"
118,0,0.000000,40.187733,"$GPGGA,174646.50,3721.9533397,N,07958.3920205,W,2,05,1.62,365.1866,M,-32.8285,M,0.9,0000*41"
118,0,0.000000,40.290045,"$GPGGA,174646.60,3721.9533446,N,07958.3920355,W,2,05,1.62,365.1650,M,-32.8285,M,1.0,0000*4E"
118,0,0.000000,40.391164,"$GPGGA,174646.70,3721.9533407,N,07958.3920453,W,2,05,1.62,365.1750,M,-32.8285,M,1.1,0000*4B"
119,0,0.000000,40.489721,"$GPGGA,174646.80,3721.9533410,N,07958.3920517,W,2,05,1.62,365.1754,M,-32.8285,M,1.2,0000*44"
119,0,0.000000,40.589978,"$GPGGA,174646.90,3721.9533451,N,07958.3920599,W,2,05,1.62,365.1541,M,-32.8285,M,1.3,0000*41"
119,0,0.000000,40.714225,"$GPGGA,174647.00,3721.9533440,N,07958.3920687,W,2,05,1.62,365.1619,M,-32.8285,M,1.4,0000*4C"
119,0,0.000000,40.786402,"$GPGGA,174647.10,3721.9533466,N,07958.3920748,W,2,05,1.62,365.1483,M,-32.8285,M,1.5,0000*4B"
120,0,0.000000,40.886765,"$GPGGA,174647.20,3721.9533495,N,07958.3920841,W,2,05,1.62,365.1378,M,-32.8285,M,1.6,0000*42"
121,0,0.000000,40.990108,"$GPGGA,174647.30,3721.9533519,N,07958.3920893,W,2,05,1.62,365.1304,M,-32.8285,M,1.7,0000*43"
121,0,0.000000,41.090493,"$GPGGA,174647.40,3721.9533528,N,07958.3920999,W,2,05,1.62,365.1163,M,-32.8285,M,1.8,0000*41"
122,0,0.000000,41.189964,"$GPGGA,174647.50,3721.9533528,N,07958.3921056,W,2,05,1.62,365.1215,M,-32.8285,M,0.7,0000*47"
122,0,0.000000,41.289651,"$GPGGA,174647.60,3721.9533517,N,07958.3921209,W,2,05,1.62,365.1141,M,-32.8285,M,0.8,0000*4D"
123,0,0.000000,41.387196,"$GPGGA,174647.70,3721.9533504,N,07958.3921357,W,2,05,1.62,365.1276,M,-32.8285,M,0.9,0000*42"
124,0,0.000000,41.486930,"$GPGGA,174647.80,3721.9533456,N,07958.3921572,W,2,05,1.62,365.1579,M,-32.8285,M,1.0,0000*4A"
125,0,0.000000,41.586759,"$GPGGA,174647.90,3721.9533431,N,07958.3921785,W,2,05,1.62,365.1745,M,-32.8285,M,1.1,0000*4C"
125,0,0.000000,41.713295,"$GPGGA,174648.00,3721.9533391,N,07958.3922050,W,2,05,1.62,365.1872,M,-32.8285,M,1.2,0000*43"
126,0,0.000000,41.789848,"$GPGGA,174648.10,3721.9533382,N,07958.3922213,W,2,05,1.62,365.1856,M,-32.8285,M,1.3,0000*42"
126,0,0.000000,41.890681,"$GPGGA,174648.20,3721.9533368,N,07958.3922370,W,2,05,1.62,365.1891,M,-32.8285,M,1.4,0000*4D"
127,0,0.000000,41.989813,"$GPGGA,174648.30,3721.9533356,N,07958.3922526,W,2,05,1.62,365.2029,M,-32.8285,M,1.5,0000*4D"
127,0,0.000000,42.087724,"$GPGGA,174648.40,3721.9533379,N,07958.3922682,W,2,05,1.62,365.2247,M,-32.8285,M,1.6,0000*43"
128,0,0.000000,42.186000,"$GPGGA,174648.50,3721.9533415,N,07958.3922884,W,2,05,1.62,365.2298,M,-32.8285,M,0.5,0000*47"
128,0,0.000000,42.286594,"$GPGGA,174648.60,3721.9533438,N,07958.3922991,W,2,05,1.62,365.2282,M,-32.8285,M,0.6,0000*46"
129,0,0.000000,42.390198,"$GPGGA,174648.70,3721.9533444,N,07958.3923114,W,2,05,1.62,365.2247,M,-32.8285,M,0.7,0000*40"
130,0,0.000000,42.490083,"$GPGGA,174648.80,3721.9533463,N,07958.3923216,W,2,05,1.62,365.2190,M,-32.8285,M,0.8,0000*4D"
130,0,0.000000,42.589782,"$GPGGA,174648.90,3721.9533522,N,07958.3923295,W,2,05,1.62,365.2130,M,-32.8285,M,0.9,0000*48"
131,0,0.000000,42.721496,"$GPGGA,174649.00,3721.9533505,N,07958.3923447,W,2,06,1.19,365.2285,M,-32.8285,M,1.0,0000*46"
132,0,0.000000,42.792955,"$GPGGA,174649.10,3721.9533538,N,07958.3923555,W,2,05,1.64,365.2307,M,-32.8285,M,1.1,0000*48"
133,0,0.000000,42.888684,"$GPGGA,174649.20,3721.9533578,N,07958.3923684,W,2,05,1.64,365.2286,M,-32.8285,M,1.2,0000*4B"
134,0,0.000000,42.987523,"$GPGGA,174649.30,3721.9533699,N,07958.3923815,W,2,05,1.64,365.1824,M,-32.8285,M,1.3,0000*40"
134,0,0.000000,43.093080,"$GPGGA,174649.40,3721.9533695,N,07958.3923992,W,2,05,1.64,365.1941,M,-32.8285,M,1.4,0000*40"
135,0,0.000000,43.193244,"$GPGGA,174649.50,3721.9533693,N,07958.3924211,W,2,05,1.64,365.2140,M,-32.8285,M,0.9,0000*46"
135,0,0.000000,43.290532,"$GPGGA,174649.60,3721.9533684,N,07958.3924487,W,2,05,1.64,365.2482,M,-32.8285,M,1.0,0000*49"
136,0,0.000000,43.390065,"$GPGGA,174649.70,3721.9533683,N,07958.3924613,W,2,05,1.64,365.2619,M,-32.8285,M,1.1,0000*41"
136,0,0.000000,43.487717,"$GPGGA,174649.80,3721.9533801,N,07958.3924730,W,2,05,1.64,365.2078,M,-32.8285,M,1.2,0000*48"
137,0,0.000000,43.586894,"$GPGGA,174649.90,3721.9533842,N,07958.3924875,W,2,05,1.64,365.2173,M,-32.8285,M,1.3,0000*4B"
137,0,0.000000,43.714273,"$GPGGA,174650.00,3721.9533906,N,07958.3924973,W,2,05,1.64,365.1952,M,-32.8285,M,1.4,0000*43"
137,0,0.000000,43.790727,"$GPGGA,174650.10,3721.9533903,N,07958.3925148,W,2,05,1.64,365.1948,M,-32.8285,M,1.5,0000*4C"
138,0,0.000000,43.890056,"$GPGGA,174650.20,3721.9533902,N,07958.3925255,W,2,05,1.64,365.1917,M,-32.8285,M,1.6,0000*48"
138,0,0.000000,43.989788,"$GPGGA,174650.30,3721.9533902,N,07958.3925365,W,2,05,1.64,365.1928,M,-32.8285,M,1.7,0000*46"
139,0,0.000000,44.090115,"$GPGGA,174650.40,3721.9533935,N,07958.3925509,W,2,05,1.64,365.1874,M,-32.8285,M,1.8,0000*4E"
140,0,0.000000,44.188240,"$GPGGA,174650.50,3721.9533944,N,07958.3925688,W,2,05,1.64,365.1979,M,-32.8285,M,0.7,0000*41"
141,0,0.000000,44.287756,"$GPGGA,174650.60,3721.9533941,N,07958.3925844,W,2,05,1.64,365.2178,M,-32.8285,M,0.8,0000*4C"
141,0,0.000000,44.390821,"$GPGGA,174650.70,3721.9533921,N,07958.3926034,W,2,05,1.64,365.2317,M,-32.8285,M,0.9,0000*4D"
142,0,0.000000,44.489906,"$GPGGA,174650.80,3721.9533912,N,07958.3926239,W,2,05,1.64,365.2366,M,-32.8285,M,1.0,0000*43"
142,0,0.000000,44.589324,"$GPGGA,174650.90,3721.9534069,N,07958.3926295,W,2,05,1.64,365.1931,M,-32.8285,M,1.1,0000*4C"
143,0,0.000000,44.717760,"$GPGGA,174651.00,3721.9534140,N,07958.3926437,W,2,05,1.64,365.1748,M,-32.8285,M,1.2,0000*43"
143,0,0.000000,44.800891,"$GPGGA,174651.10,3721.9534120,N,07958.3926539,W,2,06,1.19,365.1773,M,-32.8285,M,1.3,0000*4B"
144,0,0.000000,44.888000,"$GPGGA,174651.20,3721.9534094,N,07958.3926641,W,2,06,1.19,365.1875,M,-32.8285,M,1.4,0000*44"
144,0,0.000000,44.987037,"$GPGGA,174651.30,3721.9534049,N,07958.3926765,W,2,06,1.19,365.1960,M,-32.8285,M,1.5,0000*46"
145,0,0.000000,45.086524,"$GPGGA,174651.40,3721.9534019,N,07958.3926852,W,2,06,1.19,365.2014,M,-32.8285,M,1.6,0000*45"
145,0,0.000000,45.190334,"$GPGGA,174651.50,3721.9533941,N,07958.3927095,W,2,06,1.19,365.2037,M,-32.8285,M,0.5,0000*46"
145,0,0.000000,45.290590,"$GPGGA,174651.60,3721.9533991,N,07958.3927086,W,2,06,1.19,365.2069,M,-32.8285,M,0.6,0000*42"
145,0,0.000000,45.390357,"$GPGGA,174651.70,3721.9533952,N,07958.3927229,W,2,06,1.19,365.1996,M,-32.8285,M,0.7,0000*40"
145,0,0.000000,45.490639,"$GPGGA,174651.80,3721.9533920,N,07958.3927357,W,2,06,1.19,365.2116,M,-32.8285,M,0.8,0000*4E"
145,0,0.000000,45.587945,"$GPGGA,174651.90,3721.9533956,N,07958.3927450,W,2,06,1.19,365.2202,M,-32.8285,M,0.9,0000*49"
145,0,0.000000,45.715830,"$GPGGA,174652.00,3721.9534028,N,07958.3927531,W,2,06,1.19,365.2197,M,-32.8285,M,1.0,0000*45"
145,0,0.000000,45.788034,"$GPGGA,174652.10,3721.9534000,N,07958.3927541,W,2,05,1.64,365.2216,M,-32.8285,M,1.1,0000*4B"
145,0,0.000000,45.890705,"$GPGGA,174652.20,3721.9534004,N,07958.3927560,W,2,05,1.64,365.2149,M,-32.8285,M,1.2,0000*45"
145,0,0.000000,45.990608,"$GPGGA,174652.30,3721.9534001,N,07958.3927548,W,2,05,1.64,365.2042,M,-32.8285,M,1.3,0000*40"
145,0,0.000000,46.090154,"$GPGGA,174652.40,3721.9533946,N,07958.3927581,W,2,05,1.64,365.2099,M,-32.8285,M,1.4,0000*4E"
147,0,0.000000,47.086893,"$GPGGA,174653.40,3721.9534137,N,07958.3927653,W,2,05,1.64,365.2347,M,-32.8285,M,1.8,0000*46"
147,0,0.000000,47.187104,"$GPGGA,174653.50,3721.9534169,N,07958.3927688,W,2,05,1.64,365.2432,M,-32.8285,M,0.7,0000*41"
147,0,0.000000,47.286457,"$GPGGA,174653.60,3721.9534152,N,07958.3927761,W,2,05,1.64,365.2381,M,-32.8285,M,0.8,0000*4C"
148,0,0.000000,47.390360,"$GPGGA,174653.70,3721.9534104,N,07958.3927843,W,2,05,1.64,365.2511,M,-32.8285,M,0.9,0000*4F"
148,0,0.000000,47.488770,"$GPGGA,174653.80,3721.9534104,N,07958.3927929,W,2,05,1.64,365.2569,M,-32.8285,M,1.0,0000*4A"
149,0,0.000000,47.589444,"$GPGGA,174653.90,3721.9534111,N,07958.3928066,W,2,05,1.64,365.2491,M,-32.8285,M,1.1,0000*45"
149,0,0.000000,47.716116,"$GPGGA,174654.00,3721.9534127,N,07958.3928200,W,2,05,1.64,365.2446,M,-32.8285,M,1.2,0000*45"
150,0,0.000000,47.787590,"$GPGGA,174654.10,3721.9534159,N,07958.3928344,W,2,05,1.64,365.2368,M,-32.8285,M,1.3,0000*46"
150,0,0.000000,47.886556,"$GPGGA,174654.20,3721.9534208,N,07958.3928404,W,2,05,1.64,365.2392,M,-32.8285,M,1.4,0000*43"
151,0,0.000000,47.986155,"$GPGGA,174654.30,3721.9534260,N,07958.3928524,W,2,05,1.64,365.2379,M,-32.8285,M,1.5,0000*4B"
151,0,0.000000,48.090007,"$GPGGA,174654.40,3721.9534332,N,07958.3928595,W,2,05,1.64,365.2396,M,-32.8285,M,1.6,0000*42"
151,0,0.000000,48.190353,"$GPGGA,174654.50,3721.9534361,N,07958.3928675,W,2,05,1.64,365.2457,M,-32.8285,M,0.5,0000*40"
151,0,0.000000,48.292031,"$GPGGA,174654.60,3721.9534375,N,07958.3928735,W,2,05,1.64,365.2459,M,-32.8285,M,0.6,0000*4E"
152,0,0.000000,48.388829,"$GPGGA,174654.70,3721.9534594,N,07958.3928760,W,2,05,1.64,365.2997,M,-32.8285,M,0.7,0000*48"
152,0,0.000000,48.486775,"$GPGGA,174654.80,3721.9534631,N,07958.3928819,W,2,05,1.64,365.3181,M,-32.8285,M,0.8,0000*4B"
152,0,0.000000,48.586904,"$GPGGA,174654.90,3721.9534665,N,07958.3928906,W,2,05,1.64,365.3319,M,-32.8285,M,0.9,0000*46"
152,0,0.000000,48.718096,"$GPGGA,174655.00,3721.9534690,N,07958.3928962,W,2,05,1.64,365.3426,M,-32.8285,M,1.0,0000*45"
152,0,0.000000,48.790168,"$GPGGA,174655.10,3721.9534745,N,07958.3929054,W,2,05,1.64,365.3469,M,-32.8285,M,1.1,0000*4A"
152,0,0.000000,48.889867,"$GPGGA,174655.20,3721.9534729,N,07958.3929120,W,2,05,1.64,365.3520,M,-32.8285,M,1.2,0000*4E"
152,0,0.000000,48.989946,"$GPGGA,174655.30,3721.9534754,N,07958.3929103,W,2,05,1.64,365.3579,M,-32.8285,M,1.3,0000*49"
152,0,0.000000,49.088406,"$GPGGA,174655.40,3721.9534751,N,07958.3929122,W,2,05,1.64,365.3485,M,-32.8285,M,1.4,0000*4D"
152,0,0.000000,49.186501,"$GPGGA,174655.50,3721.9534789,N,07958.3929083,W,2,05,1.64,365.3587,M,-32.8285,M,0.9,0000*4C"
152,0,0.000000,49.286666,"$GPGGA,174655.60,3721.9534819,N,07958.3929067,W,2,05,1.64,365.3498,M,-32.8285,M,1.0,0000*44"
