;GPS@@@
;Ver=1.1.0
;DIP=2009-00152-00
;Date=2026-Jan-12 11:33:56
;----------------------------------------------------------------------------------------------------------------------------------------------------------------------------------------
traces,odo_tick,pos(m),time_elapsed(s),GPS
2,0,0.000000,3.375799,"$GPGGA,171402.30,3721.8960799,N,07958.3650120,W,2,05,1.82,358.8469,M,-32.8284,M,0.5,0000*4A"
2,0,0.000000,3.475211,"$GPGGA,171402.40,3721.8960889,N,07958.3650159,W,2,05,1.82,358.8458,M,-32.8284,M,0.6,0000*4C"
3,0,0.000000,3.575129,"$GPGGA,171402.50,3721.8961084,N,07958.3650208,W,2,05,1.82,358.8389,M,-32.8284,M,0.7,0000*44"
3,0,0.000000,3.674425,"$GPGGA,171402.60,3721.8961383,N,07958.3650237,W,2,04,4.50,358.8366,M,-32.8284,M,0.8,0000*4A"
4,0,0.000000,3.778250,"$GPGGA,171402.70,3721.8961492,N,07958.3650199,W,2,04,4.50,358.8444,M,-32.8284,M,0.9,0000*4D"
4,0,0.000000,3.878430,"$GPGGA,171402.80,3721.8961438,N,07958.3650193,W,2,05,1.82,358.8899,M,-32.8284,M,1.0,0000*47"
4,0,0.000000,3.978610,"$GPGGA,171402.90,3721.8961464,N,07958.3650176,W,2,05,1.82,358.9205,M,-32.8284,M,1.1,0000*4B"
4,0,0.000000,4.104169,"$GPGGA,171403.00,3721.8961411,N,07958.3650068,W,2,05,1.82,359.0457,M,-32.8284,M,1.2,0000*45"
5,0,0.000000,4.177986,"$GPGGA,171403.10,3721.8961920,N,07958.3649867,W,2,05,1.82,359.4335,M,-32.8284,M,1.3,0000*42"
5,0,0.000000,4.276152,"$GPGGA,171403.20,3721.8961436,N,07958.3649852,W,2,05,1.82,359.0901,M,-32.8284,M,1.4,0000*43"
6,0,0.000000,4.378546,"$GPGGA,171403.30,3721.8961518,N,07958.3649821,W,2,04,2.11,359.1472,M,-32.8284,M,0.3,0000*4D"
7,0,0.000000,4.478078,"$GPGGA,171403.40,3721.8961659,N,07958.3649828,W,2,04,2.11,359.1944,M,-32.8284,M,0.4,0000*4A"
8,0,0.000000,4.579646,"$GPGGA,171403.50,3721.8961770,N,07958.3650167,W,2,05,1.82,359.2030,M,-32.8284,M,0.5,0000*4B"
9,0,0.000000,4.679266,"$GPGGA,171403.60,3721.8961946,N,07958.3650093,W,2,05,1.82,359.2329,M,-32.8284,M,0.6,0000*41"
9,0,0.000000,4.776975,"$GPGGA,171403.70,3721.8962115,N,07958.3649974,W,2,05,1.82,359.2007,M,-32.8284,M,0.7,0000*4B"
10,0,0.000000,4.875759,"$GPGGA,171403.80,3721.8962441,N,07958.3650006,W,2,05,1.82,359.2461,M,-32.8284,M,0.8,0000*4F"
11,0,0.000000,4.975022,"$GPGGA,171403.90,3721.8962747,N,07958.3650017,W,2,05,1.82,359.2252,M,-32.8284,M,0.9,0000*4C"
12,0,0.000000,5.106335,"$GPGGA,171404.00,3721.8963068,N,07958.3650042,W,2,05,1.82,359.3129,M,-32.8284,M,1.0,0000*4F"
12,0,0.000000,5.177847,"$GPGGA,171404.10,3721.8963110,N,07958.3650076,W,2,05,1.82,359.3156,M,-32.8284,M,1.1,0000*4E"
13,0,0.000000,5.278763,"$GPGGA,171404.20,3721.8963334,N,07958.3650159,W,2,05,1.82,359.2996,M,-32.8284,M,1.2,0000*43"
14,0,0.000000,5.383296,"$GPGGA,171404.30,3721.8963555,N,07958.3650167,W,2,05,1.82,359.3368,M,-32.8284,M,0.7,0000*40"
15,0,0.000000,5.476283,"$GPGGA,171404.40,3721.8963783,N,07958.3650168,W,2,05,1.82,359.3308,M,-32.8284,M,0.8,0000*48"
16,0,0.000000,5.575839,"$GPGGA,171404.50,3721.8963990,N,07958.3650120,W,2,05,1.82,359.3601,M,-32.8284,M,0.9,0000*44"
16,0,0.000000,5.675328,"$GPGGA,171404.60,3721.8964152,N,07958.3650184,W,2,05,1.82,359.3275,M,-32.8284,M,1.0,0000*47"
17,0,0.000000,5.778423,"$GPGGA,171404.70,3721.8964337,N,07958.3650141,W,2,05,1.82,359.3311,M,-32.8284,M,1.1,0000*4C"
18,0,0.000000,5.879096,"$GPGGA,171404.80,3721.8964474,N,07958.3650128,W,2,05,1.82,359.2936,M,-32.8284,M,1.2,0000*41"
19,0,0.000000,5.978852,"$GPGGA,171404.90,3721.8964572,N,07958.3650313,W,2,05,1.82,359.2699,M,-32.8284,M,1.3,0000*46"
21,0,0.000000,6.105991,"$GPGGA,171405.00,3721.8964671,N,07958.3650363,W,2,05,1.82,359.2818,M,-32.8284,M,1.4,0000*49"
22,0,0.000000,6.177578,"$GPGGA,171405.10,3721.8964770,N,07958.3650437,W,2,05,1.82,359.3303,M,-32.8284,M,1.5,0000*4F"
23,0,0.000000,6.275029,"$GPGGA,171405.20,3721.8965100,N,07958.3650495,W,2,05,1.82,359.3975,M,-32.8284,M,1.6,0000*4C"
24,0,0.000000,6.374779,"$GPGGA,171405.30,3721.8965454,N,07958.3650532,W,2,05,1.82,359.4191,M,-32.8284,M,0.5,0000*42"
26,0,0.000000,6.475102,"$GPGGA,171405.40,3721.8965627,N,07958.3650572,W,2,05,1.82,359.2958,M,-32.8284,M,0.6,0000*4F"
27,0,0.000000,6.578624,"$GPGGA,171405.50,3721.8965768,N,07958.3650524,W,2,05,1.82,359.2804,M,-32.8284,M,0.7,0000*4E"
29,0,0.000000,6.687902,"$GPGGA,171405.60,3721.8965969,N,07958.3650504,W,2,05,1.82,359.2327,M,-32.8284,M,0.8,0000*45"
30,0,0.000000,6.778741,"$GPGGA,171405.70,3721.8966263,N,07958.3650325,W,2,05,1.82,359.2765,M,-32.8284,M,0.9,0000*40"
32,0,0.000000,6.876635,"$GPGGA,171405.80,3721.8966726,N,07958.3650451,W,2,05,1.82,359.2709,M,-32.8284,M,1.0,0000*4D"
34,0,0.000000,6.975476,"$GPGGA,171405.90,3721.8966982,N,07958.3650632,W,2,05,1.82,359.2399,M,-32.8284,M,1.1,0000*47"
36,0,0.000000,7.102574,"$GPGGA,171406.00,3721.8967572,N,07958.3650767,W,2,05,1.82,359.2308,M,-32.8284,M,1.2,0000*45"
37,0,0.000000,7.178950,"$GPGGA,171406.10,3721.8967672,N,07958.3650618,W,2,05,1.82,359.1526,M,-32.8284,M,1.3,0000*46"
38,0,0.000000,7.277765,"$GPGGA,171406.20,3721.8967718,N,07958.3650613,W,2,05,1.82,359.2014,M,-32.8284,M,1.4,0000*43"
39,0,0.000000,7.380564,"$GPGGA,171406.30,3721.8967934,N,07958.3650701,W,2,05,1.82,359.2927,M,-32.8284,M,0.3,0000*4F"
40,0,0.000000,7.478867,"$GPGGA,171406.40,3721.8968444,N,07958.3650572,W,2,05,1.82,359.4249,M,-32.8284,M,0.4,0000*49"
41,0,0.000000,7.576578,"$GPGGA,171406.50,3721.8968523,N,07958.3650444,W,2,04,2.11,359.3469,M,-32.8284,M,0.5,0000*46"
42,0,0.000000,7.674822,"$GPGGA,171406.60,3721.8968708,N,07958.3650512,W,2,05,1.82,359.3067,M,-32.8284,M,0.6,0000*4D"
43,0,0.000000,7.775280,"$GPGGA,171406.70,3721.8968920,N,07958.3650591,W,2,05,1.82,359.2839,M,-32.8284,M,0.7,0000*40"
44,0,0.000000,7.874666,"$GPGGA,171406.80,3721.8969233,N,07958.3650533,W,2,05,1.82,359.2813,M,-32.8284,M,0.8,0000*48"
46,0,0.000000,7.978264,"$GPGGA,171406.90,3721.8969504,N,07958.3650572,W,2,05,1.82,359.2859,M,-32.8284,M,0.9,0000*40"
47,0,0.000000,8.105177,"$GPGGA,171407.00,3721.8969698,N,07958.3650608,W,2,05,1.82,359.2842,M,-32.8284,M,1.0,0000*42"
48,0,0.000000,8.178720,"$GPGGA,171407.10,3721.8969800,N,07958.3650535,W,2,05,1.82,359.2808,M,-32.8284,M,1.1,0000*4E"
49,0,0.000000,8.283872,"$GPGGA,171407.20,3721.8970013,N,07958.3650485,W,2,05,1.82,359.2623,M,-32.8284,M,1.2,0000*41"
50,0,0.000000,8.375627,"$GPGGA,171407.30,3721.8970191,N,07958.3650577,W,2,05,1.82,359.2605,M,-32.8284,M,0.7,0000*47"
51,0,0.000000,8.475765,"$GPGGA,171407.40,3721.8970457,N,07958.3650599,W,2,05,1.82,359.2577,M,-32.8284,M,0.8,0000*46"
53,0,0.000000,8.575006,"$GPGGA,171407.50,3721.8970781,N,07958.3650671,W,2,05,1.82,359.2503,M,-32.8284,M,0.9,0000*48"
54,0,0.000000,8.678877,"$GPGGA,171407.60,3721.8971059,N,07958.3650697,W,2,05,1.82,359.2666,M,-32.8284,M,1.0,0000*48"
55,0,0.000000,8.778427,"$GPGGA,171407.70,3721.8970991,N,07958.3650452,W,2,05,1.82,359.2134,M,-32.8284,M,1.1,0000*4F"
56,0,0.000000,8.878102,"$GPGGA,171407.80,3721.8971115,N,07958.3650310,W,2,05,1.82,359.1241,M,-32.8284,M,1.2,0000*45"
57,0,0.000000,8.977441,"$GPGGA,171407.90,3721.8971543,N,07958.3650259,W,2,05,1.82,359.1100,M,-32.8284,M,1.3,0000*48"
59,0,0.000000,9.102045,"$GPGGA,171408.00,3721.8971881,N,07958.3650374,W,2,05,1.82,359.1686,M,-32.8284,M,1.4,0000*4D"
60,0,0.000000,9.175084,"$GPGGA,171408.10,3721.8972208,N,07958.3650625,W,2,05,1.82,359.2811,M,-32.8284,M,1.5,0000*47"
61,0,0.000000,9.274792,"$GPGGA,171408.20,3721.8972450,N,07958.3650698,W,2,05,1.82,359.3415,M,-32.8284,M,1.6,0000*43"
62,0,0.000000,9.378662,"$GPGGA,171408.30,3721.8973011,N,07958.3651048,W,2,05,1.82,359.3784,M,-32.8284,M,0.5,0000*41"
63,0,0.000000,9.478523,"$GPGGA,171408.40,3721.8973102,N,07958.3650977,W,2,05,1.82,359.3830,M,-32.8284,M,0.6,0000*42"
63,0,0.000000,9.578491,"$GPGGA,171408.50,3721.8973256,N,07958.3651059,W,2,05,1.82,359.3766,M,-32.8284,M,0.7,0000*48"
64,0,0.000000,9.677199,"$GPGGA,171408.60,3721.8973444,N,07958.3651051,W,2,05,1.82,359.3868,M,-32.8284,M,0.8,0000*48"
65,0,0.000000,9.775290,"$GPGGA,171408.70,3721.8973731,N,07958.3651074,W,2,05,1.82,359.3729,M,-32.8284,M,0.9,0000*44"
66,0,0.000000,9.875562,"$GPGGA,171408.80,3721.8973930,N,07958.3650995,W,2,05,1.82,359.3886,M,-32.8284,M,1.0,0000*41"
67,0,0.000000,9.975530,"$GPGGA,171408.90,3721.8974088,N,07958.3650948,W,2,05,1.82,359.4031,M,-32.8284,M,1.1,0000*4F"
68,0,0.000000,10.105776,"$GPGGA,171409.00,3721.8974206,N,07958.3650946,W,2,05,1.82,359.3975,M,-32.8284,M,1.2,0000*40"
69,0,0.000000,10.178840,"$GPGGA,171409.10,3721.8974290,N,07958.3650939,W,2,05,1.82,359.3611,M,-32.8284,M,1.3,0000*4A"
70,0,0.000000,10.278184,"$GPGGA,171409.20,3721.8974645,N,07958.3651138,W,2,05,1.82,359.3774,M,-32.8284,M,1.4,0000*48"
71,0,0.000000,10.376051,"$GPGGA,171409.30,3721.8974999,N,07958.3651326,W,2,05,1.82,359.3948,M,-32.8284,M,1.5,0000*4A"
72,0,0.000000,10.474675,"$GPGGA,171409.40,3721.8975225,N,07958.3651314,W,2,05,1.82,359.3883,M,-32.8284,M,0.4,0000*47"
73,0,0.000000,10.574801,"$GPGGA,171409.50,3721.8975362,N,07958.3651415,W,2,05,1.82,359.3837,M,-32.8284,M,0.5,0000*4C"
75,0,0.000000,10.674945,"$GPGGA,171409.60,3721.8975543,N,07958.3651328,W,2,05,1.82,359.3762,M,-32.8284,M,0.6,0000*4F"
76,0,0.000000,10.778534,"$GPGGA,171409.70,3721.8975815,N,07958.3651384,W,2,05,1.82,359.3712,M,-32.8284,M,0.7,0000*40"
77,0,0.000000,10.878221,"$GPGGA,171409.80,3721.8976278,N,07958.3651484,W,2,05,1.82,359.4238,M,-32.8284,M,0.8,0000*4F"
79,0,0.000000,10.978429,"$GPGGA,171409.90,3721.8976518,N,07958.3651626,W,2,05,1.82,359.3975,M,-32.8284,M,0.9,0000*41"
80,0,0.000000,11.105654,"$GPGGA,171410.00,3721.8976729,N,07958.3651661,W,2,05,1.82,359.3866,M,-32.8284,M,1.0,0000*48"
81,0,0.000000,11.175989,"$GPGGA,171410.10,3721.8976837,N,07958.3651608,W,2,05,1.82,359.3685,M,-32.8284,M,1.1,0000*44"
83,0,0.000000,11.275063,"$GPGGA,171410.20,3721.8977107,N,07958.3651552,W,2,05,1.82,359.3450,M,-32.8284,M,1.2,0000*49"
84,0,0.000000,11.375111,"$GPGGA,171410.30,3721.8977418,N,07958.3651662,W,2,04,7.76,359.3284,M,-32.8284,M,0.7,0000*44"
84,0,0.000000,11.478539,"$GPGGA,171410.40,3721.8977655,N,07958.3651645,W,2,05,1.82,359.3249,M,-32.8284,M,0.8,0000*4F"
85,0,0.000000,11.578795,"$GPGGA,171410.50,3721.8977869,N,07958.3651562,W,2,05,1.82,359.3350,M,-32.8284,M,0.9,0000*41"
86,0,0.000000,11.678992,"$GPGGA,171410.60,3721.8978105,N,07958.3651660,W,2,05,1.82,359.3447,M,-32.8284,M,1.0,0000*46"
87,0,0.000000,11.777242,"$GPGGA,171410.70,3721.8978245,N,07958.3651703,W,2,05,1.82,359.3191,M,-32.8284,M,1.1,0000*4B"
88,0,0.000000,11.875046,"$GPGGA,171410.80,3721.8978346,N,07958.3651741,W,2,05,1.82,359.2573,M,-32.8284,M,1.2,0000*4A"
89,0,0.000000,11.974625,"$GPGGA,171410.90,3721.8978078,N,07958.3651132,W,2,05,1.82,359.1196,M,-32.8284,M,1.3,0000*4A"
91,0,0.000000,12.100857,"$GPGGA,171411.00,3721.8979287,N,07958.3651954,W,2,04,7.76,359.2973,M,-32.8284,M,1.4,0000*42"
91,0,0.000000,12.173535,"$GPGGA,171411.10,3721.8979398,N,07958.3652002,W,2,04,7.76,359.2999,M,-32.8284,M,1.5,0000*40"
92,0,0.000000,12.274373,"$GPGGA,171411.20,3721.8979497,N,07958.3651897,W,1,07,1.97,359.2714,M,-32.8284,M,,*64"
93,0,0.000000,12.374562,"$GPGGA,171411.30,3721.8979649,N,07958.3651939,W,1,07,1.97,359.2237,M,-32.8284,M,,*65"
94,0,0.000000,12.473733,"$GPGGA,171411.40,3721.8979874,N,07958.3652009,W,1,07,1.97,359.2053,M,-32.8284,M,,*6B"
95,0,0.000000,12.577387,"$GPGGA,171411.50,3721.8980232,N,07958.3652069,W,1,07,1.97,359.2606,M,-32.8284,M,,*64"
96,0,0.000000,12.670938,"$GPGGA,171411.60,3721.8980636,N,07958.3652026,W,1,07,1.97,359.3273,M,-32.8284,M,,*6B"
97,0,0.000000,12.770995,"$GPGGA,171411.70,3721.8980867,N,07958.3652109,W,1,07,1.97,359.2808,M,-32.8284,M,,*6B"
98,0,0.000000,12.874677,"$GPGGA,171411.80,3721.8981068,N,07958.3652175,W,1,07,1.97,359.2371,M,-32.8284,M,,*6C"
99,0,0.000000,12.974241,"$GPGGA,171411.90,3721.8981398,N,07958.3652077,W,1,07,1.97,359.2798,M,-32.8284,M,,*61"
101,0,0.000000,13.125647,"$GPGGA,171412.00,3721.8981454,N,07958.3651940,W,1,07,1.97,359.2323,M,-32.8284,M,,*66"
102,0,0.000000,13.193447,"$GPGGA,171412.10,3721.8981771,N,07958.3652122,W,1,07,1.97,359.2198,M,-32.8284,M,,*6E"
103,0,0.000000,13.271090,"$GPGGA,171412.20,3721.8982007,N,07958.3652312,W,1,07,1.97,359.2069,M,-32.8284,M,,*66"
104,0,0.000000,13.370062,"$GPGGA,171412.30,3721.8982305,N,07958.3652362,W,1,07,1.97,359.2379,M,-32.8284,M,,*63"
105,0,0.000000,13.470488,"$GPGGA,171412.40,3721.8982573,N,07958.3652301,W,1,07,1.97,359.2607,M,-32.8284,M,,*6A"
107,0,0.000000,13.574038,"$GPGGA,171412.50,3721.8982737,N,07958.3652450,W,1,06,2.06,359.2587,M,-32.8284,M,,*6B"
108,0,0.000000,13.674038,"$GPGGA,171412.60,3721.8982972,N,07958.3652542,W,1,06,2.06,359.2248,M,-32.8284,M,,*61"
109,0,0.000000,13.773782,"$GPGGA,171412.70,3721.8983193,N,07958.3652469,W,1,06,2.06,359.1829,M,-32.8284,M,,*60"
111,0,0.000000,13.873357,"$GPGGA,171412.80,3721.8983638,N,07958.3652195,W,1,06,2.06,359.3346,M,-32.8284,M,,*6F"
113,0,0.000000,13.970965,"$GPGGA,171412.90,3721.8983729,N,07958.3652323,W,1,06,2.06,359.3110,M,-32.8284,M,,*61"
116,0,0.000000,14.121263,"$GPGGA,171413.00,3721.8983957,N,07958.3652456,W,1,06,2.06,359.2899,M,-32.8284,M,,*62"
117,0,0.000000,14.189035,"$GPGGA,171413.10,3721.8984345,N,07958.3652509,W,1,06,2.06,359.2532,M,-32.8284,M,,*6A"
119,0,0.000000,14.270021,"$GPGGA,171413.20,3721.8984631,N,07958.3652441,W,1,06,2.06,359.2581,M,-32.8284,M,,*6A"
121,0,0.000000,14.373610,"$GPGGA,171413.30,3721.8985016,N,07958.3652539,W,1,06,2.06,359.2267,M,-32.8284,M,,*68"
122,0,0.000000,14.478004,"$GPGGA,171413.40,3721.8985312,N,07958.3652575,W,1,06,2.06,359.1627,M,-32.8284,M,,*63"
124,0,0.000000,14.573208,"$GPGGA,171413.50,3721.8985663,N,07958.3652531,W,1,06,2.06,359.1596,M,-32.8284,M,,*68"
125,0,0.000000,14.671009,"$GPGGA,171413.60,3721.8986109,N,07958.3652509,W,1,06,2.06,359.2161,M,-32.8284,M,,*67"
126,0,0.000000,14.770000,"$GPGGA,171413.70,3721.8986363,N,07958.3652494,W,1,06,2.06,359.2449,M,-32.8284,M,,*62"
127,0,0.000000,14.870059,"$GPGGA,171413.80,3721.8986507,N,07958.3652477,W,1,06,2.06,359.2603,M,-32.8284,M,,*68"
128,0,0.000000,14.973926,"$GPGGA,171413.90,3721.8986635,N,07958.3652449,W,1,06,2.06,359.2556,M,-32.8284,M,,*65"
128,0,0.000000,15.123939,"$GPGGA,171414.00,3721.8986737,N,07958.3652479,W,1,06,2.06,359.2471,M,-32.8284,M,,*6F"
130,0,0.000000,15.191787,"$GPGGA,171414.10,3721.8986797,N,07958.3652542,W,1,06,2.06,359.2430,M,-32.8284,M,,*68"
130,0,0.000000,15.273259,"$GPGGA,171414.20,3721.8986854,N,07958.3652599,W,1,06,2.06,359.2337,M,-32.8284,M,,*6D"
131,0,0.000000,15.370841,"$GPGGA,171414.30,3721.8986882,N,07958.3652616,W,1,06,2.06,359.2215,M,-32.8284,M,,*62"
132,0,0.000000,15.470984,"$GPGGA,171414.40,3721.8986960,N,07958.3652634,W,1,06,2.06,359.2179,M,-32.8284,M,,*61"
133,0,0.000000,15.570194,"$GPGGA,171414.50,3721.8987101,N,07958.3652677,W,1,06,2.06,359.2267,M,-32.8284,M,,*65"
134,0,0.000000,15.670304,"$GPGGA,171414.60,3721.8987324,N,07958.3652723,W,1,06,2.06,359.2419,M,-32.8284,M,,*6C"
136,0,0.000000,15.776014,"$GPGGA,171414.70,3721.8987596,N,07958.3652681,W,1,06,2.06,359.2549,M,-32.8284,M,,*6F"
137,0,0.000000,15.876088,"$GPGGA,171414.80,3721.8987925,N,07958.3652691,W,1,06,2.06,359.2505,M,-32.8284,M,,*6D"
138,0,0.000000,15.975631,"$GPGGA,171414.90,3721.8988334,N,07958.3652657,W,1,06,2.06,359.2696,M,-32.8284,M,,*6A"
140,0,0.000000,16.124079,"$GPGGA,171415.00,3721.8988617,N,07958.3652655,W,1,06,2.06,359.2978,M,-32.8284,M,,*6B"
141,0,0.000000,16.191866,"$GPGGA,171415.10,3721.8988714,N,07958.3652689,W,1,06,2.06,359.3256,M,-32.8284,M,,*6F"
142,0,0.000000,16.270603,"$GPGGA,171415.20,3721.8988838,N,07958.3652594,W,1,06,2.06,359.3160,M,-32.8284,M,,*64"
143,0,0.000000,16.370158,"$GPGGA,171415.30,3721.8989450,N,07958.3652661,W,1,06,2.06,359.2195,M,-32.8284,M,,*64"
144,0,0.000000,16.473644,"$GPGGA,171415.40,3721.8989701,N,07958.3652748,W,1,06,2.06,359.2684,M,-32.8284,M,,*69"
145,0,0.000000,16.573334,"$GPGGA,171415.50,3721.8989835,N,07958.3652530,W,1,06,2.06,359.2519,M,-32.8284,M,,*6A"
146,0,0.000000,16.672785,"$GPGGA,171415.60,3721.8990049,N,07958.3652732,W,1,06,2.06,359.2701,M,-32.8284,M,,*69"
147,0,0.000000,16.770706,"$GPGGA,171415.70,3721.8990332,N,07958.3652774,W,1,06,2.06,359.2886,M,-32.8284,M,,*65"
148,0,0.000000,16.870434,"$GPGGA,171415.80,3721.8990582,N,07958.3652811,W,1,07,1.42,359.3175,M,-32.8284,M,,*6D"
149,0,0.000000,16.970574,"$GPGGA,171415.90,3721.8990814,N,07958.3653002,W,1,07,1.42,359.3156,M,-32.8284,M,,*64"
150,0,0.000000,17.121210,"$GPGGA,171416.00,3721.8990970,N,07958.3652974,W,1,07,1.42,359.3099,M,-32.8284,M,,*66"
151,0,0.000000,17.189058,"$GPGGA,171416.10,3721.8991221,N,07958.3652940,W,1,07,1.42,359.2782,M,-32.8284,M,,*62"
152,0,0.000000,17.273389,"$GPGGA,171416.20,3721.8991520,N,07958.3652980,W,1,07,1.42,359.2405,M,-32.8284,M,,*67"
154,0,0.000000,17.373689,"$GPGGA,171416.30,3721.8991670,N,07958.3652890,W,1,07,1.42,359.2472,M,-32.8284,M,,*60"
155,0,0.000000,17.471294,"$GPGGA,171416.40,3721.8991912,N,07958.3652635,W,1,07,1.42,359.3175,M,-32.8284,M,,*6E"
156,0,0.000000,17.570143,"$GPGGA,171416.50,3721.8992438,N,07958.3652772,W,1,07,1.42,359.3330,M,-32.8284,M,,*68"
157,0,0.000000,17.670595,"$GPGGA,171416.60,3721.8992621,N,07958.3652931,W,1,07,1.42,359.3114,M,-32.8284,M,,*6C"
158,0,0.000000,17.773834,"$GPGGA,171416.70,3721.8992677,N,07958.3652958,W,1,07,1.42,359.2795,M,-32.8284,M,,*6F"
159,0,0.000000,17.873597,"$GPGGA,171416.80,3721.8992995,N,07958.3653063,W,1,07,1.42,359.2605,M,-32.8284,M,,*6B"
161,0,0.000000,17.973343,"$GPGGA,171416.90,3721.8993128,N,07958.3653081,W,1,07,1.42,359.1694,M,-32.8284,M,,*62"
163,0,0.000000,18.124483,"$GPGGA,171417.00,3721.8993127,N,07958.3653364,W,1,07,1.42,358.9951,M,-32.8284,M,,*62"
163,0,0.000000,18.195867,"$GPGGA,171417.10,3721.8993219,N,07958.3653259,W,2,04,2.11,358.9533,M,-32.8284,M,1.5,0000*45"
164,0,0.000000,18.274199,"$GPGGA,171417.20,3721.8993329,N,07958.3653291,W,2,04,2.11,358.9418,M,-32.8284,M,1.6,0000*4B"
165,0,0.000000,18.374132,"$GPGGA,171417.30,3721.8993463,N,07958.3653263,W,2,04,2.11,358.9137,M,-32.8284,M,1.7,0000*47"
165,0,0.000000,18.473520,"$GPGGA,171417.40,3721.8993607,N,07958.3653181,W,2,04,2.11,358.9155,M,-32.8284,M,0.6,0000*4B"
167,0,0.000000,18.577636,"$GPGGA,171417.50,3721.8993796,N,07958.3653129,W,2,04,2.11,358.9076,M,-32.8284,M,0.7,0000*40"
168,0,0.000000,18.678194,"$GPGGA,171417.60,3721.8994115,N,07958.3653179,W,2,04,2.11,358.8938,M,-32.8284,M,0.8,0000*41"
170,0,0.000000,18.777752,"$GPGGA,171417.70,3721.8994092,N,07958.3652774,W,2,04,2.11,358.8598,M,-32.8284,M,0.9,0000*43"
171,0,0.000000,18.874805,"$GPGGA,171417.80,3721.8994214,N,07958.3652679,W,2,04,2.11,358.8488,M,-32.8284,M,1.0,0000*44"
172,0,0.000000,18.974173,"$GPGGA,171417.90,3721.8994610,N,07958.3652441,W,2,04,2.11,358.7929,M,-32.8284,M,1.1,0000*44"
174,0,0.000000,19.101298,"$GPGGA,171418.00,3721.8995114,N,07958.3652568,W,2,04,2.11,358.8535,M,-32.8284,M,1.2,0000*47"
175,0,0.000000,19.177900,"$GPGGA,171418.10,3721.8995336,N,07958.3652663,W,2,04,2.11,358.8219,M,-32.8284,M,1.3,0000*44"
176,0,0.000000,19.279479,"$GPGGA,171418.20,3721.8995724,N,07958.3652675,W,2,04,2.11,358.8732,M,-32.8284,M,1.4,0000*4C"
177,0,0.000000,19.378422,"$GPGGA,171418.30,3721.8995854,N,07958.3652772,W,2,04,2.11,358.8360,M,-32.8284,M,0.3,0000*46"
178,0,0.000000,19.477561,"$GPGGA,171418.40,3721.8996032,N,07958.3652808,W,2,04,2.11,358.8791,M,-32.8284,M,0.4,0000*45"
179,0,0.000000,19.577187,"$GPGGA,171418.50,3721.8996341,N,07958.3652546,W,2,04,2.11,358.9137,M,-32.8284,M,0.5,0000*4E"
180,0,0.000000,19.677044,"$GPGGA,171418.60,3721.8996767,N,07958.3652711,W,2,04,2.11,358.8915,M,-32.8284,M,0.6,0000*47"
181,0,0.000000,19.773864,"$GPGGA,171418.70,3721.8996896,N,07958.3652674,W,2,04,2.11,358.8844,M,-32.8284,M,0.7,0000*41"
182,0,0.000000,19.874541,"$GPGGA,171418.80,3721.8997032,N,07958.3652688,W,2,04,2.11,358.8846,M,-32.8284,M,0.8,0000*47"
182,0,0.000000,19.977676,"$GPGGA,171418.90,3721.8997241,N,07958.3652592,W,2,04,2.11,358.9328,M,-32.8284,M,0.9,0000*4B"
184,0,0.000000,20.104014,"$GPGGA,171419.00,3721.8997473,N,07958.3652533,W,2,04,2.11,358.9475,M,-32.8284,M,1.0,0000*48"
185,0,0.000000,20.177511,"$GPGGA,171419.10,3721.8997773,N,07958.3652580,W,2,04,2.11,358.9147,M,-32.8284,M,1.1,0000*47"
186,0,0.000000,20.274534,"$GPGGA,171419.20,3721.8997981,N,07958.3652801,W,2,04,2.11,358.8504,M,-32.8284,M,1.2,0000*42"
187,0,0.000000,20.374229,"$GPGGA,171419.30,3721.8998349,N,07958.3652582,W,2,04,2.11,358.9605,M,-32.8284,M,0.7,0000*43"
188,0,0.000000,20.475888,"$GPGGA,171419.40,3721.8998510,N,07958.3652641,W,2,04,2.10,358.9463,M,-32.8284,M,0.8,0000*4E"
189,0,0.000000,20.574792,"$GPGGA,171419.50,3721.8998776,N,07958.3652642,W,2,04,2.10,358.9158,M,-32.8284,M,0.9,0000*42"
190,0,0.000000,20.677645,"$GPGGA,171419.60,3721.8998915,N,07958.3652771,W,2,04,2.10,358.9070,M,-32.8284,M,1.0,0000*48"
192,0,0.000000,20.777776,"$GPGGA,171419.70,3721.8999001,N,07958.3652696,W,2,04,2.10,358.8862,M,-32.8284,M,1.1,0000*47"
193,0,0.000000,20.877259,"$GPGGA,171419.80,3721.8999342,N,07958.3652849,W,2,04,2.10,358.8566,M,-32.8284,M,1.2,0000*4A"
194,0,0.000000,20.975651,"$GPGGA,171419.90,3721.8999487,N,07958.3653249,W,2,04,2.10,358.6731,M,-32.8284,M,1.3,0000*41"
196,0,0.000000,21.100609,"$GPGGA,171420.00,3721.8999825,N,07958.3653174,W,2,04,2.10,358.6822,M,-32.8284,M,1.4,0000*41"
197,0,0.000000,21.173571,"$GPGGA,171420.10,3721.8999947,N,07958.3653181,W,2,04,2.10,358.6395,M,-32.8284,M,1.5,0000*49"
199,0,0.000000,21.274504,"$GPGGA,171420.20,3721.9000405,N,07958.3653063,W,2,04,2.10,358.8136,M,-32.8284,M,1.6,0000*42"
200,0,0.000000,21.381072,"$GPGGA,171420.30,3721.9000593,N,07958.3653005,W,2,04,2.10,358.7715,M,-32.8284,M,1.7,0000*44"
202,0,0.000000,21.477474,"$GPGGA,171420.40,3721.9000902,N,07958.3652853,W,2,04,2.10,358.7272,M,-32.8284,M,0.6,0000*49"
203,0,0.000000,21.577963,"$GPGGA,171420.50,3721.9001211,N,07958.3652973,W,2,04,2.10,358.6988,M,-32.8284,M,0.7,0000*4D"
205,0,0.000000,21.675170,"$GPGGA,171420.60,3721.9001575,N,07958.3652808,W,2,04,2.10,358.7002,M,-32.8284,M,0.8,0000*43"
206,0,0.000000,21.774089,"$GPGGA,171420.70,3721.9001846,N,07958.3652634,W,2,04,2.10,358.7395,M,-32.8284,M,0.9,0000*42"
207,0,0.000000,21.874376,"$GPGGA,171420.80,3721.9001965,N,07958.3652733,W,2,04,2.10,358.6655,M,-32.8284,M,1.0,0000*4B"
208,0,0.000000,21.974434,"$GPGGA,171420.90,3721.9002363,N,07958.3652701,W,2,04,2.10,358.7275,M,-32.8284,M,1.1,0000*42"
208,0,0.000000,22.103880,"$GPGGA,171421.00,3721.9002681,N,07958.3652727,W,2,04,2.10,358.7813,M,-32.8284,M,1.2,0000*4E"
209,0,0.000000,22.177438,"$GPGGA,171421.10,3721.9002684,N,07958.3652792,W,2,04,2.10,358.7800,M,-32.8284,M,1.3,0000*47"
209,0,0.000000,22.277284,"$GPGGA,171421.20,3721.9002680,N,07958.3652850,W,2,04,2.10,358.7839,M,-32.8284,M,1.4,0000*4C"
209,0,0.000000,22.375707,"$GPGGA,171421.30,3721.9002694,N,07958.3652844,W,2,04,2.10,358.8110,M,-32.8284,M,1.5,0000*41"
210,0,0.000000,22.470376,"$GPGGA,171421.40,3721.9002738,N,07958.3652813,W,1,07,1.49,358.8373,M,-32.8284,M,,*61"
210,0,0.000000,22.570393,"$GPGGA,171421.50,3721.9002744,N,07958.3652760,W,1,07,1.49,358.8461,M,-32.8284,M,,*64"
211,0,0.000000,22.670248,"$GPGGA,171421.60,3721.9002781,N,07958.3652753,W,1,07,1.49,358.8346,M,-32.8284,M,,*6C"
212,0,0.000000,22.774104,"$GPGGA,171421.70,3721.9002883,N,07958.3652688,W,1,07,1.49,358.7929,M,-32.8284,M,,*6B"
214,0,0.000000,22.873284,"$GPGGA,171421.80,3721.9003008,N,07958.3652501,W,1,07,1.49,358.7485,M,-32.8284,M,,*67"
215,0,0.000000,22.973965,"$GPGGA,171421.90,3721.9003338,N,07958.3652335,W,1,07,1.49,358.7275,M,-32.8284,M,,*6E"
217,0,0.000000,23.123364,"$GPGGA,171422.00,3721.9003786,N,07958.3652406,W,1,07,1.49,358.6714,M,-32.8284,M,,*61"
218,0,0.000000,23.191210,"$GPGGA,171422.10,3721.9003950,N,07958.3652378,W,1,07,1.49,358.6341,M,-32.8284,M,,*6F"
219,0,0.000000,23.271122,"$GPGGA,171422.20,3721.9004173,N,07958.3652039,W,1,07,1.49,358.6682,M,-32.8284,M,,*6E"
220,0,0.000000,23.370696,"$GPGGA,171422.30,3721.9004484,N,07958.3651842,W,1,07,1.49,358.7201,M,-32.8284,M,,*6B"
221,0,0.000000,23.473491,"$GPGGA,171422.40,3721.9004710,N,07958.3651836,W,1,07,1.49,358.7004,M,-32.8284,M,,*66"
222,0,0.000000,23.573107,"$GPGGA,171422.50,3721.9004904,N,07958.3651880,W,1,07,1.49,358.7349,M,-32.8284,M,,*6B"
224,0,0.000000,23.673251,"$GPGGA,171422.60,3721.9005263,N,07958.3651668,W,1,07,1.49,359.0670,M,-32.8284,M,,*62"
225,0,0.000000,23.771595,"$GPGGA,171422.70,3721.9005438,N,07958.3651569,W,1,07,1.49,359.0634,M,-32.8284,M,,*69"
226,0,0.000000,23.871692,"$GPGGA,171422.80,3721.9005597,N,07958.3651703,W,1,07,1.49,358.9671,M,-32.8284,M,,*65"
228,0,0.000000,23.970046,"$GPGGA,171422.90,3721.9005802,N,07958.3651591,W,1,07,1.49,358.9655,M,-32.8284,M,,*6A"
229,0,0.000000,24.120927,"$GPGGA,171423.00,3721.9005922,N,07958.3651621,W,1,07,1.49,358.9383,M,-32.8284,M,,*67"
230,0,0.000000,24.188752,"$GPGGA,171423.10,3721.9006097,N,07958.3651640,W,1,07,1.49,358.9064,M,-32.8284,M,,*6F"
231,0,0.000000,24.273860,"$GPGGA,171423.20,3721.9006270,N,07958.3651862,W,1,07,1.49,358.8474,M,-32.8284,M,,*6D"
232,0,0.000000,24.377078,"$GPGGA,171423.30,3721.9006262,N,07958.3652091,W,1,06,4.10,358.7251,M,-32.8284,M,,*6E"
234,0,0.000000,24.472210,"$GPGGA,171423.40,3721.9006482,N,07958.3652066,W,1,07,1.49,358.6612,M,-32.8284,M,,*63"
235,0,0.000000,24.573428,"$GPGGA,171423.50,3721.9006732,N,07958.3652006,W,2,04,4.51,358.6271,M,-32.8284,M,0.7,0000*48"
236,0,0.000000,24.674540,"$GPGGA,171423.60,3721.9007081,N,07958.3651968,W,2,04,4.51,358.6798,M,-32.8284,M,0.8,0000*4A"
237,0,0.000000,24.770441,"$GPGGA,171423.70,3721.9007602,N,07958.3651596,W,1,07,1.54,358.7224,M,-32.8284,M,,*6E"
238,0,0.000000,24.873285,"$GPGGA,171423.80,3721.9007815,N,07958.3651436,W,1,07,1.54,358.7083,M,-32.8284,M,,*6D"
239,0,0.000000,24.973318,"$GPGGA,171423.90,3721.9007777,N,07958.3651559,W,1,07,1.54,358.6912,M,-32.8284,M,,*6F"
239,0,0.000000,25.124125,"$GPGGA,171424.00,3721.9007738,N,07958.3651696,W,1,07,1.54,358.6706,M,-32.8284,M,,*61"
240,0,0.000000,25.191942,"$GPGGA,171424.10,3721.9007781,N,07958.3651713,W,1,07,1.54,358.6637,M,-32.8284,M,,*6D"
240,0,0.000000,25.273630,"$GPGGA,171424.20,3721.9007740,N,07958.3651731,W,2,04,1.91,358.6384,M,-32.8284,M,1.4,0000*4C"
240,0,0.000000,25.373607,"$GPGGA,171424.30,3721.9007741,N,07958.3651728,W,2,04,1.91,358.6183,M,-32.8284,M,0.3,0000*47"
240,0,0.000000,25.473927,"$GPGGA,171424.40,3721.9007731,N,07958.3651698,W,2,04,1.91,358.5993,M,-32.8284,M,0.4,0000*40"
241,0,0.000000,25.577034,"$GPGGA,171424.50,3721.9007710,N,07958.3651683,W,2,04,1.91,358.5770,M,-32.8284,M,0.5,0000*4A"
242,0,0.000000,25.677011,"$GPGGA,171424.60,3721.9007724,N,07958.3651641,W,2,04,1.91,358.5630,M,-32.8284,M,0.6,0000*46"
242,0,0.000000,25.778046,"$GPGGA,171424.70,3721.9007804,N,07958.3651579,W,2,04,1.91,358.5611,M,-32.8284,M,0.7,0000*40"
243,0,0.000000,25.875500,"$GPGGA,171424.80,3721.9007943,N,07958.3651543,W,2,04,1.91,358.5576,M,-32.8284,M,0.8,0000*49"
244,0,0.000000,25.974539,"$GPGGA,171424.90,3721.9008177,N,07958.3651479,W,2,04,1.91,358.5505,M,-32.8284,M,0.9,0000*45"
246,0,0.000000,26.100212,"$GPGGA,171425.00,3721.9008385,N,07958.3651448,W,2,04,1.91,358.5251,M,-32.8284,M,1.0,0000*4E"
247,0,0.000000,26.174030,"$GPGGA,171425.10,3721.9008928,N,07958.3651212,W,2,04,1.91,358.6109,M,-32.8284,M,1.1,0000*47"
249,0,0.000000,26.276637,"$GPGGA,171425.20,3721.9009372,N,07958.3651363,W,2,04,1.91,358.6502,M,-32.8284,M,1.2,0000*4B"
251,0,0.000000,26.375901,"$GPGGA,171425.30,3721.9009653,N,07958.3651477,W,2,04,1.91,358.6733,M,-32.8284,M,0.7,0000*4A"
253,0,0.000000,26.476677,"$GPGGA,171425.40,3721.9009953,N,07958.3651402,W,2,04,1.91,358.6752,M,-32.8284,M,0.8,0000*48"
254,0,0.000000,26.575384,"$GPGGA,171425.50,3721.9010271,N,07958.3651306,W,2,04,1.91,358.6734,M,-32.8284,M,0.9,0000*48"
255,0,0.000000,26.673422,"$GPGGA,171425.60,3721.9010537,N,07958.3651287,W,2,04,1.91,358.6624,M,-32.8284,M,1.0,0000*4E"
256,0,0.000000,26.772943,"$GPGGA,171425.70,3721.9010694,N,07958.3651175,W,2,04,1.91,358.6626,M,-32.8284,M,1.1,0000*48"
257,0,0.000000,26.874614,"$GPGGA,171425.80,3721.9010839,N,07958.3650973,W,2,04,1.91,358.6380,M,-32.8284,M,1.2,0000*4B"
258,0,0.000000,26.969241,"$GPGGA,171425.90,3721.9010945,N,07958.3650884,W,1,06,2.09,358.6320,M,-32.8284,M,,*6D"
260,0,0.000000,27.103527,"$GPGGA,171426.00,3721.9010934,N,07958.3650706,W,2,04,1.91,358.6221,M,-32.8284,M,1.4,0000*4C"
261,0,0.000000,27.177696,"$GPGGA,171426.10,3721.9011201,N,07958.3650501,W,2,04,1.91,358.6657,M,-32.8284,M,1.5,0000*40"
262,0,0.000000,27.276589,"$GPGGA,171426.20,3721.9011353,N,07958.3650296,W,2,04,1.91,358.6428,M,-32.8284,M,1.6,0000*45"
264,0,0.000000,27.374498,"$GPGGA,171426.30,3721.9010763,N,07958.3650758,W,2,04,1.91,358.4062,M,-32.8284,M,0.5,0000*4F"
265,0,0.000000,27.476044,"$GPGGA,171426.40,3721.9011109,N,07958.3650796,W,2,04,1.91,358.4256,M,-32.8284,M,0.6,0000*47"
266,0,0.000000,27.574203,"$GPGGA,171426.50,3721.9011415,N,07958.3650796,W,2,05,1.81,358.4221,M,-32.8284,M,0.7,0000*4F"
267,0,0.000000,27.676673,"$GPGGA,171426.60,3721.9011611,N,07958.3650728,W,2,05,1.81,358.4123,M,-32.8284,M,0.8,0000*41"
267,0,0.000000,27.777056,"$GPGGA,171426.70,3721.9011949,N,07958.3650636,W,2,05,1.81,358.4423,M,-32.8284,M,0.9,0000*48"
268,0,0.000000,27.877396,"$GPGGA,171426.80,3721.9012167,N,07958.3650618,W,2,05,1.81,358.4595,M,-32.8284,M,1.0,0000*48"
269,0,0.000000,27.976055,"$GPGGA,171426.90,3721.9012380,N,07958.3650621,W,2,05,1.81,358.4611,M,-32.8284,M,1.1,0000*46"
271,0,0.000000,28.101496,"$GPGGA,171427.00,3721.9012615,N,07958.3650665,W,2,05,1.81,358.4402,M,-32.8284,M,1.2,0000*44"
272,0,0.000000,28.174478,"$GPGGA,171427.10,3721.9012765,N,07958.3650357,W,2,05,1.81,358.4473,M,-32.8284,M,1.3,0000*40"
273,0,0.000000,28.274064,"$GPGGA,171427.20,3721.9012987,N,07958.3650235,W,2,05,1.81,358.4482,M,-32.8284,M,1.4,0000*4D"
274,0,0.000000,28.377820,"$GPGGA,171427.30,3721.9013478,N,07958.3650164,W,2,05,1.81,358.4632,M,-32.8284,M,0.3,0000*48"
275,0,0.000000,28.476732,"$GPGGA,171427.40,3721.9013747,N,07958.3650064,W,2,05,1.81,358.5190,M,-32.8284,M,0.4,0000*48"
276,0,0.000000,28.580514,"$GPGGA,171427.50,3721.9013969,N,07958.3649976,W,2,05,1.81,358.5095,M,-32.8284,M,0.5,0000*4C"
277,0,0.000000,28.677216,"$GPGGA,171427.60,3721.9014023,N,07958.3649882,W,2,05,1.81,358.4999,M,-32.8284,M,0.6,0000*42"
279,0,0.000000,28.779514,"$GPGGA,171427.70,3721.9014193,N,07958.3649719,W,2,05,1.81,358.4944,M,-32.8284,M,0.7,0000*45"
281,0,0.000000,28.875191,"$GPGGA,171427.80,3721.9014617,N,07958.3649593,W,2,05,1.81,358.4882,M,-32.8284,M,0.8,0000*45"
282,0,0.000000,28.973928,"$GPGGA,171427.90,3721.9014664,N,07958.3649570,W,2,05,1.81,358.4799,M,-32.8284,M,0.9,0000*49"
284,0,0.000000,29.107614,"$GPGGA,171428.00,3721.9014942,N,07958.3649601,W,2,05,1.81,358.5019,M,-32.8284,M,1.0,0000*47"
285,0,0.000000,29.182932,"$GPGGA,171428.10,3721.9015224,N,07958.3649122,W,2,05,1.81,358.5019,M,-32.8284,M,1.1,0000*4B"
286,0,0.000000,29.277796,"$GPGGA,171428.20,3721.9015440,N,07958.3649189,W,2,05,1.81,358.5057,M,-32.8284,M,1.2,0000*44"
287,0,0.000000,29.376637,"$GPGGA,171428.30,3721.9015555,N,07958.3649286,W,2,05,1.81,358.4911,M,-32.8284,M,0.7,0000*42"
288,0,0.000000,29.473966,"$GPGGA,171428.40,3721.9015816,N,07958.3649396,W,2,05,1.81,358.4712,M,-32.8284,M,0.8,0000*4D"
289,0,0.000000,29.574320,"$GPGGA,171428.50,3721.9016163,N,07958.3649359,W,2,05,1.81,358.4412,M,-32.8284,M,0.9,0000*45"
290,0,0.000000,29.674039,"$GPGGA,171428.60,3721.9016344,N,07958.3649167,W,2,05,1.81,358.4806,M,-32.8284,M,1.0,0000*4F"
292,0,0.000000,29.777544,"$GPGGA,171428.70,3721.9016325,N,07958.3648892,W,2,05,1.81,358.5003,M,-32.8284,M,1.1,0000*46"
293,0,0.000000,29.877770,"$GPGGA,171428.80,3721.9016466,N,07958.3648777,W,2,05,1.81,358.4906,M,-32.8284,M,1.2,0000*43"
294,0,0.000000,29.977447,"$GPGGA,171428.90,3721.9016682,N,07958.3649014,W,2,05,1.81,358.5649,M,-32.8284,M,1.3,0000*4D"
296,0,0.000000,30.104382,"$GPGGA,171429.00,3721.9016967,N,07958.3649110,W,2,05,1.81,358.5631,M,-32.8284,M,1.4,0000*4C"
296,0,0.000000,30.175877,"$GPGGA,171429.10,3721.9017160,N,07958.3648901,W,2,05,1.81,358.5489,M,-32.8284,M,1.5,0000*4A"
298,0,0.000000,30.274797,"$GPGGA,171429.20,3721.9017474,N,07958.3648776,W,2,05,1.81,358.5850,M,-32.8284,M,1.6,0000*4C"
299,0,0.000000,30.374672,"$GPGGA,171429.30,3721.9017934,N,07958.3648760,W,2,05,1.81,358.5001,M,-32.8284,M,0.5,0000*4D"
300,0,0.000000,30.476820,"$GPGGA,171429.40,3721.9018150,N,07958.3648660,W,2,05,1.81,358.5011,M,-32.8284,M,0.6,0000*4C"
301,0,0.000000,30.578476,"$GPGGA,171429.50,3721.9018431,N,07958.3648629,W,2,05,1.81,358.5194,M,-32.8284,M,0.7,0000*4F"
302,0,0.000000,30.677479,"$GPGGA,171429.60,3721.9018709,N,07958.3648602,W,2,05,1.81,358.4953,M,-32.8284,M,0.8,0000*40"
303,0,0.000000,30.776897,"$GPGGA,171429.70,3721.9019027,N,07958.3648531,W,2,05,1.81,358.4529,M,-32.8284,M,0.9,0000*48"
304,0,0.000000,30.874612,"$GPGGA,171429.80,3721.9019250,N,07958.3648539,W,2,05,1.81,358.4553,M,-32.8284,M,1.0,0000*48"
306,0,0.000000,30.973549,"$GPGGA,171429.90,3721.9019398,N,07958.3648603,W,2,05,1.81,358.4660,M,-32.8284,M,1.1,0000*44"
307,0,0.000000,31.101417,"$GPGGA,171430.00,3721.9019534,N,07958.3648706,W,2,05,1.81,358.4814,M,-32.8284,M,1.2,0000*4F"
307,0,0.000000,31.173810,"$GPGGA,171430.10,3721.9019719,N,07958.3648562,W,2,05,1.81,358.4991,M,-32.8284,M,1.3,0000*4E"
309,0,0.000000,31.277641,"$GPGGA,171430.20,3721.9019905,N,07958.3648749,W,2,05,1.81,358.4734,M,-32.8284,M,1.4,0000*43"
310,0,0.000000,31.377448,"$GPGGA,171430.30,3721.9020108,N,07958.3648562,W,2,05,1.81,358.4686,M,-32.8284,M,0.3,0000*48"
311,0,0.000000,31.476912,"$GPGGA,171430.40,3721.9020268,N,07958.3648388,W,2,05,1.81,358.4659,M,-32.8284,M,0.4,0000*4D"
312,0,0.000000,31.575130,"$GPGGA,171430.50,3721.9020499,N,07958.3648210,W,2,05,1.81,358.4776,M,-32.8284,M,0.5,0000*49"
314,0,0.000000,31.674580,"$GPGGA,171430.60,3721.9020700,N,07958.3648232,W,2,05,1.81,358.4748,M,-32.8284,M,0.6,0000*47"
315,0,0.000000,31.774360,"$GPGGA,171430.70,3721.9020915,N,07958.3648321,W,2,05,1.81,358.4634,M,-32.8284,M,0.7,0000*44"
316,0,0.000000,31.873840,"$GPGGA,171430.80,3721.9021276,N,07958.3648394,W,2,05,1.81,358.4752,M,-32.8284,M,0.8,0000*44"
317,0,0.000000,31.977613,"$GPGGA,171430.90,3721.9021534,N,07958.3648340,W,2,05,1.81,358.4751,M,-32.8284,M,0.9,0000*4F"
319,0,0.000000,32.104730,"$GPGGA,171431.00,3721.9021820,N,07958.3648081,W,2,05,1.81,358.5147,M,-32.8284,M,1.0,0000*49"
319,0,0.000000,32.177183,"$GPGGA,171431.10,3721.9022057,N,07958.3647820,W,2,05,1.81,358.4767,M,-32.8284,M,1.1,0000*4B"
321,0,0.000000,32.275067,"$GPGGA,171431.20,3721.9022355,N,07958.3647802,W,2,05,1.81,358.4700,M,-32.8284,M,1.2,0000*4B"
322,0,0.000000,32.374004,"$GPGGA,171431.30,3721.9022602,N,07958.3647703,W,2,05,1.81,358.4759,M,-32.8284,M,1.3,0000*4E"
323,0,0.000000,32.473830,"$GPGGA,171431.40,3721.9022841,N,07958.3647631,W,2,05,1.81,358.5011,M,-32.8284,M,0.8,0000*40"
324,0,0.000000,32.587302,"$GPGGA,171431.50,3721.9023124,N,07958.3647710,W,2,05,1.81,358.5216,M,-32.8284,M,0.9,0000*4C"
325,0,0.000000,32.677663,"$GPGGA,171431.60,3721.9023425,N,07958.3647780,W,2,05,1.81,358.5425,M,-32.8284,M,1.0,0000*4C"
327,0,0.000000,32.777608,"$GPGGA,171431.70,3721.9023764,N,07958.3647748,W,2,05,1.81,358.5540,M,-32.8284,M,1.1,0000*4C"
328,0,0.000000,32.877353,"$GPGGA,171431.80,3721.9024058,N,07958.3647682,W,2,05,1.81,358.5475,M,-32.8284,M,1.2,0000*4F"
329,0,0.000000,32.973629,"$GPGGA,171431.90,3721.9024458,N,07958.3647637,W,2,04,7.75,358.5300,M,-32.8284,M,1.3,0000*4C"
331,0,0.000000,33.101618,"$GPGGA,171432.00,3721.9024805,N,07958.3647514,W,2,05,1.81,358.5307,M,-32.8284,M,1.4,0000*4C"
332,0,0.000000,33.174057,"$GPGGA,171432.10,3721.9025008,N,07958.3647342,W,2,04,2.10,358.5355,M,-32.8284,M,1.5,0000*40"
332,0,0.000000,33.273976,"$GPGGA,171432.20,3721.9024581,N,07958.3646823,W,2,05,1.81,358.3856,M,-32.8284,M,1.6,0000*4C"
333,0,0.000000,33.377498,"$GPGGA,171432.30,3721.9024829,N,07958.3646875,W,2,05,1.81,358.4178,M,-32.8284,M,0.5,0000*41"
334,0,0.000000,33.477417,"$GPGGA,171432.40,3721.9025514,N,07958.3647283,W,2,04,2.10,358.6302,M,-32.8284,M,0.6,0000*42"
336,0,0.000000,33.577467,"$GPGGA,171432.50,3721.9025710,N,07958.3647411,W,2,05,1.81,358.6089,M,-32.8284,M,0.7,0000*43"
338,0,0.000000,33.674912,"$GPGGA,171432.60,3721.9026189,N,07958.3647750,W,2,05,1.81,358.6659,M,-32.8284,M,0.8,0000*47"
339,0,0.000000,33.773828,"$GPGGA,171432.70,3721.9026937,N,07958.3647929,W,2,05,1.81,358.7768,M,-32.8284,M,0.9,0000*48"
340,0,0.000000,33.874078,"$GPGGA,171432.80,3721.9026498,N,07958.3647078,W,2,05,1.81,358.7358,M,-32.8284,M,1.0,0000*4D"
341,0,0.000000,33.977617,"$GPGGA,171432.90,3721.9026717,N,07958.3647038,W,2,05,1.81,358.7124,M,-32.8284,M,1.1,0000*44"
342,0,0.000000,34.104978,"$GPGGA,171433.00,3721.9026856,N,07958.3646997,W,2,05,1.81,358.6942,M,-32.8284,M,1.2,0000*41"
343,0,0.000000,34.177715,"$GPGGA,171433.10,3721.9027113,N,07958.3646906,W,2,05,1.81,358.6562,M,-32.8284,M,1.3,0000*4E"
344,0,0.000000,34.277351,"$GPGGA,171433.20,3721.9027404,N,07958.3647036,W,2,05,1.81,358.6255,M,-32.8284,M,1.4,0000*41"
346,0,0.000000,34.379347,"$GPGGA,171433.30,3721.9027585,N,07958.3647015,W,2,05,1.81,358.5797,M,-32.8284,M,0.3,0000*47"
347,0,0.000000,34.474902,"$GPGGA,171433.40,3721.9027796,N,07958.3647478,W,2,05,1.81,358.4176,M,-32.8284,M,0.4,0000*40"
348,0,0.000000,34.574028,"$GPGGA,171433.50,3721.9028042,N,07958.3646878,W,2,05,1.81,358.6412,M,-32.8284,M,0.5,0000*49"
348,0,0.000000,34.674077,"$GPGGA,171433.60,3721.9028346,N,07958.3647062,W,2,05,1.81,358.5996,M,-32.8284,M,0.6,0000*4E"
349,0,0.000000,34.777403,"$GPGGA,171433.70,3721.9028639,N,07958.3648010,W,2,05,1.81,358.3562,M,-32.8284,M,0.7,0000*48"
350,0,0.000000,34.877567,"$GPGGA,171433.80,3721.9028767,N,07958.3647354,W,2,05,1.81,358.5859,M,-32.8284,M,0.8,0000*4D"
351,0,0.000000,34.977592,"$GPGGA,171433.90,3721.9028951,N,07958.3647334,W,2,05,1.81,358.5903,M,-32.8284,M,0.9,0000*4E"
352,0,0.000000,35.102544,"$GPGGA,171434.00,3721.9029103,N,07958.3647309,W,2,05,1.81,358.5909,M,-32.8284,M,1.0,0000*42"
353,0,0.000000,35.174528,"$GPGGA,171434.10,3721.9029123,N,07958.3647570,W,2,05,1.81,358.5035,M,-32.8284,M,1.1,0000*4E"
354,0,0.000000,35.274045,"$GPGGA,171434.20,3721.9029438,N,07958.3647284,W,2,05,1.81,358.5719,M,-32.8284,M,1.2,0000*44"
355,0,0.000000,35.378642,"$GPGGA,171434.30,3721.9029690,N,07958.3647363,W,2,05,1.81,358.5697,M,-32.8284,M,0.7,0000*4E"
355,0,0.000000,35.477654,"$GPGGA,171434.40,3721.9029908,N,07958.3647429,W,2,05,1.81,358.5688,M,-32.8284,M,0.8,0000*4F"
356,0,0.000000,35.577436,"$GPGGA,171434.50,3721.9030138,N,07958.3647391,W,2,05,1.81,358.5458,M,-32.8284,M,0.9,0000*47"
356,0,0.000000,35.678858,"$GPGGA,171434.60,3721.9030351,N,07958.3647406,W,2,05,1.81,358.5433,M,-32.8284,M,1.0,0000*45"
358,0,0.000000,35.776018,"$GPGGA,171434.70,3721.9030512,N,07958.3647449,W,2,05,1.81,358.5561,M,-32.8284,M,1.1,0000*49"
358,0,0.000000,35.874082,"$GPGGA,171434.80,3721.9030621,N,07958.3647533,W,2,05,1.81,358.5762,M,-32.8284,M,1.2,0000*4B"
359,0,0.000000,35.974071,"$GPGGA,171434.90,3721.9030718,N,07958.3647613,W,2,05,1.81,358.5922,M,-32.8284,M,1.3,0000*4B"
360,0,0.000000,36.101401,"$GPGGA,171435.00,3721.9030851,N,07958.3647739,W,2,05,1.81,358.5884,M,-32.8284,M,1.4,0000*42"
360,0,0.000000,36.177861,"$GPGGA,171435.10,3721.9030990,N,07958.3647744,W,2,05,1.81,358.5703,M,-32.8284,M,1.5,0000*44"
361,0,0.000000,36.277940,"$GPGGA,171435.20,3721.9031247,N,07958.3647836,W,2,05,1.81,358.5610,M,-32.8284,M,1.6,0000*4D"
362,0,0.000000,36.378017,"$GPGGA,171435.30,3721.9031428,N,07958.3647895,W,2,05,1.81,358.5509,M,-32.8284,M,0.5,0000*43"
363,0,0.000000,36.475810,"$GPGGA,171435.40,3721.9031570,N,07958.3647953,W,2,05,1.81,358.5575,M,-32.8284,M,0.6,0000*4B"
364,0,0.000000,36.574295,"$GPGGA,171435.50,3721.9031742,N,07958.3648042,W,2,05,1.81,358.5713,M,-32.8284,M,0.7,0000*4C"
366,0,0.000000,36.673876,"$GPGGA,171435.60,3721.9031958,N,07958.3648112,W,2,05,1.81,358.5784,M,-32.8284,M,0.8,0000*4F"
367,0,0.000000,36.774225,"$GPGGA,171435.70,3721.9032217,N,07958.3648314,W,2,05,1.81,358.5547,M,-32.8284,M,0.9,0000*45"
369,0,0.000000,36.877788,"$GPGGA,171435.80,3721.9032480,N,07958.3648646,W,2,05,1.81,358.5699,M,-32.8284,M,1.0,0000*48"
370,0,0.000000,36.977553,"$GPGGA,171435.90,3721.9032715,N,07958.3648862,W,2,05,1.81,358.5763,M,-32.8284,M,1.1,0000*4B"
373,0,0.000000,37.105927,"$GPGGA,171436.00,3721.9032961,N,07958.3648942,W,2,05,1.81,358.5990,M,-32.8284,M,1.2,0000*4E"
374,0,0.000000,37.177377,"$GPGGA,171436.10,3721.9033033,N,07958.3648670,W,2,05,1.81,358.6018,M,-32.8284,M,1.3,0000*45"
375,0,0.000000,37.274161,"$GPGGA,171436.20,3721.9033227,N,07958.3648593,W,2,04,2.10,358.6045,M,-32.8284,M,1.4,0000*4A"
376,0,0.000000,37.374966,"$GPGGA,171436.30,3721.9034159,N,07958.3649072,W,2,05,1.81,357.7611,M,-32.8284,M,0.3,0000*48"
378,0,0.000000,37.474281,"$GPGGA,171436.40,3721.9034785,N,07958.3649352,W,2,05,1.81,357.3713,M,-32.8284,M,0.4,0000*49"
379,0,0.000000,37.578032,"$GPGGA,171436.50,3721.9035121,N,07958.3649402,W,2,04,7.75,357.3460,M,-32.8284,M,0.5,0000*49"
380,0,0.000000,37.677759,"$GPGGA,171436.60,3721.9035380,N,07958.3649370,W,2,04,7.75,357.3599,M,-32.8284,M,0.6,0000*45"
381,0,0.000000,37.778086,"$GPGGA,171436.70,3721.9035651,N,07958.3649471,W,2,05,1.81,357.4397,M,-32.8284,M,0.7,0000*49"
382,0,0.000000,37.875823,"$GPGGA,171436.80,3721.9035861,N,07958.3649697,W,2,05,1.81,357.4781,M,-32.8284,M,0.8,0000*4D"
383,0,0.000000,37.975247,"$GPGGA,171436.90,3721.9036355,N,07958.3649596,W,2,05,1.81,357.7067,M,-32.8284,M,0.9,0000*4C"
385,0,0.000000,38.102553,"$GPGGA,171437.00,3721.9037023,N,07958.3649380,W,2,05,1.81,357.9441,M,-32.8284,M,1.0,0000*40"
385,0,0.000000,38.173958,"$GPGGA,171437.10,3721.9037378,N,07958.3649348,W,2,05,1.81,357.9466,M,-32.8284,M,1.1,0000*4C"
386,0,0.000000,38.277203,"$GPGGA,171437.20,3721.9037711,N,07958.3649409,W,2,05,1.81,357.9388,M,-32.8284,M,1.2,0000*42"
387,0,0.000000,38.377549,"$GPGGA,171437.30,3721.9037948,N,07958.3649485,W,2,05,1.81,357.9086,M,-32.8284,M,0.7,0000*4C"
388,0,0.000000,38.478609,"$GPGGA,171437.40,3721.9038722,N,07958.3650081,W,2,05,1.81,358.0379,M,-32.8284,M,0.8,0000*44"
389,0,0.000000,38.578254,"$GPGGA,171437.50,3721.9038252,N,07958.3649592,W,2,05,1.81,357.8351,M,-32.8284,M,0.9,0000*44"
390,0,0.000000,38.673835,"$GPGGA,171437.60,3721.9038403,N,07958.3649564,W,2,05,1.81,357.8123,M,-32.8284,M,1.0,0000*43"
391,0,0.000000,38.773593,"$GPGGA,171437.70,3721.9038551,N,07958.3649625,W,2,05,1.81,357.7826,M,-32.8284,M,1.1,0000*40"
392,0,0.000000,38.873711,"$GPGGA,171437.80,3721.9038673,N,07958.3649681,W,2,05,1.81,357.7633,M,-32.8284,M,1.2,0000*4B"
392,0,0.000000,38.977409,"$GPGGA,171437.90,3721.9038815,N,07958.3649702,W,2,05,1.81,357.7778,M,-32.8284,M,1.3,0000*41"
393,0,0.000000,39.104692,"$GPGGA,171438.00,3721.9038953,N,07958.3649714,W,2,05,1.81,357.7914,M,-32.8284,M,1.4,0000*40"
393,0,0.000000,39.177134,"$GPGGA,171438.10,3721.9039062,N,07958.3649622,W,2,05,1.81,357.7901,M,-32.8284,M,1.5,0000*4A"
394,0,0.000000,39.275978,"$GPGGA,171438.20,3721.9039165,N,07958.3649554,W,2,05,1.81,357.7807,M,-32.8284,M,1.6,0000*49"
395,0,0.000000,39.373752,"$GPGGA,171438.30,3721.9039288,N,07958.3649502,W,2,05,1.81,357.7594,M,-32.8284,M,0.5,0000*4E"
395,0,0.000000,39.473555,"$GPGGA,171438.40,3721.9039447,N,07958.3649536,W,2,05,1.81,357.7693,M,-32.8284,M,0.6,0000*4C"
396,0,0.000000,39.574539,"$GPGGA,171438.50,3721.9039562,N,07958.3649650,W,2,05,1.81,357.8114,M,-32.8284,M,0.7,0000*4E"
397,0,0.000000,39.676749,"$GPGGA,171438.60,3721.9039661,N,07958.3649709,W,2,05,1.81,357.8569,M,-32.8284,M,0.8,0000*41"
398,0,0.000000,39.777430,"$GPGGA,171438.70,3721.9039766,N,07958.3649698,W,2,05,1.81,357.8677,M,-32.8284,M,0.9,0000*42"
399,0,0.000000,39.881311,"$GPGGA,171438.80,3721.9039939,N,07958.3649651,W,2,05,1.81,357.8768,M,-32.8284,M,1.0,0000*4B"
400,0,0.000000,39.975755,"$GPGGA,171438.90,3721.9040261,N,07958.3649624,W,2,05,1.81,357.8475,M,-32.8284,M,1.1,0000*4E"
401,0,0.000000,40.100832,"$GPGGA,171439.00,3721.9040704,N,07958.3649535,W,2,05,1.81,357.8179,M,-32.8284,M,1.2,0000*49"
402,0,0.000000,40.173387,"$GPGGA,171439.10,3721.9041081,N,07958.3649482,W,2,05,1.81,357.8014,M,-32.8284,M,1.3,0000*45"
404,0,0.000000,40.274139,"$GPGGA,171439.20,3721.9041414,N,07958.3649496,W,2,05,1.81,357.7942,M,-32.8284,M,1.4,0000*49"
405,0,0.000000,40.376535,"$GPGGA,171439.30,3721.9041731,N,07958.3649388,W,2,05,1.81,357.7842,M,-32.8284,M,1.5,0000*44"
406,0,0.000000,40.477299,"$GPGGA,171439.40,3721.9042027,N,07958.3649139,W,2,05,1.81,357.8035,M,-32.8284,M,0.4,0000*4F"
407,0,0.000000,40.577038,"$GPGGA,171439.50,3721.9042304,N,07958.3648907,W,2,05,1.81,357.8073,M,-32.8284,M,0.5,0000*4B"
408,0,0.000000,40.675510,"$GPGGA,171439.60,3721.9042533,N,07958.3648652,W,2,05,1.81,357.8186,M,-32.8284,M,0.6,0000*4D"
409,0,0.000000,40.774806,"$GPGGA,171439.70,3721.9042762,N,07958.3648465,W,2,05,1.81,357.8171,M,-32.8284,M,0.7,0000*45"
409,0,0.000000,40.874048,"$GPGGA,171439.80,3721.9042963,N,07958.3648409,W,2,05,1.81,357.8213,M,-32.8284,M,0.8,0000*47"
410,0,0.000000,40.974257,"$GPGGA,171439.90,3721.9043115,N,07958.3648379,W,2,05,1.81,357.8304,M,-32.8284,M,0.9,0000*48"
411,0,0.000000,41.104188,"$GPGGA,171440.00,3721.9043191,N,07958.3648330,W,2,05,1.81,357.8464,M,-32.8284,M,1.0,0000*47"
412,0,0.000000,41.178112,"$GPGGA,171440.10,3721.9043273,N,07958.3648294,W,2,05,1.81,357.8277,M,-32.8284,M,1.1,0000*43"
413,0,0.000000,41.278053,"$GPGGA,171440.20,3721.9043389,N,07958.3648244,W,2,05,1.81,357.7445,M,-32.8284,M,1.2,0000*42"
414,0,0.000000,41.376544,"$GPGGA,171440.30,3721.9043531,N,07958.3648168,W,2,05,1.81,357.6057,M,-32.8284,M,0.7,0000*49"
415,0,0.000000,41.474291,"$GPGGA,171440.40,3721.9043861,N,07958.3648016,W,2,05,1.81,357.6172,M,-32.8284,M,0.8,0000*47"
417,0,0.000000,41.573689,"$GPGGA,171440.50,3721.9044244,N,07958.3648032,W,2,05,1.81,357.6628,M,-32.8284,M,0.9,0000*43"
418,0,0.000000,41.673525,"$GPGGA,171440.60,3721.9044441,N,07958.3648599,W,2,05,1.81,357.5703,M,-32.8284,M,1.0,0000*44"
420,0,0.000000,41.777362,"$GPGGA,171440.70,3721.9044836,N,07958.3648790,W,2,05,1.81,357.7215,M,-32.8284,M,1.1,0000*43"
421,0,0.000000,41.877295,"$GPGGA,171440.80,3721.9045192,N,07958.3648851,W,2,05,1.81,357.7543,M,-32.8284,M,1.2,0000*4F"
422,0,0.000000,41.977631,"$GPGGA,171440.90,3721.9045434,N,07958.3648917,W,2,05,1.81,357.6622,M,-32.8284,M,1.3,0000*40"
423,0,0.000000,42.103370,"$GPGGA,171441.00,3721.9045711,N,07958.3648703,W,2,05,1.81,357.6809,M,-32.8284,M,1.4,0000*47"
425,0,0.000000,42.174795,"$GPGGA,171441.10,3721.9045858,N,07958.3648522,W,2,05,1.81,357.7082,M,-32.8284,M,1.5,0000*4E"
426,0,0.000000,42.274382,"$GPGGA,171441.20,3721.9046016,N,07958.3648298,W,2,05,1.81,357.6703,M,-32.8284,M,1.6,0000*46"
427,0,0.000000,42.374448,"$GPGGA,171441.30,3721.9046258,N,07958.3648320,W,2,05,1.81,357.6379,M,-32.8284,M,0.5,0000*46"
428,0,0.000000,42.478291,"$GPGGA,171441.40,3721.9046542,N,07958.3648376,W,2,05,1.81,357.6279,M,-32.8284,M,0.6,0000*4C"
429,0,0.000000,42.577036,"$GPGGA,171441.50,3721.9046680,N,07958.3648074,W,2,05,1.81,357.6593,M,-32.8284,M,0.7,0000*43"
431,0,0.000000,42.676512,"$GPGGA,171441.60,3721.9047022,N,07958.3648171,W,2,05,1.81,357.7115,M,-32.8284,M,0.8,0000*4F"
433,0,0.000000,42.776200,"$GPGGA,171441.70,3721.9047407,N,07958.3648244,W,2,05,1.81,357.6776,M,-32.8284,M,0.9,0000*4B"
435,0,0.000000,42.873995,"$GPGGA,171441.80,3721.9047575,N,07958.3647718,W,2,05,1.81,357.7049,M,-32.8284,M,1.0,0000*41"
436,0,0.000000,42.974233,"$GPGGA,171441.90,3721.9047922,N,07958.3647496,W,2,05,1.81,357.7864,M,-32.8284,M,1.1,0000*4D"
439,0,0.000000,43.101380,"$GPGGA,171442.00,3721.9048494,N,07958.3647893,W,2,05,1.81,357.8411,M,-32.8284,M,1.2,0000*43"
440,0,0.000000,43.186116,"$GPGGA,171442.10,3721.9048775,N,07958.3648217,W,2,04,2.09,357.7636,M,-32.8284,M,1.3,0000*4C"
442,0,0.000000,43.277014,"$GPGGA,171442.20,3721.9049080,N,07958.3647866,W,2,04,2.09,357.8474,M,-32.8284,M,1.4,0000*4C"
443,0,0.000000,43.377728,"$GPGGA,171442.30,3721.9049442,N,07958.3647721,W,2,04,2.09,357.8421,M,-32.8284,M,0.3,0000*4D"
445,0,0.000000,43.480012,"$GPGGA,171442.40,3721.9049781,N,07958.3647491,W,2,04,2.09,357.7786,M,-32.8284,M,0.4,0000*48"
446,0,0.000000,43.574413,"$GPGGA,171442.50,3721.9050145,N,07958.3647249,W,2,04,2.09,357.7492,M,-32.8284,M,0.5,0000*4B"
448,0,0.000000,43.674580,"$GPGGA,171442.60,3721.9050475,N,07958.3647018,W,2,04,2.09,357.7391,M,-32.8284,M,0.6,0000*4F"
450,0,0.000000,43.774167,"$GPGGA,171442.70,3721.9050810,N,07958.3646866,W,2,04,2.09,357.7060,M,-32.8284,M,0.7,0000*4D"
452,0,0.000000,43.877322,"$GPGGA,171442.80,3721.9051042,N,07958.3646893,W,2,04,2.09,357.6823,M,-32.8284,M,0.8,0000*47"
453,0,0.000000,43.976348,"$GPGGA,171442.90,3721.9051370,N,07958.3646865,W,2,04,2.09,357.6911,M,-32.8284,M,0.9,0000*4C"
455,0,0.000000,44.103908,"$GPGGA,171443.00,3721.9051798,N,07958.3646481,W,2,04,2.09,357.5691,M,-32.8284,M,1.0,0000*4C"
455,0,0.000000,44.181554,"$GPGGA,171443.10,3721.9051840,N,07958.3645561,W,2,04,2.09,357.7638,M,-32.8284,M,1.1,0000*4B"
456,0,0.000000,44.274533,"$GPGGA,171443.20,3721.9052051,N,07958.3645271,W,2,04,2.09,357.7662,M,-32.8284,M,1.2,0000*49"
458,0,0.000000,44.373880,"$GPGGA,171443.30,3721.9052320,N,07958.3644998,W,2,04,2.09,357.7934,M,-32.8284,M,0.7,0000*48"
459,0,0.000000,44.473505,"$GPGGA,171443.40,3721.9052572,N,07958.3644928,W,2,04,2.09,357.8219,M,-32.8284,M,0.8,0000*41"
460,0,0.000000,44.577246,"$GPGGA,171443.50,3721.9052750,N,07958.3645079,W,2,04,2.09,357.7766,M,-32.8284,M,0.9,0000*4D"
461,0,0.000000,44.677588,"$GPGGA,171443.60,3721.9053013,N,07958.3645217,W,2,04,2.09,357.6916,M,-32.8284,M,1.0,0000*45"
463,0,0.000000,44.777286,"$GPGGA,171443.70,3721.9053203,N,07958.3645144,W,2,04,2.09,357.6249,M,-32.8284,M,1.1,0000*42"
464,0,0.000000,44.876750,"$GPGGA,171443.80,3721.9053402,N,07958.3645057,W,2,04,2.09,357.6263,M,-32.8284,M,1.2,0000*42"
465,0,0.000000,44.974384,"$GPGGA,171443.90,3721.9053656,N,07958.3644800,W,2,04,2.09,357.7143,M,-32.8284,M,1.3,0000*4A"
466,0,0.000000,45.100429,"$GPGGA,171444.00,3721.9053923,N,07958.3644720,W,2,04,2.09,357.7629,M,-32.8284,M,1.4,0000*48"
466,0,0.000000,45.173681,"$GPGGA,171444.10,3721.9054129,N,07958.3644681,W,2,04,2.09,357.7635,M,-32.8284,M,1.5,0000*4A"
466,0,0.000000,45.276580,"$GPGGA,171444.20,3721.9054353,N,07958.3644659,W,2,04,2.09,357.7545,M,-32.8284,M,1.6,0000*44"
466,0,0.000000,45.376734,"$GPGGA,171444.30,3721.9054491,N,07958.3644603,W,2,04,2.09,357.7496,M,-32.8284,M,0.5,0000*4E"
466,0,0.000000,45.476472,"$GPGGA,171444.40,3721.9054505,N,07958.3644587,W,2,04,2.09,357.7454,M,-32.8284,M,0.6,0000*47"
466,0,0.000000,45.576222,"$GPGGA,171444.50,3721.9054439,N,07958.3644607,W,2,04,2.09,357.7488,M,-32.8284,M,0.7,0000*43"
466,0,0.000000,45.674316,"$GPGGA,171444.60,3721.9054350,N,07958.3644609,W,2,04,2.09,357.7519,M,-32.8284,M,0.8,0000*40"
466,0,0.000000,45.773150,"$GPGGA,171444.70,3721.9054273,N,07958.3644734,W,2,04,2.09,357.6464,M,-32.8284,M,0.9,0000*45"
466,0,0.000000,45.873680,"$GPGGA,171444.80,3721.9054270,N,07958.3644720,W,2,04,2.09,357.6482,M,-32.8284,M,1.0,0000*4C"
466,0,0.000000,45.977081,"$GPGGA,171444.90,3721.9054252,N,07958.3644704,W,2,04,2.09,357.6676,M,-32.8284,M,1.1,0000*43"
