;GPS@@@
;Ver=1.1.0
;DIP=2009-00152-00
;Date=2026-Jan-12 13:05:02
;----------------------------------------------------------------------------------------------------------------------------------------------------------------------------------------
traces,odo_tick,pos(m),time_elapsed(s),GPS
2,0,0.000000,2.517049,"$GPGGA,184507.80,3721.9964172,N,07958.3344032,W,1,08,1.41,361.8275,M,-32.8286,M,,*62"
2,0,0.000000,2.614738,"$GPGGA,184507.90,3721.9964237,N,07958.3343974,W,1,08,1.41,361.8278,M,-32.8286,M,,*60"
3,0,0.000000,2.765150,"$GPGGA,184508.00,3721.9964276,N,07958.3343897,W,1,08,1.41,361.8245,M,-32.8286,M,,*61"
3,0,0.000000,2.832939,"$GPGGA,184508.10,3721.9964342,N,07958.3343846,W,1,08,1.41,361.8290,M,-32.8286,M,,*62"
3,0,0.000000,2.912402,"$GPGGA,184508.20,3721.9964430,N,07958.3343756,W,1,08,1.41,361.8248,M,-32.8286,M,,*68"
4,0,0.000000,3.019328,"$GPGGA,184508.30,3721.9964492,N,07958.3343685,W,1,08,1.41,361.8306,M,-32.8286,M,,*65"
4,0,0.000000,3.116264,"$GPGGA,184508.40,3721.9964629,N,07958.3343565,W,1,08,1.41,361.8610,M,-32.8286,M,,*6F"
5,0,0.000000,3.216280,"$GPGGA,184508.50,3721.9964685,N,07958.3343478,W,1,08,1.41,361.8885,M,-32.8286,M,,*67"
6,0,0.000000,3.313997,"$GPGGA,184508.60,3721.9964740,N,07958.3343484,W,1,08,1.41,361.9095,M,-32.8286,M,,*67"
7,0,0.000000,3.412385,"$GPGGA,184508.70,3721.9964809,N,07958.3343467,W,1,08,1.41,361.9219,M,-32.8286,M,,*6F"
7,0,0.000000,3.512683,"$GPGGA,184508.80,3721.9964936,N,07958.3343377,W,1,08,1.41,361.9332,M,-32.8286,M,,*63"
8,0,0.000000,3.612451,"$GPGGA,184508.90,3721.9965144,N,07958.3343173,W,1,08,1.41,361.9451,M,-32.8286,M,,*6A"
10,0,0.000000,3.769528,"$GPGGA,184509.00,3721.9965450,N,07958.3342839,W,1,09,1.10,361.9483,M,-32.8286,M,,*6E"
11,0,0.000000,3.837293,"$GPGGA,184509.10,3721.9965779,N,07958.3342513,W,1,09,1.10,361.9583,M,-32.8286,M,,*63"
12,0,0.000000,3.915505,"$GPGGA,184509.20,3721.9965894,N,07958.3342330,W,1,09,1.10,361.9655,M,-32.8286,M,,*63"
13,0,0.000000,4.014760,"$GPGGA,184509.30,3721.9965943,N,07958.3342123,W,1,09,1.10,362.0108,M,-32.8286,M,,*6C"
14,0,0.000000,4.112323,"$GPGGA,184509.40,3721.9966096,N,07958.3341924,W,1,09,1.10,362.0537,M,-32.8286,M,,*6D"
15,0,0.000000,4.212414,"$GPGGA,184509.50,3721.9966396,N,07958.3341752,W,1,09,1.10,362.0855,M,-32.8286,M,,*69"
17,0,0.000000,4.312931,"$GPGGA,184509.60,3721.9966649,N,07958.3341645,W,1,09,1.10,362.1287,M,-32.8286,M,,*6E"
18,0,0.000000,4.415716,"$GPGGA,184509.70,3721.9966780,N,07958.3341587,W,1,09,1.10,362.1624,M,-32.8286,M,,*6B"
19,0,0.000000,4.516533,"$GPGGA,184509.80,3721.9966870,N,07958.3341535,W,1,09,1.10,362.1892,M,-32.8286,M,,*6E"
20,0,0.000000,4.616244,"$GPGGA,184509.90,3721.9966955,N,07958.3341401,W,1,09,1.10,362.2339,M,-32.8286,M,,*66"
21,0,0.000000,4.770152,"$GPGGA,184510.00,3721.9967116,N,07958.3341302,W,1,09,1.10,362.2561,M,-32.8286,M,,*66"
22,0,0.000000,4.836224,"$GPGGA,184510.10,3721.9967456,N,07958.3341226,W,1,08,1.41,362.2516,M,-32.8286,M,,*64"
22,0,0.000000,4.913070,"$GPGGA,184510.20,3721.9967677,N,07958.3341195,W,1,09,1.10,362.2352,M,-32.8286,M,,*6E"
23,0,0.000000,5.013303,"$GPGGA,184510.30,3721.9967866,N,07958.3341066,W,1,08,1.41,362.2183,M,-32.8286,M,,*67"
24,0,0.000000,5.115041,"$GPGGA,184510.40,3721.9967945,N,07958.3340926,W,1,08,1.41,362.2368,M,-32.8286,M,,*6B"
25,0,0.000000,5.217036,"$GPGGA,184510.50,3721.9968035,N,07958.3340855,W,1,08,1.41,362.2598,M,-32.8286,M,,*67"
25,0,0.000000,5.316710,"$GPGGA,184510.60,3721.9968152,N,07958.3340851,W,1,08,1.41,362.2556,M,-32.8286,M,,*62"
26,0,0.000000,5.414611,"$GPGGA,184510.70,3721.9968267,N,07958.3340724,W,1,08,1.41,362.2697,M,-32.8286,M,,*65"
27,0,0.000000,5.512722,"$GPGGA,184510.80,3721.9968402,N,07958.3340562,W,1,08,1.41,362.2710,M,-32.8286,M,,*61"
28,0,0.000000,5.612209,"$GPGGA,184510.90,3721.9968437,N,07958.3340468,W,1,08,1.41,362.3164,M,-32.8286,M,,*69"
29,0,0.000000,5.764920,"$GPGGA,184511.00,3721.9968623,N,07958.3340303,W,1,08,1.41,362.3218,M,-32.8286,M,,*64"
30,0,0.000000,5.832733,"$GPGGA,184511.10,3721.9968892,N,07958.3340159,W,1,08,1.41,362.3014,M,-32.8286,M,,*62"
31,0,0.000000,5.915941,"$GPGGA,184511.20,3721.9969163,N,07958.3340064,W,1,08,1.41,362.2876,M,-32.8286,M,,*65"
32,0,0.000000,6.014967,"$GPGGA,184511.30,3721.9969312,N,07958.3339992,W,1,08,1.41,362.2885,M,-32.8286,M,,*62"
33,0,0.000000,6.115097,"$GPGGA,184511.40,3721.9969701,N,07958.3339766,W,1,08,1.41,362.2591,M,-32.8286,M,,*6E"
35,0,0.000000,6.213516,"$GPGGA,184511.50,3721.9970000,N,07958.3339784,W,1,08,1.41,362.2522,M,-32.8286,M,,*65"
36,0,0.000000,6.313583,"$GPGGA,184511.60,3721.9970190,N,07958.3340013,W,1,08,1.41,362.3822,M,-32.8286,M,,*65"
37,0,0.000000,6.412708,"$GPGGA,184511.70,3721.9970514,N,07958.3339615,W,1,08,1.41,362.4055,M,-32.8286,M,,*6D"
39,0,0.000000,6.515433,"$GPGGA,184511.80,3721.9970645,N,07958.3339666,W,1,08,1.41,362.4256,M,-32.8286,M,,*60"
40,0,0.000000,6.616902,"$GPGGA,184511.90,3721.9970721,N,07958.3339629,W,1,08,1.41,362.4927,M,-32.8286,M,,*64"
42,0,0.000000,6.770630,"$GPGGA,184512.00,3721.9971204,N,07958.3339505,W,1,08,1.41,362.5435,M,-32.8286,M,,*6F"
43,0,0.000000,6.837299,"$GPGGA,184512.10,3721.9971358,N,07958.3339451,W,1,08,1.41,362.5619,M,-32.8286,M,,*6A"
44,0,0.000000,6.916644,"$GPGGA,184512.20,3721.9971652,N,07958.3339448,W,1,07,1.50,362.4789,M,-32.8286,M,,*68"
45,0,0.000000,7.012243,"$GPGGA,184512.30,3721.9971851,N,07958.3339263,W,1,07,1.50,362.5162,M,-32.8286,M,,*69"
46,0,0.000000,7.112511,"$GPGGA,184512.40,3721.9972003,N,07958.3338922,W,1,07,1.50,362.4756,M,-32.8286,M,,*6D"
47,0,0.000000,7.216265,"$GPGGA,184512.50,3721.9971764,N,07958.3338788,W,1,07,1.50,362.6934,M,-32.8286,M,,*6F"
48,0,0.000000,7.315153,"$GPGGA,184512.60,3721.9971728,N,07958.3338652,W,1,07,1.50,362.7711,M,-32.8286,M,,*6A"
49,0,0.000000,7.416416,"$GPGGA,184512.70,3721.9971924,N,07958.3338575,W,1,07,1.50,362.7588,M,-32.8286,M,,*6D"
50,0,0.000000,7.515249,"$GPGGA,184512.80,3721.9972059,N,07958.3338433,W,1,07,1.50,362.8130,M,-32.8286,M,,*69"
51,0,0.000000,7.612684,"$GPGGA,184512.90,3721.9972323,N,07958.3338289,W,1,07,1.50,362.8929,M,-32.8286,M,,*61"
53,0,0.000000,7.763793,"$GPGGA,184513.00,3721.9972490,N,07958.3338268,W,1,07,1.50,362.8718,M,-32.8286,M,,*65"
54,0,0.000000,7.831598,"$GPGGA,184513.10,3721.9972753,N,07958.3338516,W,1,07,1.50,362.8683,M,-32.8286,M,,*65"
55,0,0.000000,7.915922,"$GPGGA,184513.20,3721.9972902,N,07958.3338535,W,1,07,1.50,362.8988,M,-32.8286,M,,*69"
56,0,0.000000,8.015740,"$GPGGA,184513.30,3721.9973075,N,07958.3338304,W,1,07,1.50,362.9180,M,-32.8286,M,,*65"
57,0,0.000000,8.115295,"$GPGGA,184513.40,3721.9973561,N,07958.3338292,W,1,07,1.50,362.8355,M,-32.8286,M,,*67"
59,0,0.000000,8.224627,"$GPGGA,184513.50,3721.9973648,N,07958.3338087,W,1,07,1.50,362.8495,M,-32.8286,M,,*63"
60,0,0.000000,8.312901,"$GPGGA,184513.60,3721.9973666,N,07958.3337919,W,1,07,1.50,362.8876,M,-32.8286,M,,*6C"
61,0,0.000000,8.412683,"$GPGGA,184513.70,3721.9973800,N,07958.3338078,W,1,07,1.50,362.9300,M,-32.8286,M,,*69"
62,0,0.000000,8.512377,"$GPGGA,184513.80,3721.9973997,N,07958.3338131,W,1,07,1.50,362.9533,M,-32.8286,M,,*63"
63,0,0.000000,8.615888,"$GPGGA,184513.90,3721.9974234,N,07958.3337957,W,1,07,1.50,362.9686,M,-32.8286,M,,*6D"
65,0,0.000000,8.766067,"$GPGGA,184514.00,3721.9974615,N,07958.3337565,W,1,07,1.50,363.0252,M,-32.8286,M,,*6C"
65,0,0.000000,8.834704,"$GPGGA,184514.10,3721.9974745,N,07958.3337260,W,1,07,1.50,363.0371,M,-32.8286,M,,*6B"
66,0,0.000000,8.915734,"$GPGGA,184514.20,3721.9974906,N,07958.3337058,W,1,07,1.50,363.0343,M,-32.8286,M,,*69"
67,0,0.000000,9.011785,"$GPGGA,184514.30,3721.9975117,N,07958.3337152,W,1,07,1.50,363.0159,M,-32.8286,M,,*63"
68,0,0.000000,9.114625,"$GPGGA,184514.40,3721.9975322,N,07958.3337232,W,1,07,1.50,362.9944,M,-32.8286,M,,*69"
70,0,0.000000,9.212695,"$GPGGA,184514.50,3721.9975261,N,07958.3337578,W,1,07,1.50,363.0035,M,-32.8286,M,,*60"
71,0,0.000000,9.315485,"$GPGGA,184514.60,3721.9975616,N,07958.3337537,W,1,07,1.50,363.0112,M,-32.8286,M,,*68"
72,0,0.000000,9.416046,"$GPGGA,184514.70,3721.9975907,N,07958.3337424,W,1,07,1.50,363.0156,M,-32.8286,M,,*65"
73,0,0.000000,9.515810,"$GPGGA,184514.80,3721.9976163,N,07958.3337350,W,1,08,1.41,363.0227,M,-32.8286,M,,*6D"
74,0,0.000000,9.614378,"$GPGGA,184514.90,3721.9976372,N,07958.3337302,W,1,08,1.41,363.0326,M,-32.8286,M,,*69"
75,0,0.000000,9.765601,"$GPGGA,184515.00,3721.9976627,N,07958.3337140,W,1,08,1.41,363.0464,M,-32.8286,M,,*61"
76,0,0.000000,9.833399,"$GPGGA,184515.10,3721.9976749,N,07958.3336875,W,1,09,1.32,363.0463,M,-32.8286,M,,*65"
77,0,0.000000,9.912153,"$GPGGA,184515.20,3721.9976941,N,07958.3336776,W,1,09,1.32,363.0205,M,-32.8286,M,,*6A"
78,0,0.000000,10.016089,"$GPGGA,184515.30,3721.9977349,N,07958.3336575,W,1,09,1.32,363.0592,M,-32.8286,M,,*60"
79,0,0.000000,10.115979,"$GPGGA,184515.40,3721.9977486,N,07958.3336507,W,1,09,1.32,363.0626,M,-32.8286,M,,*6A"
81,0,0.000000,10.215528,"$GPGGA,184515.50,3721.9977560,N,07958.3336461,W,1,09,1.32,363.0974,M,-32.8286,M,,*6B"
82,0,0.000000,10.315782,"$GPGGA,184515.60,3721.9977630,N,07958.3336432,W,1,09,1.32,363.1185,M,-32.8286,M,,*6F"
84,0,0.000000,10.413500,"$GPGGA,184515.70,3721.9977795,N,07958.3336331,W,1,09,1.32,363.1672,M,-32.8286,M,,*6B"
85,0,0.000000,10.512065,"$GPGGA,184515.80,3721.9978066,N,07958.3336248,W,1,09,1.32,363.1746,M,-32.8286,M,,*69"
87,0,0.000000,10.613263,"$GPGGA,184515.90,3721.9978312,N,07958.3336191,W,1,09,1.32,363.1830,M,-32.8286,M,,*61"
88,0,0.000000,10.770019,"$GPGGA,184516.00,3721.9978512,N,07958.3336061,W,1,09,1.32,363.2166,M,-32.8286,M,,*6A"
89,0,0.000000,10.837770,"$GPGGA,184516.10,3721.9978836,N,07958.3336130,W,1,09,1.32,363.2006,M,-32.8286,M,,*62"
90,0,0.000000,10.916172,"$GPGGA,184516.20,3721.9979032,N,07958.3335883,W,1,09,1.32,363.1978,M,-32.8286,M,,*6D"
91,0,0.000000,11.016041,"$GPGGA,184516.30,3721.9979258,N,07958.3335645,W,1,09,1.32,363.2212,M,-32.8286,M,,*62"
92,0,0.000000,11.113488,"$GPGGA,184516.40,3721.9979396,N,07958.3335524,W,1,09,1.32,363.2415,M,-32.8286,M,,*63"
93,0,0.000000,11.219369,"$GPGGA,184516.50,3721.9979583,N,07958.3335511,W,1,09,1.32,363.2457,M,-32.8286,M,,*60"
93,0,0.000000,11.312681,"$GPGGA,184516.60,3721.9979732,N,07958.3335556,W,1,09,1.32,363.2557,M,-32.8286,M,,*69"
94,0,0.000000,11.416072,"$GPGGA,184516.70,3721.9979793,N,07958.3335841,W,1,09,1.32,363.2662,M,-32.8286,M,,*6D"
95,0,0.000000,11.515829,"$GPGGA,184516.80,3721.9979625,N,07958.3336382,W,1,09,1.32,363.2458,M,-32.8286,M,,*62"
96,0,0.000000,11.616117,"$GPGGA,184516.90,3721.9979778,N,07958.3336476,W,1,09,1.32,363.2400,M,-32.8286,M,,*6B"
98,0,0.000000,11.770165,"$GPGGA,184517.00,3721.9980037,N,07958.3336480,W,1,09,1.32,363.2530,M,-32.8286,M,,*62"
99,0,0.000000,11.837918,"$GPGGA,184517.10,3721.9979988,N,07958.3336964,W,1,09,1.32,363.2826,M,-32.8286,M,,*65"
100,0,0.000000,11.912976,"$GPGGA,184517.20,3721.9980181,N,07958.3336892,W,1,09,1.32,363.2793,M,-32.8286,M,,*68"
101,0,0.000000,12.013119,"$GPGGA,184517.30,3721.9980381,N,07958.3336928,W,1,10,1.06,363.2492,M,-32.8286,M,,*66"
102,0,0.000000,12.116652,"$GPGGA,184517.40,3721.9980642,N,07958.3336714,W,1,10,1.06,363.2563,M,-32.8286,M,,*65"
103,0,0.000000,12.228122,"$GPGGA,184517.50,3721.9980933,N,07958.3336328,W,1,10,1.06,363.3735,M,-32.8286,M,,*66"
104,0,0.000000,12.316470,"$GPGGA,184517.60,3721.9981254,N,07958.3335838,W,1,10,1.06,363.4269,M,-32.8286,M,,*6C"
105,0,0.000000,12.415632,"$GPGGA,184517.70,3721.9981447,N,07958.3335651,W,1,10,1.06,363.4348,M,-32.8286,M,,*6A"
106,0,0.000000,12.513947,"$GPGGA,184517.80,3721.9981727,N,07958.3335511,W,1,10,1.06,363.4123,M,-32.8286,M,,*68"
107,0,0.000000,12.612100,"$GPGGA,184517.90,3721.9981882,N,07958.3335387,W,1,10,1.06,363.4206,M,-32.8286,M,,*64"
109,0,0.000000,12.767066,"$GPGGA,184518.00,3721.9982079,N,07958.3335157,W,1,10,1.06,363.4339,M,-32.8286,M,,*6F"
109,0,0.000000,12.834862,"$GPGGA,184518.10,3721.9982180,N,07958.3335026,W,1,10,1.06,363.4594,M,-32.8286,M,,*6F"
110,0,0.000000,12.916309,"$GPGGA,184518.20,3721.9982273,N,07958.3334918,W,1,10,1.06,363.4854,M,-32.8286,M,,*67"
112,0,0.000000,13.016446,"$GPGGA,184518.30,3721.9982359,N,07958.3334568,W,1,10,1.06,363.5716,M,-32.8286,M,,*6C"
113,0,0.000000,13.116179,"$GPGGA,184518.40,3721.9982844,N,07958.3334618,W,1,10,1.06,363.5306,M,-32.8286,M,,*6D"
114,0,0.000000,13.215452,"$GPGGA,184518.50,3721.9983104,N,07958.3334613,W,1,10,1.06,363.5434,M,-32.8286,M,,*6D"
115,0,0.000000,13.313184,"$GPGGA,184518.60,3721.9983356,N,07958.3334269,W,1,10,1.06,363.5468,M,-32.8286,M,,*6B"
116,0,0.000000,13.413464,"$GPGGA,184518.70,3721.9983573,N,07958.3333995,W,1,10,1.06,363.5403,M,-32.8286,M,,*69"
117,0,0.000000,13.516397,"$GPGGA,184518.80,3721.9983779,N,07958.3334019,W,1,10,1.06,363.5166,M,-32.8286,M,,*62"
118,0,0.000000,13.616119,"$GPGGA,184518.90,3721.9983946,N,07958.3333932,W,1,10,1.06,363.5313,M,-32.8286,M,,*66"
120,0,0.000000,13.773959,"$GPGGA,184519.00,3721.9984228,N,07958.3333730,W,1,10,1.06,363.5547,M,-32.8286,M,,*61"
121,0,0.000000,13.838830,"$GPGGA,184519.10,3721.9984572,N,07958.3333470,W,1,10,1.06,363.5795,M,-32.8286,M,,*62"
121,0,0.000000,13.915021,"$GPGGA,184519.20,3721.9984718,N,07958.3333613,W,1,10,1.06,363.5607,M,-32.8286,M,,*62"
123,0,0.000000,14.012779,"$GPGGA,184519.30,3721.9984996,N,07958.3333468,W,1,10,1.06,363.5872,M,-32.8286,M,,*69"
124,0,0.000000,14.111931,"$GPGGA,184519.40,3721.9985219,N,07958.3333072,W,1,10,1.06,363.6120,M,-32.8286,M,,*61"
125,0,0.000000,14.216938,"$GPGGA,184519.50,3721.9985344,N,07958.3333007,W,1,10,1.06,363.6355,M,-32.8286,M,,*6B"
126,0,0.000000,14.316554,"$GPGGA,184519.60,3721.9985518,N,07958.3332843,W,1,10,1.06,363.6771,M,-32.8286,M,,*6C"
127,0,0.000000,14.424938,"$GPGGA,184519.70,3721.9985670,N,07958.3332647,W,1,10,1.06,363.7251,M,-32.8286,M,,*6C"
128,0,0.000000,14.516795,"$GPGGA,184519.80,3721.9985833,N,07958.3332561,W,1,10,1.06,363.7348,M,-32.8286,M,,*64"
129,0,0.000000,14.613160,"$GPGGA,184519.90,3721.9985941,N,07958.3332476,W,1,10,1.06,363.7557,M,-32.8286,M,,*6E"
131,0,0.000000,14.771309,"$GPGGA,184520.00,3721.9986140,N,07958.3332493,W,1,10,1.06,363.7389,M,-32.8286,M,,*69"
132,0,0.000000,14.835716,"$GPGGA,184520.10,3721.9986372,N,07958.3332518,W,1,10,1.06,363.7293,M,-32.8286,M,,*63"
133,0,0.000000,14.912617,"$GPGGA,184520.20,3721.9986612,N,07958.3332503,W,1,10,1.06,363.7188,M,-32.8286,M,,*60"
135,0,0.000000,15.015800,"$GPGGA,184520.30,3721.9986899,N,07958.3332288,W,1,10,1.06,363.7475,M,-32.8286,M,,*6F"
136,0,0.000000,15.116213,"$GPGGA,184520.40,3721.9987052,N,07958.3332062,W,1,10,1.06,363.7964,M,-32.8286,M,,*6D"
137,0,0.000000,15.216223,"$GPGGA,184520.50,3721.9987263,N,07958.3332029,W,1,10,1.06,363.7707,M,-32.8286,M,,*68"
139,0,0.000000,15.314824,"$GPGGA,184520.60,3721.9987448,N,07958.3331985,W,1,10,1.06,363.7701,M,-32.8286,M,,*6E"
140,0,0.000000,15.412925,"$GPGGA,184520.70,3721.9987914,N,07958.3331677,W,1,10,1.06,363.7454,M,-32.8286,M,,*6A"
141,0,0.000000,15.512056,"$GPGGA,184520.80,3721.9988064,N,07958.3331710,W,1,10,1.06,363.7842,M,-32.8286,M,,*6F"
142,0,0.000000,15.616561,"$GPGGA,184520.90,3721.9988260,N,07958.3331218,W,1,10,1.06,363.8564,M,-32.8286,M,,*63"
144,0,0.000000,15.771156,"$GPGGA,184521.00,3721.9988402,N,07958.3331090,W,1,10,1.06,363.8216,M,-32.8286,M,,*69"
145,0,0.000000,15.838909,"$GPGGA,184521.10,3721.9988566,N,07958.3331062,W,1,10,1.06,363.8110,M,-32.8286,M,,*63"
146,0,0.000000,15.915658,"$GPGGA,184521.20,3721.9988826,N,07958.3331133,W,1,10,1.06,363.7920,M,-32.8286,M,,*68"
147,0,0.000000,16.014510,"$GPGGA,184521.30,3721.9989279,N,07958.3330730,W,1,10,1.06,363.8053,M,-32.8286,M,,*6E"
148,0,0.000000,16.113736,"$GPGGA,184521.40,3721.9989468,N,07958.3330242,W,1,10,1.06,363.8994,M,-32.8286,M,,*6D"
149,0,0.000000,16.213068,"$GPGGA,184521.50,3721.9989867,N,07958.3330757,W,1,10,1.06,363.7040,M,-32.8286,M,,*61"
150,0,0.000000,16.316802,"$GPGGA,184521.60,3721.9989973,N,07958.3330761,W,1,10,1.06,363.7335,M,-32.8286,M,,*62"
151,0,0.000000,16.417011,"$GPGGA,184521.70,3721.9990056,N,07958.3330719,W,1,10,1.06,363.7886,M,-32.8286,M,,*69"
152,0,0.000000,16.516051,"$GPGGA,184521.80,3721.9990162,N,07958.3330102,W,1,10,1.06,363.9638,M,-32.8286,M,,*69"
153,0,0.000000,16.616806,"$GPGGA,184521.90,3721.9990423,N,07958.3329805,W,1,10,1.06,363.9633,M,-32.8286,M,,*65"
155,0,0.000000,16.769446,"$GPGGA,184522.00,3721.9990542,N,07958.3329801,W,1,10,1.06,363.9627,M,-32.8286,M,,*68"
156,0,0.000000,16.837097,"$GPGGA,184522.10,3721.9990674,N,07958.3329636,W,1,10,1.06,363.9937,M,-32.8286,M,,*6B"
156,0,0.000000,16.913227,"$GPGGA,184522.20,3721.9990816,N,07958.3329459,W,1,10,1.06,364.0177,M,-32.8286,M,,*6B"
158,0,0.000000,17.016322,"$GPGGA,184522.30,3721.9990991,N,07958.3329165,W,1,10,1.06,364.0300,M,-32.8286,M,,*6C"
159,0,0.000000,17.116290,"$GPGGA,184522.40,3721.9991026,N,07958.3328829,W,1,09,1.14,364.0542,M,-32.8286,M,,*64"
160,0,0.000000,17.215856,"$GPGGA,184522.50,3721.9991264,N,07958.3328742,W,1,10,1.06,364.0016,M,-32.8286,M,,*6C"
161,0,0.000000,17.317271,"$GPGGA,184522.60,3721.9991649,N,07958.3328172,W,1,10,1.06,363.9819,M,-32.8286,M,,*68"
162,0,0.000000,17.414818,"$GPGGA,184522.70,3721.9991692,N,07958.3328094,W,1,09,1.16,363.9941,M,-32.8286,M,,*63"
163,0,0.000000,17.514575,"$GPGGA,184522.80,3721.9991789,N,07958.3328066,W,1,10,1.06,364.0158,M,-32.8286,M,,*6D"
164,0,0.000000,17.612901,"$GPGGA,184522.90,3721.9992154,N,07958.3327669,W,1,10,1.06,364.1367,M,-32.8286,M,,*60"
165,0,0.000000,17.769831,"$GPGGA,184523.00,3721.9992054,N,07958.3327533,W,1,10,1.06,364.0018,M,-32.8286,M,,*6F"
166,0,0.000000,17.837934,"$GPGGA,184523.10,3721.9992228,N,07958.3327425,W,1,10,1.06,363.9922,M,-32.8286,M,,*6F"
167,0,0.000000,17.918651,"$GPGGA,184523.20,3721.9992412,N,07958.3327287,W,1,10,1.06,363.9849,M,-32.8286,M,,*61"
168,0,0.000000,18.015920,"$GPGGA,184523.30,3721.9992631,N,07958.3327180,W,1,10,1.06,363.9842,M,-32.8286,M,,*6C"
169,0,0.000000,18.114618,"$GPGGA,184523.40,3721.9992784,N,07958.3327020,W,1,10,1.06,363.9916,M,-32.8286,M,,*6F"
170,0,0.000000,18.212111,"$GPGGA,184523.50,3721.9992985,N,07958.3326659,W,1,10,1.06,363.9948,M,-32.8286,M,,*63"
171,0,0.000000,18.313503,"$GPGGA,184523.60,3721.9993170,N,07958.3326385,W,1,10,1.06,363.9747,M,-32.8286,M,,*66"
172,0,0.000000,18.411986,"$GPGGA,184523.70,3721.9993297,N,07958.3326156,W,1,10,1.06,363.9993,M,-32.8286,M,,*66"
174,0,0.000000,18.516113,"$GPGGA,184523.80,3721.9993475,N,07958.3326070,W,1,09,1.14,364.0142,M,-32.8286,M,,*67"
175,0,0.000000,18.618396,"$GPGGA,184523.90,3721.9993782,N,07958.3326056,W,1,09,1.14,363.9702,M,-32.8286,M,,*65"
176,0,0.000000,18.769884,"$GPGGA,184524.00,3721.9993882,N,07958.3325836,W,1,09,1.14,363.9936,M,-32.8286,M,,*60"
177,0,0.000000,18.837717,"$GPGGA,184524.10,3721.9994045,N,07958.3325397,W,1,10,1.06,364.0395,M,-32.8286,M,,*63"
177,0,0.000000,18.912541,"$GPGGA,184524.20,3721.9994116,N,07958.3325126,W,1,10,1.06,364.0523,M,-32.8286,M,,*64"
178,0,0.000000,19.012618,"$GPGGA,184524.30,3721.9994228,N,07958.3324931,W,1,10,1.06,364.0928,M,-32.8286,M,,*63"
179,0,0.000000,19.112907,"$GPGGA,184524.40,3721.9994284,N,07958.3324627,W,1,10,1.06,364.1351,M,-32.8286,M,,*6F"
181,0,0.000000,19.216121,"$GPGGA,184524.50,3721.9994513,N,07958.3324488,W,1,10,1.06,364.1442,M,-32.8286,M,,*65"
182,0,0.000000,19.315689,"$GPGGA,184524.60,3721.9994831,N,07958.3324168,W,1,10,1.06,364.1660,M,-32.8286,M,,*62"
183,0,0.000000,19.416303,"$GPGGA,184524.70,3721.9995022,N,07958.3324031,W,1,10,1.06,364.1736,M,-32.8286,M,,*67"
184,0,0.000000,19.514983,"$GPGGA,184524.80,3721.9995111,N,07958.3323941,W,1,10,1.06,364.1486,M,-32.8286,M,,*68"
185,0,0.000000,19.612715,"$GPGGA,184524.90,3721.9995023,N,07958.3323900,W,1,10,1.06,364.1432,M,-32.8286,M,,*63"
187,0,0.000000,19.767483,"$GPGGA,184525.00,3721.9995127,N,07958.3323628,W,1,10,1.06,364.1390,M,-32.8286,M,,*64"
187,0,0.000000,19.835350,"$GPGGA,184525.10,3721.9995352,N,07958.3323306,W,1,09,1.14,364.1996,M,-32.8286,M,,*6B"
188,0,0.000000,19.916252,"$GPGGA,184525.20,3721.9995552,N,07958.3322930,W,1,09,1.14,364.2252,M,-32.8286,M,,*60"
189,0,0.000000,20.015380,"$GPGGA,184525.30,3721.9995567,N,07958.3322861,W,1,09,1.14,364.2257,M,-32.8286,M,,*67"
189,0,0.000000,20.115716,"$GPGGA,184525.40,3721.9995579,N,07958.3322870,W,1,09,1.14,364.2455,M,-32.8286,M,,*6B"
190,0,0.000000,20.214813,"$GPGGA,184525.50,3721.9995654,N,07958.3322913,W,1,09,1.14,364.2566,M,-32.8286,M,,*63"
191,0,0.000000,20.312972,"$GPGGA,184525.60,3721.9995671,N,07958.3322853,W,1,09,1.14,364.2614,M,-32.8286,M,,*64"
192,0,0.000000,20.412196,"$GPGGA,184525.70,3721.9995728,N,07958.3322778,W,1,09,1.14,364.2654,M,-32.8286,M,,*6A"
193,0,0.000000,20.512712,"$GPGGA,184525.80,3721.9995864,N,07958.3322810,W,1,09,1.14,364.2659,M,-32.8286,M,,*6E"
194,0,0.000000,20.615942,"$GPGGA,184525.90,3721.9996039,N,07958.3322635,W,1,09,1.14,364.2752,M,-32.8286,M,,*6F"
195,0,0.000000,20.769841,"$GPGGA,184526.00,3721.9996264,N,07958.3322453,W,1,09,1.14,364.2844,M,-32.8286,M,,*65"
196,0,0.000000,20.838326,"$GPGGA,184526.10,3721.9996422,N,07958.3322246,W,1,09,1.14,364.3207,M,-32.8286,M,,*6E"
197,0,0.000000,20.914954,"$GPGGA,184526.20,3721.9996558,N,07958.3322068,W,1,09,1.14,364.3247,M,-32.8286,M,,*6B"
198,0,0.000000,21.012362,"$GPGGA,184526.30,3721.9996687,N,07958.3321729,W,1,09,1.14,364.3610,M,-32.8286,M,,*6C"
199,0,0.000000,21.113213,"$GPGGA,184526.40,3721.9997214,N,07958.3321297,W,1,09,1.14,364.2899,M,-32.8286,M,,*6A"
199,0,0.000000,21.213353,"$GPGGA,184526.50,3721.9997362,N,07958.3321113,W,1,09,1.14,364.2924,M,-32.8286,M,,*63"
200,0,0.000000,21.315708,"$GPGGA,184526.60,3721.9997604,N,07958.3320941,W,1,09,1.14,364.2781,M,-32.8286,M,,*6A"
201,0,0.000000,21.416698,"$GPGGA,184526.70,3721.9997679,N,07958.3320507,W,1,09,1.14,364.4014,M,-32.8286,M,,*62"
202,0,0.000000,21.516199,"$GPGGA,184526.80,3721.9997783,N,07958.3320388,W,1,10,1.06,364.3987,M,-32.8286,M,,*67"
204,0,0.000000,21.616432,"$GPGGA,184526.90,3721.9997873,N,07958.3320245,W,1,10,1.06,364.3862,M,-32.8286,M,,*6C"
206,0,0.000000,21.767141,"$GPGGA,184527.00,3721.9998224,N,07958.3320113,W,1,10,1.06,364.3355,M,-32.8286,M,,*6C"
206,0,0.000000,21.834927,"$GPGGA,184527.10,3721.9998442,N,07958.3319966,W,1,10,1.06,364.3440,M,-32.8286,M,,*68"
207,0,0.000000,21.912049,"$GPGGA,184527.20,3721.9998678,N,07958.3319763,W,1,10,1.06,364.3508,M,-32.8286,M,,*66"
207,0,0.000000,22.018172,"$GPGGA,184527.30,3721.9998919,N,07958.3319817,W,1,10,1.06,364.3606,M,-32.8286,M,,*6E"
207,0,0.000000,22.115970,"$GPGGA,184527.40,3721.9999006,N,07958.3319742,W,1,10,1.06,364.3878,M,-32.8286,M,,*67"
208,0,0.000000,22.216728,"$GPGGA,184527.50,3721.9999091,N,07958.3319652,W,1,10,1.06,364.4048,M,-32.8286,M,,*64"
208,0,0.000000,22.315178,"$GPGGA,184527.60,3721.9999181,N,07958.3319569,W,1,10,1.06,364.4205,M,-32.8286,M,,*67"
209,0,0.000000,22.413229,"$GPGGA,184527.70,3721.9999350,N,07958.3319431,W,1,10,1.06,364.4057,M,-32.8286,M,,*61"
210,0,0.000000,22.513517,"$GPGGA,184527.80,3721.9999541,N,07958.3319307,W,1,10,1.06,364.3968,M,-32.8286,M,,*68"
210,0,0.000000,22.612685,"$GPGGA,184527.90,3721.9999704,N,07958.3319274,W,1,10,1.06,364.3991,M,-32.8286,M,,*69"
211,0,0.000000,22.771497,"$GPGGA,184528.00,3721.9999817,N,07958.3319205,W,1,10,1.06,364.4038,M,-32.8286,M,,*69"
212,0,0.000000,22.839342,"$GPGGA,184528.10,3721.9999834,N,07958.3319054,W,1,10,1.06,364.4049,M,-32.8286,M,,*69"
212,0,0.000000,22.916750,"$GPGGA,184528.20,3721.9999795,N,07958.3318701,W,1,10,1.06,364.4382,M,-32.8286,M,,*6C"
213,0,0.000000,23.016035,"$GPGGA,184528.30,3721.9999831,N,07958.3318678,W,1,10,1.06,364.4616,M,-32.8286,M,,*6B"
214,0,0.000000,23.113846,"$GPGGA,184528.40,3722.0000157,N,07958.3318409,W,1,10,1.06,364.4449,M,-32.8286,M,,*6A"
215,0,0.000000,23.213382,"$GPGGA,184528.50,3722.0000309,N,07958.3318248,W,1,10,1.06,364.4697,M,-32.8286,M,,*60"
217,0,0.000000,23.323077,"$GPGGA,184528.60,3722.0000478,N,07958.3318137,W,1,10,1.06,364.4810,M,-32.8286,M,,*68"
218,0,0.000000,23.417310,"$GPGGA,184528.70,3722.0000133,N,07958.3318688,W,1,10,1.06,364.4726,M,-32.8286,M,,*6A"
219,0,0.000000,23.515666,"$GPGGA,184528.80,3722.0001045,N,07958.3317390,W,1,10,1.06,364.4306,M,-32.8286,M,,*61"
221,0,0.000000,23.616719,"$GPGGA,184528.90,3722.0001150,N,07958.3317247,W,1,10,1.06,364.4502,M,-32.8286,M,,*6C"
223,0,0.000000,23.770266,"$GPGGA,184529.00,3722.0000432,N,07958.3318216,W,1,10,1.06,364.4675,M,-32.8286,M,,*6C"
224,0,0.000000,23.848670,"$GPGGA,184529.10,3722.0000642,N,07958.3318016,W,1,10,1.06,364.4730,M,-32.8286,M,,*6A"
224,0,0.000000,23.913439,"$GPGGA,184529.20,3722.0000891,N,07958.3317890,W,1,10,1.06,364.4573,M,-32.8286,M,,*65"
225,0,0.000000,24.012436,"$GPGGA,184529.30,3722.0001057,N,07958.3317771,W,1,10,1.06,364.4636,M,-32.8286,M,,*65"
226,0,0.000000,24.115285,"$GPGGA,184529.40,3722.0001247,N,07958.3317341,W,1,10,1.06,364.4856,M,-32.8286,M,,*6E"
228,0,0.000000,24.215733,"$GPGGA,184529.50,3722.0001443,N,07958.3316963,W,1,10,1.06,364.4770,M,-32.8286,M,,*6D"
229,0,0.000000,24.316528,"$GPGGA,184529.60,3722.0001560,N,07958.3316953,W,1,10,1.06,364.4687,M,-32.8286,M,,*64"
230,0,0.000000,24.425025,"$GPGGA,184529.70,3722.0001823,N,07958.3316818,W,1,10,1.06,364.5055,M,-32.8286,M,,*69"
231,0,0.000000,24.515450,"$GPGGA,184529.80,3722.0002018,N,07958.3316738,W,1,10,1.06,364.4674,M,-32.8286,M,,*6C"
232,0,0.000000,24.612625,"$GPGGA,184529.90,3722.0002344,N,07958.3316514,W,1,10,1.06,364.4412,M,-32.8286,M,,*69"
233,0,0.000000,24.767081,"$GPGGA,184530.00,3722.0002580,N,07958.3316293,W,1,10,1.06,364.4807,M,-32.8286,M,,*66"
234,0,0.000000,24.834924,"$GPGGA,184530.10,3722.0002772,N,07958.3316199,W,1,10,1.06,364.4733,M,-32.8286,M,,*69"
235,0,0.000000,24.916743,"$GPGGA,184530.20,3722.0002980,N,07958.3316049,W,1,10,1.06,364.4751,M,-32.8286,M,,*61"
236,0,0.000000,25.015756,"$GPGGA,184530.30,3722.0003155,N,07958.3315849,W,1,10,1.06,364.4947,M,-32.8286,M,,*63"
237,0,0.000000,25.116011,"$GPGGA,184530.40,3722.0003318,N,07958.3315729,W,1,10,1.06,364.4915,M,-32.8286,M,,*61"
238,0,0.000000,25.213568,"$GPGGA,184530.50,3722.0003433,N,07958.3315541,W,1,10,1.06,364.5133,M,-32.8286,M,,*6F"
239,0,0.000000,25.313197,"$GPGGA,184530.60,3722.0003549,N,07958.3315314,W,1,10,1.06,364.5142,M,-32.8286,M,,*60"
240,0,0.000000,25.413467,"$GPGGA,184530.70,3722.0003928,N,07958.3314988,W,1,10,1.06,364.5037,M,-32.8286,M,,*67"
241,0,0.000000,25.515920,"$GPGGA,184530.80,3722.0004079,N,07958.3314866,W,1,10,1.06,364.5289,M,-32.8286,M,,*64"
243,0,0.000000,25.618102,"$GPGGA,184530.90,3722.0004245,N,07958.3314717,W,1,10,1.06,364.5314,M,-32.8286,M,,*64"
244,0,0.000000,25.771152,"$GPGGA,184531.00,3722.0004530,N,07958.3314438,W,1,10,1.06,364.5095,M,-32.8286,M,,*6D"
245,0,0.000000,25.838905,"$GPGGA,184531.10,3722.0004785,N,07958.3313892,W,1,10,1.06,364.6470,M,-32.8286,M,,*67"
246,0,0.000000,25.913629,"$GPGGA,184531.20,3722.0005031,N,07958.3313404,W,1,10,1.06,364.6941,M,-32.8286,M,,*61"
248,0,0.000000,26.012375,"$GPGGA,184531.30,3722.0005245,N,07958.3313428,W,1,10,1.06,364.6694,M,-32.8286,M,,*68"
249,0,0.000000,26.112765,"$GPGGA,184531.40,3722.0005504,N,07958.3313577,W,1,10,1.06,364.6402,M,-32.8286,M,,*6B"
250,0,0.000000,26.216254,"$GPGGA,184531.50,3722.0005645,N,07958.3313478,W,1,10,1.06,364.6079,M,-32.8286,M,,*6A"
251,0,0.000000,26.315898,"$GPGGA,184531.60,3722.0005809,N,07958.3313238,W,1,10,1.06,364.6158,M,-32.8286,M,,*6F"
252,0,0.000000,26.415691,"$GPGGA,184531.70,3722.0005987,N,07958.3313051,W,1,10,1.06,364.6404,M,-32.8286,M,,*68"
253,0,0.000000,26.515851,"$GPGGA,184531.80,3722.0006193,N,07958.3312952,W,1,10,1.06,364.6778,M,-32.8286,M,,*6A"
254,0,0.000000,26.613597,"$GPGGA,184531.90,3722.0006484,N,07958.3312899,W,1,10,1.06,364.6210,M,-32.8286,M,,*65"
255,0,0.000000,26.767343,"$GPGGA,184532.00,3722.0006637,N,07958.3312873,W,1,10,1.06,364.5716,M,-32.8286,M,,*61"
256,0,0.000000,26.835064,"$GPGGA,184532.10,3722.0006746,N,07958.3312802,W,1,09,1.16,364.5569,M,-32.8286,M,,*62"
256,0,0.000000,26.914863,"$GPGGA,184532.20,3722.0006808,N,07958.3312771,W,1,09,1.16,364.5268,M,-32.8286,M,,*69"
257,0,0.000000,27.016509,"$GPGGA,184532.30,3722.0006905,N,07958.3312692,W,1,09,1.16,364.5175,M,-32.8286,M,,*67"
258,0,0.000000,27.116163,"$GPGGA,184532.40,3722.0007052,N,07958.3312521,W,1,09,1.16,364.5346,M,-32.8286,M,,*63"
259,0,0.000000,27.215781,"$GPGGA,184532.50,3722.0007307,N,07958.3312330,W,1,09,1.16,364.5235,M,-32.8286,M,,*62"
260,0,0.000000,27.313360,"$GPGGA,184532.60,3722.0007495,N,07958.3312222,W,1,09,1.16,364.5194,M,-32.8286,M,,*67"
260,0,0.000000,27.411774,"$GPGGA,184532.70,3722.0007599,N,07958.3312091,W,1,09,1.16,364.5461,M,-32.8286,M,,*6E"
261,0,0.000000,27.511970,"$GPGGA,184532.80,3722.0007707,N,07958.3311991,W,1,09,1.16,364.5722,M,-32.8286,M,,*6A"
262,0,0.000000,27.612700,"$GPGGA,184532.90,3722.0007800,N,07958.3311893,W,1,09,1.16,364.5828,M,-32.8286,M,,*65"
263,0,0.000000,27.768933,"$GPGGA,184533.00,3722.0007920,N,07958.3311766,W,1,09,1.16,364.5813,M,-32.8286,M,,*63"
263,0,0.000000,27.838607,"$GPGGA,184533.10,3722.0008065,N,07958.3311684,W,1,09,1.16,364.5772,M,-32.8286,M,,*60"
264,0,0.000000,27.915643,"$GPGGA,184533.20,3722.0008152,N,07958.3311632,W,1,09,1.16,364.5594,M,-32.8286,M,,*61"
264,0,0.000000,28.016449,"$GPGGA,184533.30,3722.0008234,N,07958.3311670,W,1,09,1.16,364.5251,M,-32.8286,M,,*6B"
265,0,0.000000,28.112196,"$GPGGA,184533.40,3722.0008318,N,07958.3311663,W,1,09,1.16,364.5110,M,-32.8286,M,,*67"
265,0,0.000000,28.212338,"$GPGGA,184533.50,3722.0008589,N,07958.3311530,W,1,08,1.22,364.6153,M,-32.8286,M,,*6F"
266,0,0.000000,28.316655,"$GPGGA,184533.60,3722.0008682,N,07958.3311501,W,1,09,1.16,364.6159,M,-32.8286,M,,*6A"
266,0,0.000000,28.416319,"$GPGGA,184533.70,3722.0008760,N,07958.3311434,W,1,09,1.16,364.6074,M,-32.8286,M,,*6F"
266,0,0.000000,28.515799,"$GPGGA,184533.80,3722.0008788,N,07958.3311385,W,1,09,1.16,364.6078,M,-32.8286,M,,*67"
267,0,0.000000,28.614367,"$GPGGA,184533.90,3722.0008822,N,07958.3311333,W,1,09,1.16,364.6155,M,-32.8286,M,,*6A"
268,0,0.000000,28.767226,"$GPGGA,184534.00,3722.0008873,N,07958.3311185,W,1,09,1.16,364.6328,M,-32.8286,M,,*67"
268,0,0.000000,28.835033,"$GPGGA,184534.10,3722.0008986,N,07958.3311111,W,1,09,1.16,364.6329,M,-32.8286,M,,*61"
269,0,0.000000,28.911842,"$GPGGA,184534.20,3722.0009128,N,07958.3310964,W,1,09,1.16,364.6819,M,-32.8286,M,,*6C"
270,0,0.000000,29.011792,"$GPGGA,184534.30,3722.0009221,N,07958.3310834,W,1,09,1.16,364.6963,M,-32.8286,M,,*6F"
270,0,0.000000,29.115402,"$GPGGA,184534.40,3722.0009300,N,07958.3310780,W,1,09,1.16,364.6652,M,-32.8286,M,,*67"
271,0,0.000000,29.215096,"$GPGGA,184534.50,3722.0009345,N,07958.3310637,W,1,09,1.16,364.6377,M,-32.8286,M,,*68"
272,0,0.000000,29.315504,"$GPGGA,184534.60,3722.0009416,N,07958.3310613,W,1,09,1.16,364.6111,M,-32.8286,M,,*6E"
273,0,0.000000,29.415052,"$GPGGA,184534.70,3722.0009645,N,07958.3310414,W,1,09,1.16,364.6363,M,-32.8286,M,,*69"
274,0,0.000000,29.512514,"$GPGGA,184534.80,3722.0009784,N,07958.3310222,W,1,09,1.16,364.6262,M,-32.8286,M,,*69"
275,0,0.000000,29.611756,"$GPGGA,184534.90,3722.0009977,N,07958.3310078,W,1,09,1.16,364.6402,M,-32.8286,M,,*67"
276,0,0.000000,29.769791,"$GPGGA,184535.00,3722.0010054,N,07958.3310018,W,1,09,1.16,364.5919,M,-32.8286,M,,*6D"
277,0,0.000000,29.837621,"$GPGGA,184535.10,3722.0010331,N,07958.3309893,W,1,09,1.16,364.6034,M,-32.8286,M,,*6A"
278,0,0.000000,29.915811,"$GPGGA,184535.20,3722.0010508,N,07958.3309734,W,1,09,1.16,364.5945,M,-32.8286,M,,*6B"
279,0,0.000000,30.015927,"$GPGGA,184535.30,3722.0010773,N,07958.3309434,W,1,09,1.16,364.6577,M,-32.8286,M,,*69"
280,0,0.000000,30.113424,"$GPGGA,184535.40,3722.0011082,N,07958.3309266,W,1,09,1.16,364.6698,M,-32.8286,M,,*65"
281,0,0.000000,30.215377,"$GPGGA,184535.50,3722.0011151,N,07958.3309138,W,1,09,1.16,364.6079,M,-32.8286,M,,*6A"
282,0,0.000000,30.311658,"$GPGGA,184535.60,3722.0011292,N,07958.3308974,W,1,09,1.16,364.5813,M,-32.8286,M,,*63"
283,0,0.000000,30.411902,"$GPGGA,184535.70,3722.0011446,N,07958.3308855,W,1,09,1.16,364.5895,M,-32.8286,M,,*61"
283,0,0.000000,30.516121,"$GPGGA,184535.80,3722.0011503,N,07958.3308700,W,1,09,1.16,364.5968,M,-32.8286,M,,*62"
284,0,0.000000,30.615428,"$GPGGA,184535.90,3722.0011537,N,07958.3308535,W,1,09,1.16,364.5923,M,-32.8286,M,,*6F"
285,0,0.000000,30.769448,"$GPGGA,184536.00,3722.0011598,N,07958.3308467,W,1,09,1.16,364.5786,M,-32.8286,M,,*67"
285,0,0.000000,30.837240,"$GPGGA,184536.10,3722.0011679,N,07958.3308392,W,1,09,1.16,364.5762,M,-32.8286,M,,*6D"
286,0,0.000000,30.912586,"$GPGGA,184536.20,3722.0011778,N,07958.3308348,W,1,09,1.16,364.5784,M,-32.8286,M,,*61"
286,0,0.000000,31.012128,"$GPGGA,184536.30,3722.0011946,N,07958.3308252,W,1,09,1.16,364.5803,M,-32.8286,M,,*69"
287,0,0.000000,31.112553,"$GPGGA,184536.40,3722.0012188,N,07958.3308061,W,1,09,1.16,364.5925,M,-32.8286,M,,*60"
288,0,0.000000,31.216387,"$GPGGA,184536.50,3722.0012442,N,07958.3307845,W,1,09,1.16,364.6392,M,-32.8286,M,,*66"
289,0,0.000000,31.314425,"$GPGGA,184536.60,3722.0012678,N,07958.3307628,W,1,09,1.16,364.6591,M,-32.8286,M,,*6E"
291,0,0.000000,31.424679,"$GPGGA,184536.70,3722.0012879,N,07958.3307448,W,1,09,1.16,364.6632,M,-32.8286,M,,*6E"
291,0,0.000000,31.513573,"$GPGGA,184536.80,3722.0013026,N,07958.3307248,W,1,09,1.16,364.6911,M,-32.8286,M,,*6A"
293,0,0.000000,31.612615,"$GPGGA,184536.90,3722.0013140,N,07958.3307147,W,1,09,1.16,364.7008,M,-32.8286,M,,*66"
294,0,0.000000,31.765698,"$GPGGA,184537.00,3722.0013414,N,07958.3307076,W,1,09,1.16,364.6904,M,-32.8286,M,,*6D"
295,0,0.000000,31.833500,"$GPGGA,184537.10,3722.0013747,N,07958.3306932,W,1,09,1.16,364.6536,M,-32.8286,M,,*6C"
296,0,0.000000,31.915896,"$GPGGA,184537.20,3722.0013853,N,07958.3306943,W,1,09,1.16,364.6660,M,-32.8286,M,,*63"
297,0,0.000000,32.016542,"$GPGGA,184537.30,3722.0013931,N,07958.3306851,W,1,09,1.16,364.6695,M,-32.8286,M,,*6F"
298,0,0.000000,32.115700,"$GPGGA,184537.40,3722.0014020,N,07958.3306696,W,1,09,1.16,364.6853,M,-32.8286,M,,*67"
298,0,0.000000,32.213560,"$GPGGA,184537.50,3722.0014193,N,07958.3306649,W,1,09,1.16,364.6680,M,-32.8286,M,,*6D"
299,0,0.000000,32.312885,"$GPGGA,184537.60,3722.0014297,N,07958.3306614,W,1,09,1.16,364.6962,M,-32.8286,M,,*62"
300,0,0.000000,32.412652,"$GPGGA,184537.70,3722.0014536,N,07958.3306450,W,1,09,1.16,364.7294,M,-32.8286,M,,*6E"
300,0,0.000000,32.512187,"$GPGGA,184537.80,3722.0014798,N,07958.3306253,W,1,09,1.16,364.7519,M,-32.8286,M,,*60"
300,0,0.000000,32.617853,"$GPGGA,184537.90,3722.0014995,N,07958.3306051,W,1,09,1.16,364.7429,M,-32.8286,M,,*60"
300,0,0.000000,32.768633,"$GPGGA,184538.00,3722.0015102,N,07958.3305960,W,1,09,1.16,364.7392,M,-32.8286,M,,*6E"
301,0,0.000000,32.836381,"$GPGGA,184538.10,3722.0015150,N,07958.3305836,W,1,09,1.16,364.7517,M,-32.8286,M,,*61"
301,0,0.000000,32.913442,"$GPGGA,184538.20,3722.0015252,N,07958.3305791,W,1,09,1.16,364.7511,M,-32.8286,M,,*67"
303,0,0.000000,33.011707,"$GPGGA,184538.30,3722.0015360,N,07958.3305801,W,1,09,1.16,364.7391,M,-32.8286,M,,*6E"
304,0,0.000000,33.111796,"$GPGGA,184538.40,3722.0015431,N,07958.3305659,W,1,09,1.16,364.7534,M,-32.8286,M,,*60"
306,0,0.000000,33.210794,"$GPGGA,184538.50,3722.0015505,N,07958.3305398,W,1,09,1.16,364.7811,M,-32.8286,M,,*65"
307,0,0.000000,33.315642,"$GPGGA,184538.60,3722.0015712,N,07958.3305280,W,1,09,1.16,364.7948,M,-32.8286,M,,*67"
308,0,0.000000,33.415808,"$GPGGA,184538.70,3722.0016135,N,07958.3305313,W,1,09,1.16,364.7938,M,-32.8286,M,,*6A"
309,0,0.000000,33.515244,"$GPGGA,184538.80,3722.0016377,N,07958.3305203,W,1,09,1.16,364.7953,M,-32.8286,M,,*6C"
310,0,0.000000,33.613997,"$GPGGA,184538.90,3722.0016584,N,07958.3304813,W,1,09,1.16,364.8334,M,-32.8286,M,,*69"
312,0,0.000000,33.765717,"$GPGGA,184539.00,3722.0016826,N,07958.3304680,W,1,09,1.16,364.8492,M,-32.8286,M,,*6B"
312,0,0.000000,33.833549,"$GPGGA,184539.10,3722.0017111,N,07958.3304584,W,1,09,1.16,364.8488,M,-32.8286,M,,*6A"
313,0,0.000000,33.915280,"$GPGGA,184539.20,3722.0017313,N,07958.3304524,W,1,09,1.16,364.8334,M,-32.8286,M,,*63"
314,0,0.000000,34.028183,"$GPGGA,184539.30,3722.0017496,N,07958.3304467,W,1,09,1.16,364.8366,M,-32.8286,M,,*69"
314,0,0.000000,34.117738,"$GPGGA,184539.40,3722.0017653,N,07958.3304532,W,1,09,1.16,364.8247,M,-32.8286,M,,*66"
315,0,0.000000,34.217792,"$GPGGA,184539.50,3722.0017839,N,07958.3304584,W,1,09,1.16,364.7995,M,-32.8286,M,,*63"
316,0,0.000000,34.316961,"$GPGGA,184539.60,3722.0017964,N,07958.3304567,W,1,10,1.06,364.7818,M,-32.8286,M,,*69"
317,0,0.000000,34.415120,"$GPGGA,184539.70,3722.0018087,N,07958.3304519,W,1,10,1.06,364.7648,M,-32.8286,M,,*61"
318,0,0.000000,34.511720,"$GPGGA,184539.80,3722.0018305,N,07958.3304450,W,1,09,1.16,364.7626,M,-32.8286,M,,*6A"
319,0,0.000000,34.611888,"$GPGGA,184539.90,3722.0018530,N,07958.3304373,W,1,09,1.16,364.7717,M,-32.8286,M,,*6E"
320,0,0.000000,34.768472,"$GPGGA,184540.00,3722.0018714,N,07958.3304341,W,1,09,1.16,364.7516,M,-32.8286,M,,*6F"
321,0,0.000000,34.837895,"$GPGGA,184540.10,3722.0018911,N,07958.3304074,W,1,09,1.16,364.7313,M,-32.8286,M,,*63"
322,0,0.000000,34.914613,"$GPGGA,184540.20,3722.0019132,N,07958.3303804,W,1,09,1.16,364.7270,M,-32.8286,M,,*64"
324,0,0.000000,35.013408,"$GPGGA,184540.30,3722.0019220,N,07958.3303527,W,1,09,1.16,364.7365,M,-32.8286,M,,*6C"
324,0,0.000000,35.112669,"$GPGGA,184540.40,3722.0019329,N,07958.3303300,W,1,09,1.16,364.7580,M,-32.8286,M,,*6D"
326,0,0.000000,35.213487,"$GPGGA,184540.50,3722.0019578,N,07958.3303219,W,1,09,1.16,364.7072,M,-32.8286,M,,*6F"
327,0,0.000000,35.312628,"$GPGGA,184540.60,3722.0019662,N,07958.3303046,W,1,09,1.16,364.7947,M,-32.8286,M,,*63"
328,0,0.000000,35.413987,"$GPGGA,184540.70,3722.0019908,N,07958.3302987,W,1,09,1.16,364.7963,M,-32.8286,M,,*62"
330,0,0.000000,35.515454,"$GPGGA,184540.80,3722.0020118,N,07958.3302820,W,1,09,1.16,364.7831,M,-32.8286,M,,*64"
331,0,0.000000,35.615247,"$GPGGA,184540.90,3722.0020302,N,07958.3302799,W,1,09,1.16,364.7814,M,-32.8286,M,,*66"
332,0,0.000000,35.767457,"$GPGGA,184541.00,3722.0020441,N,07958.3302563,W,1,09,1.16,364.7959,M,-32.8286,M,,*61"
333,0,0.000000,35.835314,"$GPGGA,184541.10,3722.0020743,N,07958.3302262,W,1,09,1.16,364.7994,M,-32.8286,M,,*66"
333,0,0.000000,35.910922,"$GPGGA,184541.20,3722.0020939,N,07958.3302110,W,1,09,1.16,364.8375,M,-32.8286,M,,*6A"
334,0,0.000000,36.011745,"$GPGGA,184541.30,3722.0021100,N,07958.3301954,W,1,09,1.16,364.8637,M,-32.8286,M,,*60"
335,0,0.000000,36.114662,"$GPGGA,184541.40,3722.0021170,N,07958.3301896,W,1,09,1.16,364.8684,M,-32.8286,M,,*67"
336,0,0.000000,36.214998,"$GPGGA,184541.50,3722.0021307,N,07958.3301908,W,1,09,1.16,364.8740,M,-32.8286,M,,*6B"
337,0,0.000000,36.316372,"$GPGGA,184541.60,3722.0021465,N,07958.3301899,W,1,09,1.16,364.8815,M,-32.8286,M,,*6D"
338,0,0.000000,36.414648,"$GPGGA,184541.70,3722.0021592,N,07958.3301702,W,1,09,1.16,364.8700,M,-32.8286,M,,*63"
339,0,0.000000,36.512195,"$GPGGA,184541.80,3722.0021757,N,07958.3301545,W,1,09,1.16,364.8543,M,-32.8286,M,,*63"
340,0,0.000000,36.611522,"$GPGGA,184541.90,3722.0021864,N,07958.3301425,W,1,09,1.16,364.8439,M,-32.8286,M,,*66"
342,0,0.000000,36.765026,"$GPGGA,184542.00,3722.0022183,N,07958.3301108,W,1,09,1.16,364.9002,M,-32.8286,M,,*68"
342,0,0.000000,36.832704,"$GPGGA,184542.10,3722.0022370,N,07958.3300556,W,1,09,1.16,364.9479,M,-32.8286,M,,*61"
343,0,0.000000,36.914609,"$GPGGA,184542.20,3722.0022551,N,07958.3300538,W,1,09,1.16,364.8956,M,-32.8286,M,,*6E"
344,0,0.000000,37.016319,"$GPGGA,184542.30,3722.0022870,N,07958.3301089,W,1,09,1.16,364.7839,M,-32.8286,M,,*68"
345,0,0.000000,37.114557,"$GPGGA,184542.40,3722.0022937,N,07958.3300452,W,1,09,1.16,364.7655,M,-32.8286,M,,*6A"
346,0,0.000000,37.212432,"$GPGGA,184542.50,3722.0023119,N,07958.3300197,W,1,09,1.16,364.8493,M,-32.8286,M,,*65"
348,0,0.000000,37.312002,"$GPGGA,184542.60,3722.0023322,N,07958.3300088,W,1,09,1.16,364.8137,M,-32.8286,M,,*68"
349,0,0.000000,37.415269,"$GPGGA,184542.70,3722.0023697,N,07958.3300005,W,1,09,1.16,364.7846,M,-32.8286,M,,*67"
351,0,0.000000,37.516093,"$GPGGA,184542.80,3722.0023306,N,07958.3299545,W,1,09,1.16,364.6931,M,-32.8286,M,,*65"
352,0,0.000000,37.615997,"$GPGGA,184542.90,3722.0023655,N,07958.3299079,W,1,09,1.16,364.7711,M,-32.8286,M,,*60"
354,0,0.000000,37.768776,"$GPGGA,184543.00,3722.0023842,N,07958.3298925,W,1,09,1.16,364.7915,M,-32.8286,M,,*6B"
354,0,0.000000,37.844650,"$GPGGA,184543.10,3722.0024086,N,07958.3298809,W,1,09,1.16,364.7791,M,-32.8286,M,,*60"
355,0,0.000000,37.912673,"$GPGGA,184543.20,3722.0024425,N,07958.3298778,W,1,09,1.16,364.8275,M,-32.8286,M,,*67"
356,0,0.000000,38.011955,"$GPGGA,184543.30,3722.0024670,N,07958.3298609,W,1,09,1.16,364.8544,M,-32.8286,M,,*66"
357,0,0.000000,38.112040,"$GPGGA,184543.40,3722.0024876,N,07958.3298336,W,1,09,1.16,364.8550,M,-32.8286,M,,*65"
358,0,0.000000,38.215760,"$GPGGA,184543.50,3722.0025247,N,07958.3297776,W,1,09,1.16,365.0252,M,-32.8286,M,,*6E"
358,0,0.000000,38.315396,"$GPGGA,184543.60,3722.0025383,N,07958.3297518,W,1,09,1.16,365.0075,M,-32.8286,M,,*69"
359,0,0.000000,38.415509,"$GPGGA,184543.70,3722.0025507,N,07958.3297413,W,1,09,1.16,364.9837,M,-32.8286,M,,*6E"
359,0,0.000000,38.514995,"$GPGGA,184543.80,3722.0025209,N,07958.3297622,W,1,09,1.16,364.7296,M,-32.8286,M,,*67"
360,0,0.000000,38.612299,"$GPGGA,184543.90,3722.0025325,N,07958.3297642,W,1,09,1.16,364.7443,M,-32.8286,M,,*61"
361,0,0.000000,38.774717,"$GPGGA,184544.00,3722.0025437,N,07958.3297606,W,1,09,1.16,364.7381,M,-32.8286,M,,*62"
361,0,0.000000,38.833957,"$GPGGA,184544.10,3722.0025524,N,07958.3297537,W,1,09,1.16,364.7460,M,-32.8286,M,,*69"
362,0,0.000000,38.915124,"$GPGGA,184544.20,3722.0025636,N,07958.3297486,W,1,09,1.16,364.7558,M,-32.8286,M,,*6B"
362,0,0.000000,39.015308,"$GPGGA,184544.30,3722.0025774,N,07958.3297462,W,1,09,1.16,364.7470,M,-32.8286,M,,*6C"
363,0,0.000000,39.121704,"$GPGGA,184544.40,3722.0025867,N,07958.3297381,W,1,09,1.16,364.7263,M,-32.8286,M,,*68"
364,0,0.000000,39.214986,"$GPGGA,184544.50,3722.0025967,N,07958.3297213,W,1,09,1.16,364.6949,M,-32.8286,M,,*60"
365,0,0.000000,39.312848,"$GPGGA,184544.60,3722.0026151,N,07958.3297024,W,1,09,1.16,364.6830,M,-32.8286,M,,*64"
366,0,0.000000,39.412080,"$GPGGA,184544.70,3722.0026342,N,07958.3296854,W,1,09,1.16,364.6672,M,-32.8286,M,,*63"
367,0,0.000000,39.511215,"$GPGGA,184544.80,3722.0026452,N,07958.3296655,W,1,09,1.16,364.6617,M,-32.8286,M,,*66"
368,0,0.000000,39.614798,"$GPGGA,184544.90,3722.0026571,N,07958.3296392,W,1,09,1.16,364.7271,M,-32.8286,M,,*6C"
369,0,0.000000,39.768707,"$GPGGA,184545.00,3722.0026687,N,07958.3296169,W,1,09,1.16,364.7674,M,-32.8286,M,,*69"
369,0,0.000000,39.836560,"$GPGGA,184545.10,3722.0026866,N,07958.3296035,W,1,09,1.16,364.7805,M,-32.8286,M,,*69"
370,0,0.000000,39.914948,"$GPGGA,184545.20,3722.0027040,N,07958.3295934,W,1,09,1.16,364.7836,M,-32.8286,M,,*6C"
371,0,0.000000,40.013206,"$GPGGA,184545.30,3722.0027160,N,07958.3295803,W,1,09,1.16,364.7976,M,-32.8286,M,,*6E"
372,0,0.000000,40.114813,"$GPGGA,184545.40,3722.0027250,N,07958.3295463,W,1,09,1.16,364.8043,M,-32.8286,M,,*63"
373,0,0.000000,40.212449,"$GPGGA,184545.50,3722.0027399,N,07958.3294939,W,1,09,1.16,364.8751,M,-32.8286,M,,*61"
374,0,0.000000,40.324684,"$GPGGA,184545.60,3722.0027561,N,07958.3294881,W,1,09,1.16,364.8228,M,-32.8286,M,,*6A"
375,0,0.000000,40.419026,"$GPGGA,184545.70,3722.0027675,N,07958.3294885,W,1,09,1.16,364.7614,M,-32.8286,M,,*6D"
376,0,0.000000,40.515368,"$GPGGA,184545.80,3722.0027824,N,07958.3294895,W,1,10,1.06,364.6983,M,-32.8286,M,,*60"
378,0,0.000000,40.614542,"$GPGGA,184545.90,3722.0028216,N,07958.3294580,W,1,10,1.06,364.7422,M,-32.8286,M,,*6B"
378,0,0.000000,40.767508,"$GPGGA,184546.00,3722.0028370,N,07958.3294395,W,1,10,1.06,364.7366,M,-32.8286,M,,*65"
379,0,0.000000,40.835262,"$GPGGA,184546.10,3722.0028546,N,07958.3294256,W,1,10,1.06,364.7497,M,-32.8286,M,,*60"
379,0,0.000000,40.912375,"$GPGGA,184546.20,3722.0028614,N,07958.3294172,W,1,10,1.06,364.7362,M,-32.8286,M,,*6F"
379,0,0.000000,41.015398,"$GPGGA,184546.30,3722.0028664,N,07958.3294114,W,1,10,1.06,364.7383,M,-32.8286,M,,*66"
380,0,0.000000,41.116049,"$GPGGA,184546.40,3722.0028706,N,07958.3294061,W,1,10,1.06,364.7365,M,-32.8286,M,,*6F"
380,0,0.000000,41.215176,"$GPGGA,184546.50,3722.0028736,N,07958.3293965,W,1,10,1.06,364.7371,M,-32.8286,M,,*62"
380,0,0.000000,41.315835,"$GPGGA,184546.60,3722.0028809,N,07958.3293878,W,1,10,1.06,364.7375,M,-32.8286,M,,*6B"
381,0,0.000000,41.415019,"$GPGGA,184546.70,3722.0028832,N,07958.3293812,W,1,10,1.06,364.7056,M,-32.8286,M,,*6C"
381,0,0.000000,41.512563,"$GPGGA,184546.80,3722.0028989,N,07958.3293446,W,1,10,1.06,364.8007,M,-32.8286,M,,*64"
382,0,0.000000,41.612700,"$GPGGA,184546.90,3722.0029142,N,07958.3293175,W,1,10,1.06,364.8429,M,-32.8286,M,,*66"
384,0,0.000000,41.769290,"$GPGGA,184547.00,3722.0029295,N,07958.3293038,W,1,10,1.06,364.8206,M,-32.8286,M,,*64"
385,0,0.000000,41.838922,"$GPGGA,184547.10,3722.0029385,N,07958.3292942,W,1,10,1.06,364.7498,M,-32.8286,M,,*6E"
386,0,0.000000,41.917005,"$GPGGA,184547.20,3722.0029318,N,07958.3292745,W,1,10,1.06,364.6699,M,-32.8286,M,,*62"
386,0,0.000000,42.015929,"$GPGGA,184547.30,3722.0029335,N,07958.3292591,W,1,10,1.06,364.6674,M,-32.8286,M,,*64"
386,0,0.000000,42.112456,"$GPGGA,184547.40,3722.0029364,N,07958.3292578,W,1,10,1.06,364.6597,M,-32.8286,M,,*6E"
386,0,0.000000,42.213862,"$GPGGA,184547.50,3722.0029432,N,07958.3292594,W,1,10,1.06,364.6739,M,-32.8286,M,,*6F"
386,0,0.000000,42.311517,"$GPGGA,184547.60,3722.0029448,N,07958.3292582,W,1,10,1.06,364.6830,M,-32.8286,M,,*60"
386,0,0.000000,42.411339,"$GPGGA,184547.70,3722.0029462,N,07958.3292571,W,1,10,1.06,364.7123,M,-32.8286,M,,*6F"
386,0,0.000000,42.515799,"$GPGGA,184547.80,3722.0029453,N,07958.3292624,W,1,10,1.06,364.6937,M,-32.8286,M,,*6D"
386,0,0.000000,42.616107,"$GPGGA,184547.90,3722.0029321,N,07958.3292627,W,1,10,1.06,364.6561,M,-32.8286,M,,*62"
387,0,0.000000,42.770054,"$GPGGA,184548.00,3722.0029305,N,07958.3292660,W,1,10,1.06,364.6304,M,-32.8286,M,,*64"
387,0,0.000000,42.837825,"$GPGGA,184548.10,3722.0029402,N,07958.3292678,W,1,10,1.06,364.6044,M,-32.8286,M,,*6B"
388,0,0.000000,42.911304,"$GPGGA,184548.20,3722.0029422,N,07958.3292618,W,1,10,1.06,364.6141,M,-32.8286,M,,*68"
388,0,0.000000,43.012647,"$GPGGA,184548.30,3722.0029498,N,07958.3292636,W,1,10,1.06,364.5976,M,-32.8286,M,,*6B"
389,0,0.000000,43.115712,"$GPGGA,184548.40,3722.0029527,N,07958.3292616,W,1,10,1.06,364.6280,M,-32.8286,M,,*6A"
390,0,0.000000,43.217800,"$GPGGA,184548.50,3722.0029838,N,07958.3292443,W,1,10,1.06,364.6167,M,-32.8286,M,,*60"
391,0,0.000000,43.316190,"$GPGGA,184548.60,3722.0030004,N,07958.3292144,W,1,10,1.06,364.6199,M,-32.8286,M,,*6F"
392,0,0.000000,43.415645,"$GPGGA,184548.70,3722.0030099,N,07958.3291925,W,1,10,1.06,364.6001,M,-32.8286,M,,*66"
393,0,0.000000,43.514061,"$GPGGA,184548.80,3722.0030232,N,07958.3291672,W,1,10,1.06,364.5806,M,-32.8286,M,,*6B"
394,0,0.000000,43.612799,"$GPGGA,184548.90,3722.0030529,N,07958.3291521,W,1,10,1.06,364.5311,M,-32.8286,M,,*6F"
396,0,0.000000,43.765943,"$GPGGA,184549.00,3722.0030685,N,07958.3291339,W,1,10,1.06,364.5446,M,-32.8286,M,,*68"
396,0,0.000000,43.833766,"$GPGGA,184549.10,3722.0030893,N,07958.3291194,W,1,10,1.06,364.5555,M,-32.8286,M,,*66"
398,0,0.000000,43.915560,"$GPGGA,184549.20,3722.0031008,N,07958.3291055,W,1,10,1.06,364.5970,M,-32.8286,M,,*69"
399,0,0.000000,44.016018,"$GPGGA,184549.30,3722.0031375,N,07958.3290667,W,1,10,1.06,364.5562,M,-32.8286,M,,*68"
401,0,0.000000,44.115717,"$GPGGA,184549.40,3722.0031616,N,07958.3290341,W,1,10,1.06,364.5562,M,-32.8286,M,,*6E"
402,0,0.000000,44.213779,"$GPGGA,184549.50,3722.0031759,N,07958.3290241,W,1,10,1.06,364.5298,M,-32.8286,M,,*66"
402,0,0.000000,44.312974,"$GPGGA,184549.60,3722.0031954,N,07958.3290163,W,1,10,1.06,364.5069,M,-32.8286,M,,*69"
402,0,0.000000,44.412638,"$GPGGA,184549.70,3722.0032148,N,07958.3290104,W,1,10,1.06,364.5092,M,-32.8286,M,,*6B"
402,0,0.000000,44.515143,"$GPGGA,184549.80,3722.0032225,N,07958.3289957,W,1,10,1.06,364.5432,M,-32.8286,M,,*64"
402,0,0.000000,44.616338,"$GPGGA,184549.90,3722.0032250,N,07958.3289905,W,1,10,1.06,364.5451,M,-32.8286,M,,*65"
402,0,0.000000,44.772390,"$GPGGA,184550.00,3722.0032242,N,07958.3289910,W,1,10,1.06,364.5382,M,-32.8286,M,,*6A"
402,0,0.000000,44.838470,"$GPGGA,184550.10,3722.0032293,N,07958.3289885,W,1,10,1.06,364.5268,M,-32.8286,M,,*6F"
402,0,0.000000,44.914724,"$GPGGA,184550.20,3722.0032334,N,07958.3289823,W,1,10,1.06,364.5252,M,-32.8286,M,,*65"
402,0,0.000000,45.012152,"$GPGGA,184550.30,3722.0032371,N,07958.3289758,W,1,10,1.06,364.5299,M,-32.8286,M,,*61"
402,0,0.000000,45.111241,"$GPGGA,184550.40,3722.0032452,N,07958.3289691,W,1,10,1.06,364.5342,M,-32.8286,M,,*63"
402,0,0.000000,45.211384,"$GPGGA,184550.50,3722.0032495,N,07958.3289629,W,1,10,1.06,364.5304,M,-32.8286,M,,*68"
404,0,0.000000,46.611730,"$GPGGA,184551.90,3722.0032637,N,07958.3289700,W,1,10,1.06,364.5326,M,-32.8286,M,,*65"
404,0,0.000000,46.770368,"$GPGGA,184552.00,3722.0032610,N,07958.3289765,W,1,10,1.06,364.5328,M,-32.8286,M,,*67"
404,0,0.000000,46.838150,"$GPGGA,184552.10,3722.0032610,N,07958.3289739,W,1,10,1.06,364.5497,M,-32.8286,M,,*6C"
404,0,0.000000,46.915443,"$GPGGA,184552.20,3722.0032656,N,07958.3289724,W,1,10,1.06,364.5524,M,-32.8286,M,,*68"
405,0,0.000000,47.013350,"$GPGGA,184552.30,3722.0032705,N,07958.3289678,W,1,10,1.06,364.5569,M,-32.8286,M,,*6F"
406,0,0.000000,47.112293,"$GPGGA,184552.40,3722.0032771,N,07958.3289629,W,1,10,1.06,364.5560,M,-32.8286,M,,*66"
406,0,0.000000,47.212337,"$GPGGA,184552.50,3722.0032893,N,07958.3289473,W,1,10,1.06,364.5684,M,-32.8286,M,,*60"
408,0,0.000000,47.316205,"$GPGGA,184552.60,3722.0032996,N,07958.3289317,W,1,10,1.06,364.5568,M,-32.8286,M,,*63"
409,0,0.000000,47.417248,"$GPGGA,184552.70,3722.0033294,N,07958.3289241,W,1,10,1.00,364.5419,M,-32.8286,M,,*69"
411,0,0.000000,47.516846,"$GPGGA,184552.80,3722.0033592,N,07958.3289012,W,1,10,1.00,364.4942,M,-32.8286,M,,*61"
413,0,0.000000,47.616323,"$GPGGA,184552.90,3722.0033856,N,07958.3288369,W,1,10,1.00,364.4105,M,-32.8286,M,,*60"
415,0,0.000000,47.769203,"$GPGGA,184553.00,3722.0034096,N,07958.3288080,W,1,10,1.00,364.4289,M,-32.8286,M,,*68"
416,0,0.000000,47.837023,"$GPGGA,184553.10,3722.0034455,N,07958.3287708,W,1,10,1.00,364.4320,M,-32.8286,M,,*68"
417,0,0.000000,47.911138,"$GPGGA,184553.20,3722.0034692,N,07958.3287428,W,1,10,1.00,364.4255,M,-32.8286,M,,*60"
418,0,0.000000,48.011172,"$GPGGA,184553.30,3722.0034860,N,07958.3287141,W,1,09,1.14,364.4535,M,-32.8286,M,,*64"
420,0,0.000000,48.115784,"$GPGGA,184553.40,3722.0034999,N,07958.3286974,W,1,10,1.00,364.4632,M,-32.8286,M,,*62"
421,0,0.000000,48.216171,"$GPGGA,184553.50,3722.0035205,N,07958.3286861,W,1,10,1.00,364.4597,M,-32.8286,M,,*65"
421,0,0.000000,48.315803,"$GPGGA,184553.60,3722.0035303,N,07958.3286531,W,1,10,1.00,364.4786,M,-32.8286,M,,*6B"
422,0,0.000000,48.414161,"$GPGGA,184553.70,3722.0035499,N,07958.3286324,W,1,10,1.00,364.4965,M,-32.8286,M,,*6F"
423,0,0.000000,48.512522,"$GPGGA,184553.80,3722.0035665,N,07958.3286275,W,1,10,1.00,364.4650,M,-32.8286,M,,*6D"
423,0,0.000000,48.613208,"$GPGGA,184553.90,3722.0035888,N,07958.3286384,W,1,10,1.00,364.3606,M,-32.8286,M,,*6A"
424,0,0.000000,48.771101,"$GPGGA,184554.00,3722.0035887,N,07958.3285941,W,1,10,1.00,364.4980,M,-32.8286,M,,*6D"
425,0,0.000000,48.845277,"$GPGGA,184554.10,3722.0035998,N,07958.3285766,W,1,10,1.00,364.4803,M,-32.8286,M,,*62"
426,0,0.000000,48.914762,"$GPGGA,184554.20,3722.0036108,N,07958.3285689,W,1,10,1.00,364.4683,M,-32.8286,M,,*65"
427,0,0.000000,49.015830,"$GPGGA,184554.30,3722.0036108,N,07958.3285550,W,1,10,1.00,364.4278,M,-32.8286,M,,*63"
428,0,0.000000,49.114806,"$GPGGA,184554.40,3722.0036166,N,07958.3285256,W,1,10,1.00,364.3753,M,-32.8286,M,,*66"
430,0,0.000000,49.212379,"$GPGGA,184554.50,3722.0036304,N,07958.3284989,W,1,10,1.00,364.4057,M,-32.8286,M,,*6D"
431,0,0.000000,49.311797,"$GPGGA,184554.60,3722.0036577,N,07958.3284863,W,1,10,1.00,364.4034,M,-32.8286,M,,*6C"
432,0,0.000000,49.416857,"$GPGGA,184554.70,3722.0036893,N,07958.3284397,W,1,10,1.00,364.5220,M,-32.8286,M,,*6C"
432,0,0.000000,49.516317,"$GPGGA,184554.80,3722.0037007,N,07958.3284235,W,1,10,1.00,364.5390,M,-32.8286,M,,*64"
433,0,0.000000,49.615850,"$GPGGA,184554.90,3722.0037243,N,07958.3284345,W,1,10,1.00,364.4022,M,-32.8286,M,,*6A"
434,0,0.000000,49.768981,"$GPGGA,184555.00,3722.0037375,N,07958.3284188,W,1,10,1.00,364.4021,M,-32.8286,M,,*66"
434,0,0.000000,49.836775,"$GPGGA,184555.10,3722.0037505,N,07958.3284036,W,1,09,1.14,364.3828,M,-32.8286,M,,*69"
434,0,0.000000,49.912802,"$GPGGA,184555.20,3722.0037580,N,07958.3283957,W,1,10,1.00,364.3845,M,-32.8286,M,,*68"
434,0,0.000000,50.012347,"$GPGGA,184555.30,3722.0037648,N,07958.3283895,W,1,10,1.00,364.3558,M,-32.8286,M,,*60"
435,0,0.000000,50.116524,"$GPGGA,184555.40,3722.0037721,N,07958.3283792,W,1,10,1.00,364.3487,M,-32.8286,M,,*62"
435,0,0.000000,50.216006,"$GPGGA,184555.50,3722.0037778,N,07958.3283700,W,1,10,1.00,364.3376,M,-32.8286,M,,*6D"
436,0,0.000000,50.315465,"$GPGGA,184555.60,3722.0037841,N,07958.3283529,W,1,09,1.14,364.3583,M,-32.8286,M,,*63"
437,0,0.000000,50.417281,"$GPGGA,184555.70,3722.0037942,N,07958.3283376,W,1,10,1.00,364.3460,M,-32.8286,M,,*6D"
438,0,0.000000,50.514589,"$GPGGA,184555.80,3722.0038090,N,07958.3283246,W,1,10,1.00,364.3131,M,-32.8286,M,,*68"
438,0,0.000000,50.612021,"$GPGGA,184555.90,3722.0038229,N,07958.3283054,W,1,10,1.00,364.3336,M,-32.8286,M,,*6D"
440,0,0.000000,50.765215,"$GPGGA,184556.00,3722.0038455,N,07958.3282957,W,1,10,1.00,364.3657,M,-32.8286,M,,*63"
440,0,0.000000,50.833048,"$GPGGA,184556.10,3722.0038653,N,07958.3282715,W,1,10,1.00,364.4423,M,-32.8286,M,,*68"
441,0,0.000000,50.915200,"$GPGGA,184556.20,3722.0038685,N,07958.3282591,W,1,10,1.00,364.4870,M,-32.8286,M,,*64"
442,0,0.000000,51.015172,"$GPGGA,184556.30,3722.0038683,N,07958.3282440,W,1,09,1.14,364.4875,M,-32.8286,M,,*66"
442,0,0.000000,51.115592,"$GPGGA,184556.40,3722.0038701,N,07958.3282318,W,1,09,1.14,364.4794,M,-32.8286,M,,*60"
443,0,0.000000,51.213695,"$GPGGA,184556.50,3722.0038751,N,07958.3282108,W,1,09,1.14,364.4971,M,-32.8286,M,,*62"
444,0,0.000000,51.312114,"$GPGGA,184556.60,3722.0038859,N,07958.3281720,W,1,09,1.13,364.4998,M,-32.8286,M,,*69"
444,0,0.000000,51.411460,"$GPGGA,184556.70,3722.0038951,N,07958.3281646,W,1,09,1.13,364.4714,M,-32.8286,M,,*6A"
445,0,0.000000,51.512062,"$GPGGA,184556.80,3722.0038973,N,07958.3281516,W,1,09,1.13,364.4983,M,-32.8286,M,,*63"
445,0,0.000000,51.615216,"$GPGGA,184556.90,3722.0039091,N,07958.3281477,W,1,09,1.13,364.4784,M,-32.8286,M,,*69"
446,0,0.000000,51.769866,"$GPGGA,184557.00,3722.0039151,N,07958.3281473,W,1,10,1.08,364.4643,M,-32.8286,M,,*60"
446,0,0.000000,51.837640,"$GPGGA,184557.10,3722.0039221,N,07958.3281437,W,1,10,1.08,364.4419,M,-32.8286,M,,*68"
446,0,0.000000,51.914817,"$GPGGA,184557.20,3722.0039214,N,07958.3281420,W,1,10,1.08,364.4220,M,-32.8286,M,,*67"
447,0,0.000000,52.011853,"$GPGGA,184557.30,3722.0039298,N,07958.3281407,W,1,10,1.08,364.3986,M,-32.8286,M,,*67"
447,0,0.000000,52.111561,"$GPGGA,184557.40,3722.0039620,N,07958.3281244,W,1,09,1.22,364.4306,M,-32.8286,M,,*63"
448,0,0.000000,52.211180,"$GPGGA,184557.50,3722.0039678,N,07958.3281520,W,1,09,1.13,363.9275,M,-32.8286,M,,*67"
449,0,0.000000,52.315307,"$GPGGA,184557.60,3722.0039942,N,07958.3281296,W,1,09,1.13,364.4460,M,-32.8286,M,,*60"
450,0,0.000000,52.415759,"$GPGGA,184557.70,3722.0040120,N,07958.3281191,W,1,10,1.08,364.4537,M,-32.8286,M,,*66"
451,0,0.000000,52.523535,"$GPGGA,184557.80,3722.0040360,N,07958.3280825,W,1,11,1.00,364.3227,M,-32.8286,M,,*60"
453,0,0.000000,52.615467,"$GPGGA,184557.90,3722.0040506,N,07958.3280737,W,1,11,1.00,364.4453,M,-32.8286,M,,*69"
455,0,0.000000,52.768494,"$GPGGA,184558.00,3722.0040664,N,07958.3280483,W,1,11,1.00,364.4853,M,-32.8286,M,,*68"
455,0,0.000000,52.836224,"$GPGGA,184558.10,3722.0040821,N,07958.3280401,W,1,11,1.00,364.4831,M,-32.8286,M,,*68"
456,0,0.000000,52.912463,"$GPGGA,184558.20,3722.0041217,N,07958.3280394,W,1,11,1.00,364.2725,M,-32.8286,M,,*62"
457,0,0.000000,53.015956,"$GPGGA,184558.30,3722.0041426,N,07958.3280196,W,1,11,1.00,364.4253,M,-32.8286,M,,*65"
458,0,0.000000,53.115882,"$GPGGA,184558.40,3722.0041574,N,07958.3280028,W,1,11,1.00,364.4240,M,-32.8286,M,,*62"
459,0,0.000000,53.215900,"$GPGGA,184558.50,3722.0041751,N,07958.3279872,W,1,11,1.00,364.2972,M,-32.8286,M,,*6B"
460,0,0.000000,53.315043,"$GPGGA,184558.60,3722.0042047,N,07958.3279701,W,1,10,1.06,364.1698,M,-32.8286,M,,*6F"
461,0,0.000000,53.411470,"$GPGGA,184558.70,3722.0042013,N,07958.3279480,W,1,10,1.06,364.3211,M,-32.8286,M,,*62"
462,0,0.000000,53.511848,"$GPGGA,184558.80,3722.0042201,N,07958.3279399,W,1,10,1.06,364.2071,M,-32.8286,M,,*66"
463,0,0.000000,53.611522,"$GPGGA,184558.90,3722.0042286,N,07958.3279609,W,1,10,1.06,363.8156,M,-32.8286,M,,*6D"
466,0,0.000000,53.769872,"$GPGGA,184559.00,3722.0042431,N,07958.3279461,W,1,10,1.06,363.8201,M,-32.8286,M,,*62"
467,0,0.000000,53.837735,"$GPGGA,184559.10,3722.0042689,N,07958.3279397,W,1,10,1.06,363.7086,M,-32.8286,M,,*6E"
468,0,0.000000,53.915589,"$GPGGA,184559.20,3722.0043021,N,07958.3279418,W,1,10,1.06,363.2923,M,-32.8286,M,,*6B"
469,0,0.000000,54.015054,"$GPGGA,184559.30,3722.0042958,N,07958.3279236,W,1,10,1.06,363.1835,M,-32.8286,M,,*63"
470,0,0.000000,54.112829,"$GPGGA,184559.40,3722.0043024,N,07958.3278972,W,1,10,1.06,363.2544,M,-32.8286,M,,*65"
471,0,0.000000,54.212949,"$GPGGA,184559.50,3722.0043167,N,07958.3278792,W,1,10,1.06,363.3167,M,-32.8286,M,,*66"
472,0,0.000000,54.310987,"$GPGGA,184559.60,3722.0043449,N,07958.3278604,W,1,10,1.06,363.2337,M,-32.8286,M,,*64"
473,0,0.000000,54.415202,"$GPGGA,184559.70,3722.0043668,N,07958.3278406,W,1,10,1.06,363.1892,M,-32.8286,M,,*63"
474,0,0.000000,54.515911,"$GPGGA,184559.80,3722.0044022,N,07958.3278279,W,1,11,1.00,363.0350,M,-32.8286,M,,*6E"
474,0,0.000000,54.624274,"$GPGGA,184559.90,3722.0044135,N,07958.3278178,W,1,11,1.00,363.0036,M,-32.8286,M,,*69"
475,0,0.000000,54.770355,"$GPGGA,184600.00,3722.0044151,N,07958.3277618,W,1,11,1.00,363.6212,M,-32.8286,M,,*61"
476,0,0.000000,54.838147,"$GPGGA,184600.10,3722.0044186,N,07958.3277574,W,1,11,1.00,363.6035,M,-32.8286,M,,*64"
476,0,0.000000,54.911733,"$GPGGA,184600.20,3722.0044229,N,07958.3277450,W,1,11,1.00,363.6039,M,-32.8286,M,,*6A"
477,0,0.000000,55.012735,"$GPGGA,184600.30,3722.0044249,N,07958.3277402,W,1,11,1.00,363.6021,M,-32.8286,M,,*63"
478,0,0.000000,55.114305,"$GPGGA,184600.40,3722.0044315,N,07958.3277421,W,1,11,1.00,363.6091,M,-32.8286,M,,*66"
479,0,0.000000,55.214275,"$GPGGA,184600.50,3722.0044404,N,07958.3277383,W,1,11,1.00,363.6281,M,-32.8286,M,,*6C"
480,0,0.000000,55.315607,"$GPGGA,184600.60,3722.0044505,N,07958.3277287,W,1,11,1.00,363.6432,M,-32.8286,M,,*64"
481,0,0.000000,55.415266,"$GPGGA,184600.70,3722.0044620,N,07958.3277189,W,1,11,1.00,363.6535,M,-32.8286,M,,*6A"
481,0,0.000000,55.513254,"$GPGGA,184600.80,3722.0044969,N,07958.3276948,W,1,11,1.00,363.6829,M,-32.8286,M,,*63"
483,0,0.000000,55.617464,"$GPGGA,184600.90,3722.0045259,N,07958.3276666,W,1,11,1.00,363.7090,M,-32.8286,M,,*63"
484,0,0.000000,55.767393,"$GPGGA,184601.00,3722.0045490,N,07958.3276599,W,1,11,1.00,363.7257,M,-32.8286,M,,*62"
485,0,0.000000,55.854843,"$GPGGA,184601.10,3722.0045695,N,07958.3276466,W,1,11,1.00,363.7181,M,-32.8286,M,,*6D"
486,0,0.000000,55.915860,"$GPGGA,184601.20,3722.0046048,N,07958.3275937,W,1,11,1.00,363.8717,M,-32.8286,M,,*67"
487,0,0.000000,56.014906,"$GPGGA,184601.30,3722.0046195,N,07958.3275781,W,1,11,1.00,363.8144,M,-32.8286,M,,*64"
488,0,0.000000,56.114115,"$GPGGA,184601.40,3722.0046373,N,07958.3275622,W,1,10,1.06,363.7792,M,-32.8286,M,,*64"
489,0,0.000000,56.213487,"$GPGGA,184601.50,3722.0046567,N,07958.3275502,W,1,11,1.00,363.7122,M,-32.8286,M,,*6D"
490,0,0.000000,56.311632,"$GPGGA,184601.60,3722.0046701,N,07958.3275381,W,1,10,1.06,363.6726,M,-32.8286,M,,*65"
491,0,0.000000,56.412878,"$GPGGA,184601.70,3722.0046901,N,07958.3275157,W,1,10,1.06,363.7014,M,-32.8286,M,,*64"
492,0,0.000000,56.522895,"$GPGGA,184601.80,3722.0047055,N,07958.3274935,W,1,11,1.00,363.7725,M,-32.8286,M,,*6D"
492,0,0.000000,56.616980,"$GPGGA,184601.90,3722.0047161,N,07958.3274807,W,1,11,1.00,363.8039,M,-32.8286,M,,*6F"
492,0,0.000000,56.770971,"$GPGGA,184602.00,3722.0047243,N,07958.3274626,W,1,10,1.06,363.8557,M,-32.8286,M,,*61"
492,0,0.000000,56.838783,"$GPGGA,184602.10,3722.0047320,N,07958.3274459,W,1,10,1.06,363.8672,M,-32.8286,M,,*6A"
493,0,0.000000,56.912710,"$GPGGA,184602.20,3722.0047332,N,07958.3274480,W,1,09,1.15,363.8569,M,-32.8286,M,,*6D"
493,0,0.000000,57.010916,"$GPGGA,184602.30,3722.0047349,N,07958.3274423,W,1,09,1.15,363.8540,M,-32.8286,M,,*62"
494,0,0.000000,57.111750,"$GPGGA,184602.40,3722.0047427,N,07958.3274299,W,1,10,1.06,363.8621,M,-32.8286,M,,*63"
