;GPS@@@
;Ver=1.1.0
;DIP=2009-00152-00
;Date=2026-Jan-12 12:07:53
;----------------------------------------------------------------------------------------------------------------------------------------------------------------------------------------
traces,odo_tick,pos(m),time_elapsed(s),GPS
2,0,0.000000,3.780049,"$GPGGA,174759.20,3721.9528386,N,07958.3892606,W,2,07,1.14,364.2215,M,-32.8285,M,1.6,0000*4D"
2,0,0.000000,3.880023,"$GPGGA,174759.30,3721.9528444,N,07958.3892705,W,2,07,1.14,364.2321,M,-32.8285,M,1.7,0000*40"
3,0,0.000000,3.981940,"$GPGGA,174759.40,3721.9528608,N,07958.3892793,W,2,07,1.14,364.2598,M,-32.8285,M,1.8,0000*49"
3,0,0.000000,4.079090,"$GPGGA,174759.50,3721.9528713,N,07958.3892869,W,2,07,1.14,364.2620,M,-32.8285,M,0.7,0000*47"
3,0,0.000000,4.177373,"$GPGGA,174759.60,3721.9528751,N,07958.3892958,W,2,07,1.14,364.2672,M,-32.8285,M,0.8,0000*49"
3,0,0.000000,4.277078,"$GPGGA,174759.70,3721.9528849,N,07958.3893036,W,2,07,1.14,364.2712,M,-32.8285,M,0.9,0000*48"
4,0,0.000000,4.380435,"$GPGGA,174759.80,3721.9528931,N,07958.3893106,W,2,07,1.14,364.2684,M,-32.8285,M,1.0,0000*4D"
4,0,0.000000,4.480003,"$GPGGA,174759.90,3721.9529029,N,07958.3893188,W,2,07,1.14,364.2750,M,-32.8285,M,1.1,0000*42"
5,0,0.000000,4.610222,"$GPGGA,174800.00,3721.9529029,N,07958.3893274,W,2,07,1.14,364.2680,M,-32.8285,M,1.2,0000*47"
5,0,0.000000,4.681670,"$GPGGA,174800.10,3721.9529080,N,07958.3893348,W,2,07,1.14,364.2593,M,-32.8285,M,1.3,0000*4B"
6,0,0.000000,4.780216,"$GPGGA,174800.20,3721.9529105,N,07958.3893407,W,2,07,1.14,364.2537,M,-32.8285,M,1.4,0000*41"
6,0,0.000000,4.876823,"$GPGGA,174800.30,3721.9529176,N,07958.3893478,W,2,07,1.14,364.2582,M,-32.8285,M,1.5,0000*43"
7,0,0.000000,4.976720,"$GPGGA,174800.40,3721.9529250,N,07958.3893569,W,2,07,1.14,364.2504,M,-32.8285,M,1.6,0000*4F"
8,0,0.000000,5.076929,"$GPGGA,174800.50,3721.9529424,N,07958.3893690,W,2,07,1.14,364.2455,M,-32.8285,M,0.5,0000*49"
9,0,0.000000,5.179955,"$GPGGA,174800.60,3721.9529477,N,07958.3893853,W,2,07,1.14,364.2422,M,-32.8285,M,0.6,0000*4E"
11,0,0.000000,5.280176,"$GPGGA,174800.70,3721.9529587,N,07958.3894015,W,2,07,1.14,364.2605,M,-32.8285,M,0.7,0000*4A"
12,0,0.000000,5.379929,"$GPGGA,174800.80,3721.9529757,N,07958.3894206,W,2,07,1.14,364.2552,M,-32.8285,M,0.8,0000*44"
13,0,0.000000,5.479654,"$GPGGA,174800.90,3721.9530194,N,07958.3894183,W,2,07,1.14,364.2785,M,-32.8285,M,0.9,0000*43"
14,0,0.000000,5.606895,"$GPGGA,174801.00,3721.9530524,N,07958.3894337,W,2,07,1.14,364.2714,M,-32.8285,M,1.0,0000*49"
15,0,0.000000,5.678340,"$GPGGA,174801.10,3721.9530654,N,07958.3894429,W,2,07,1.14,364.2593,M,-32.8285,M,1.1,0000*48"
16,0,0.000000,5.780497,"$GPGGA,174801.20,3721.9531002,N,07958.3894339,W,2,07,1.14,364.1776,M,-32.8285,M,1.2,0000*40"
17,0,0.000000,5.881402,"$GPGGA,174801.30,3721.9530619,N,07958.3895239,W,2,07,1.14,364.3424,M,-32.8285,M,1.3,0000*4B"
17,0,0.000000,5.981281,"$GPGGA,174801.40,3721.9530496,N,07958.3895516,W,2,07,1.14,364.3085,M,-32.8285,M,1.4,0000*4B"
18,0,0.000000,6.081763,"$GPGGA,174801.50,3721.9530737,N,07958.3895580,W,2,07,1.14,364.3976,M,-32.8285,M,0.9,0000*44"
19,0,0.000000,6.180206,"$GPGGA,174801.60,3721.9530759,N,07958.3895789,W,2,07,1.14,364.3426,M,-32.8285,M,1.0,0000*44"
20,0,0.000000,6.277692,"$GPGGA,174801.70,3721.9531015,N,07958.3895761,W,2,07,1.14,364.3747,M,-32.8285,M,1.1,0000*48"
20,0,0.000000,6.376594,"$GPGGA,174801.80,3721.9531129,N,07958.3895832,W,2,07,1.14,364.3642,M,-32.8285,M,1.2,0000*47"
21,0,0.000000,6.476254,"$GPGGA,174801.90,3721.9531244,N,07958.3896011,W,2,07,1.14,364.3392,M,-32.8285,M,1.3,0000*4D"
21,0,0.000000,6.610759,"$GPGGA,174802.00,3721.9532353,N,07958.3894989,W,2,07,1.14,364.1950,M,-32.8285,M,1.4,0000*48"
21,0,0.000000,6.680957,"$GPGGA,174802.10,3721.9532419,N,07958.3895120,W,2,07,1.14,364.1921,M,-32.8285,M,1.5,0000*4D"
21,0,0.000000,6.780705,"$GPGGA,174802.20,3721.9532516,N,07958.3895142,W,2,07,1.14,364.1878,M,-32.8285,M,1.6,0000*4A"
22,0,0.000000,6.882643,"$GPGGA,174802.30,3721.9532630,N,07958.3895087,W,2,07,1.14,364.1887,M,-32.8285,M,1.7,0000*45"
22,0,0.000000,6.976979,"$GPGGA,174802.40,3721.9532665,N,07958.3895132,W,2,07,1.14,364.1916,M,-32.8285,M,1.8,0000*4B"
22,0,0.000000,7.076533,"$GPGGA,174802.50,3721.9532684,N,07958.3895176,W,2,07,1.14,364.2027,M,-32.8285,M,0.7,0000*43"
22,0,0.000000,7.176596,"$GPGGA,174802.60,3721.9532900,N,07958.3895130,W,2,07,1.14,364.2038,M,-32.8285,M,0.8,0000*40"
22,0,0.000000,7.291760,"$GPGGA,174802.70,3721.9532962,N,07958.3895226,W,2,07,1.14,364.2072,M,-32.8285,M,0.9,0000*4E"
22,0,0.000000,7.380536,"$GPGGA,174802.80,3721.9532993,N,07958.3895278,W,2,07,1.14,364.2016,M,-32.8285,M,1.0,0000*4E"
22,0,0.000000,7.480341,"$GPGGA,174802.90,3721.9533047,N,07958.3895368,W,2,07,1.14,364.1993,M,-32.8285,M,1.1,0000*48"
22,0,0.000000,7.609164,"$GPGGA,174803.00,3721.9533085,N,07958.3895422,W,2,07,1.14,364.1964,M,-32.8285,M,1.2,0000*4C"
23,0,0.000000,7.875600,"$GPGGA,174803.30,3721.9533230,N,07958.3895526,W,2,07,1.14,364.2062,M,-32.8285,M,1.5,0000*4D"
23,0,0.000000,7.979683,"$GPGGA,174803.40,3721.9533296,N,07958.3895545,W,2,07,1.14,364.1995,M,-32.8285,M,1.6,0000*42"
24,0,0.000000,8.079218,"$GPGGA,174803.50,3721.9533265,N,07958.3895588,W,2,07,1.14,364.1981,M,-32.8285,M,0.5,0000*49"
24,0,0.000000,8.181068,"$GPGGA,174803.60,3721.9533227,N,07958.3895661,W,2,07,1.14,364.1893,M,-32.8285,M,0.6,0000*49"
24,0,0.000000,8.278465,"$GPGGA,174803.70,3721.9533164,N,07958.3895813,W,2,07,1.14,364.1991,M,-32.8285,M,0.7,0000*45"
24,0,0.000000,8.384037,"$GPGGA,174803.80,3721.9533169,N,07958.3896132,W,2,07,1.14,364.2214,M,-32.8285,M,0.8,0000*44"
25,0,0.000000,8.476606,"$GPGGA,174803.90,3721.9533229,N,07958.3896330,W,2,07,1.14,364.2304,M,-32.8285,M,0.9,0000*43"
25,0,0.000000,8.605373,"$GPGGA,174804.00,3721.9533373,N,07958.3896473,W,2,07,1.14,364.2227,M,-32.8285,M,1.0,0000*4B"
25,0,0.000000,8.679444,"$GPGGA,174804.10,3721.9533460,N,07958.3896474,W,2,07,1.14,364.2085,M,-32.8285,M,1.1,0000*43"
25,0,0.000000,8.778706,"$GPGGA,174804.20,3721.9533557,N,07958.3896468,W,2,07,1.14,364.1955,M,-32.8285,M,1.2,0000*4C"
25,0,0.000000,8.880000,"$GPGGA,174804.30,3721.9533555,N,07958.3896458,W,2,07,1.14,364.2033,M,-32.8285,M,1.3,0000*47"
25,0,0.000000,8.978578,"$GPGGA,174804.40,3721.9533484,N,07958.3896473,W,2,07,1.14,364.2133,M,-32.8285,M,1.4,0000*42"
26,0,0.000000,9.077072,"$GPGGA,174804.50,3721.9533498,N,07958.3896486,W,2,07,1.14,364.2035,M,-32.8285,M,0.9,0000*4F"
26,0,0.000000,9.175650,"$GPGGA,174804.60,3721.9533506,N,07958.3896466,W,2,07,1.14,364.2061,M,-32.8285,M,1.0,0000*4D"
26,0,0.000000,9.275470,"$GPGGA,174804.70,3721.9533573,N,07958.3896503,W,2,07,1.14,364.1878,M,-32.8285,M,1.1,0000*4E"
26,0,0.000000,9.379367,"$GPGGA,174804.80,3721.9533625,N,07958.3896524,W,2,07,1.14,364.1901,M,-32.8285,M,1.2,0000*48"
26,0,0.000000,9.479081,"$GPGGA,174804.90,3721.9533722,N,07958.3896557,W,2,07,1.14,364.1913,M,-32.8285,M,1.3,0000*49"
26,0,0.000000,9.608443,"$GPGGA,174805.00,3721.9533762,N,07958.3896575,W,2,07,1.14,364.1962,M,-32.8285,M,1.4,0000*44"
26,0,0.000000,9.680257,"$GPGGA,174805.10,3721.9533785,N,07958.3896547,W,2,07,1.14,364.1899,M,-32.8285,M,1.5,0000*49"
27,0,0.000000,10.279882,"$GPGGA,174805.70,3721.9533816,N,07958.3896538,W,2,05,1.44,364.2239,M,-32.8285,M,0.9,0000*4B"
27,0,0.000000,10.379656,"$GPGGA,174805.80,3721.9533802,N,07958.3896531,W,2,05,1.44,364.2201,M,-32.8285,M,1.0,0000*4B"
28,0,0.000000,10.675826,"$GPGGA,174806.10,3721.9533918,N,07958.3896777,W,2,05,1.44,364.2343,M,-32.8285,M,1.3,0000*4F"
28,0,0.000000,10.775177,"$GPGGA,174806.20,3721.9533961,N,07958.3896893,W,2,05,1.49,364.2563,M,-32.8285,M,1.4,0000*49"
28,0,0.000000,10.879388,"$GPGGA,174806.30,3721.9533962,N,07958.3897046,W,2,05,1.44,364.2680,M,-32.8285,M,1.5,0000*48"
28,0,0.000000,10.978975,"$GPGGA,174806.40,3721.9534059,N,07958.3897120,W,2,05,1.44,364.2724,M,-32.8285,M,1.6,0000*44"
28,0,0.000000,11.078949,"$GPGGA,174806.50,3721.9534089,N,07958.3897217,W,2,05,1.44,364.2699,M,-32.8285,M,0.5,0000*4A"
28,0,0.000000,11.177111,"$GPGGA,174806.60,3721.9534136,N,07958.3897285,W,2,05,1.44,364.2683,M,-32.8285,M,0.6,0000*4F"
28,0,0.000000,11.276042,"$GPGGA,174806.70,3721.9534157,N,07958.3897333,W,2,05,1.44,364.2661,M,-32.8285,M,0.7,0000*48"
28,0,0.000000,11.382216,"$GPGGA,174806.80,3721.9534162,N,07958.3897411,W,2,05,1.44,364.2565,M,-32.8285,M,0.8,0000*4E"
28,0,0.000000,11.475768,"$GPGGA,174806.90,3721.9534203,N,07958.3897490,W,2,05,1.44,364.2586,M,-32.8285,M,0.9,0000*4E"
29,0,0.000000,11.680696,"$GPGGA,174807.10,3721.9534217,N,07958.3897541,W,2,05,1.44,364.2697,M,-32.8285,M,1.1,0000*45"
29,0,0.000000,11.779798,"$GPGGA,174807.20,3721.9534273,N,07958.3897620,W,2,05,1.44,364.2840,M,-32.8285,M,1.2,0000*47"
30,0,0.000000,11.877125,"$GPGGA,174807.30,3721.9534364,N,07958.3897686,W,2,05,1.44,364.3007,M,-32.8285,M,1.3,0000*46"
30,0,0.000000,11.975434,"$GPGGA,174807.40,3721.9534367,N,07958.3897720,W,2,05,1.44,364.2912,M,-32.8285,M,1.4,0000*44"
30,0,0.000000,12.076046,"$GPGGA,174807.50,3721.9534338,N,07958.3897677,W,2,05,1.44,364.2767,M,-32.8285,M,0.9,0000*4C"
31,0,0.000000,12.175593,"$GPGGA,174807.60,3721.9534320,N,07958.3897562,W,2,05,1.44,364.2545,M,-32.8285,M,1.0,0000*4B"
31,0,0.000000,12.279208,"$GPGGA,174807.70,3721.9534322,N,07958.3897570,W,2,05,1.44,364.2391,M,-32.8285,M,1.1,0000*45"
31,0,0.000000,12.379185,"$GPGGA,174807.80,3721.9534298,N,07958.3897544,W,2,05,1.44,364.2361,M,-32.8285,M,1.2,0000*41"
33,0,0.000000,12.479041,"$GPGGA,174807.90,3721.9534275,N,07958.3897574,W,2,05,1.44,364.2277,M,-32.8285,M,1.3,0000*47"
35,0,0.000000,12.604648,"$GPGGA,174808.00,3721.9534273,N,07958.3897545,W,2,05,1.44,364.2187,M,-32.8285,M,1.4,0000*4E"
37,0,0.000000,12.676349,"$GPGGA,174808.10,3721.9534357,N,07958.3897468,W,2,05,1.44,364.2035,M,-32.8285,M,1.5,0000*4F"
38,0,0.000000,12.776153,"$GPGGA,174808.20,3721.9534473,N,07958.3897243,W,2,05,1.44,364.2130,M,-32.8285,M,1.6,0000*45"
40,0,0.000000,12.878988,"$GPGGA,174808.30,3721.9534913,N,07958.3897096,W,2,05,1.44,364.1403,M,-32.8285,M,1.7,0000*42"
41,0,0.000000,12.979795,"$GPGGA,174808.40,3721.9535029,N,07958.3897170,W,2,05,1.44,364.1506,M,-32.8285,M,1.8,0000*46"
42,0,0.000000,13.079902,"$GPGGA,174808.50,3721.9535172,N,07958.3897498,W,2,05,1.44,364.1636,M,-32.8285,M,0.7,0000*45"
44,0,0.000000,13.179102,"$GPGGA,174808.60,3721.9535278,N,07958.3897849,W,2,05,1.44,364.1874,M,-32.8285,M,0.8,0000*48"
46,0,0.000000,13.277482,"$GPGGA,174808.70,3721.9535494,N,07958.3898146,W,2,05,1.44,364.2236,M,-32.8285,M,0.9,0000*4A"
47,0,0.000000,13.375225,"$GPGGA,174808.80,3721.9535617,N,07958.3898868,W,2,05,1.44,364.3505,M,-32.8285,M,1.0,0000*47"
48,0,0.000000,13.475765,"$GPGGA,174808.90,3721.9535807,N,07958.3899173,W,2,05,1.44,364.3805,M,-32.8285,M,1.1,0000*47"
49,0,0.000000,13.607152,"$GPGGA,174809.00,3721.9536057,N,07958.3899689,W,2,05,1.44,364.4291,M,-32.8285,M,1.2,0000*40"
49,0,0.000000,13.681565,"$GPGGA,174809.10,3721.9536309,N,07958.3900093,W,2,05,1.44,364.5017,M,-32.8285,M,1.3,0000*49"
50,0,0.000000,13.779632,"$GPGGA,174809.20,3721.9536387,N,07958.3900419,W,2,05,1.44,364.5511,M,-32.8285,M,1.4,0000*4E"
50,0,0.000000,13.879219,"$GPGGA,174809.30,3721.9536478,N,07958.3900741,W,2,05,1.44,364.6080,M,-32.8285,M,1.5,0000*49"
51,0,0.000000,13.977925,"$GPGGA,174809.40,3721.9536602,N,07958.3900929,W,2,05,1.44,364.6402,M,-32.8285,M,1.6,0000*4C"
52,0,0.000000,14.077209,"$GPGGA,174809.50,3721.9536916,N,07958.3901197,W,2,05,1.49,364.7188,M,-32.8285,M,0.5,0000*42"
54,0,0.000000,14.176381,"$GPGGA,174809.60,3721.9537158,N,07958.3901647,W,2,06,1.30,364.7977,M,-32.8285,M,0.6,0000*4E"
55,0,0.000000,14.279964,"$GPGGA,174809.70,3721.9537391,N,07958.3901894,W,2,05,1.49,364.8409,M,-32.8285,M,0.7,0000*4F"
56,0,0.000000,14.378602,"$GPGGA,174809.80,3721.9537677,N,07958.3901992,W,2,05,1.49,364.8323,M,-32.8285,M,0.8,0000*4A"
57,0,0.000000,14.479478,"$GPGGA,174809.90,3721.9537862,N,07958.3901812,W,2,05,1.49,364.7797,M,-32.8285,M,0.9,0000*4D"
58,0,0.000000,14.607176,"$GPGGA,174810.00,3721.9538004,N,07958.3901745,W,2,06,1.19,364.7793,M,-32.8285,M,1.0,0000*4C"
58,0,0.000000,14.678622,"$GPGGA,174810.10,3721.9538063,N,07958.3901845,W,2,06,1.19,364.7819,M,-32.8285,M,1.1,0000*4F"
59,0,0.000000,14.776347,"$GPGGA,174810.20,3721.9538070,N,07958.3901855,W,2,06,1.19,364.7528,M,-32.8285,M,1.2,0000*43"
59,0,0.000000,14.875120,"$GPGGA,174810.30,3721.9538064,N,07958.3902082,W,2,05,1.63,364.7713,M,-32.8285,M,1.3,0000*43"
60,0,0.000000,14.975619,"$GPGGA,174810.40,3721.9538041,N,07958.3902486,W,2,06,1.19,364.8279,M,-32.8285,M,1.4,0000*4C"
60,0,0.000000,15.078719,"$GPGGA,174810.50,3721.9538201,N,07958.3902799,W,2,06,1.19,364.8238,M,-32.8285,M,0.9,0000*4F"
61,0,0.000000,15.180223,"$GPGGA,174810.60,3721.9538228,N,07958.3902976,W,2,06,1.19,364.8293,M,-32.8285,M,1.0,0000*41"
61,0,0.000000,15.279488,"$GPGGA,174810.70,3721.9538308,N,07958.3903067,W,2,06,1.19,364.8279,M,-32.8285,M,1.1,0000*4E"
61,0,0.000000,15.377822,"$GPGGA,174810.80,3721.9538413,N,07958.3903114,W,2,05,1.63,364.8220,M,-32.8285,M,1.2,0000*48"
61,0,0.000000,15.476567,"$GPGGA,174810.90,3721.9538548,N,07958.3903204,W,2,05,1.63,364.7994,M,-32.8285,M,1.3,0000*4E"
61,0,0.000000,15.603431,"$GPGGA,174811.00,3721.9538763,N,07958.3903278,W,2,05,1.63,364.7902,M,-32.8285,M,1.4,0000*4E"
61,0,0.000000,15.680041,"$GPGGA,174811.10,3721.9538796,N,07958.3903417,W,2,05,1.63,364.7829,M,-32.8285,M,1.5,0000*43"
63,0,0.000000,15.779520,"$GPGGA,174811.20,3721.9538882,N,07958.3903586,W,2,05,1.63,364.7730,M,-32.8285,M,1.6,0000*47"
63,0,0.000000,15.879648,"$GPGGA,174811.30,3721.9538936,N,07958.3903729,W,2,05,1.63,364.7501,M,-32.8285,M,1.7,0000*4E"
63,0,0.000000,15.979841,"$GPGGA,174811.40,3721.9538983,N,07958.3903810,W,2,05,1.63,364.7539,M,-32.8285,M,1.8,0000*46"
64,0,0.000000,16.078507,"$GPGGA,174811.50,3721.9539049,N,07958.3903852,W,2,05,1.63,364.7642,M,-32.8285,M,0.7,0000*4E"
65,0,0.000000,16.176127,"$GPGGA,174811.60,3721.9539105,N,07958.3903818,W,2,05,1.63,364.7647,M,-32.8285,M,0.8,0000*40"
66,0,0.000000,16.275602,"$GPGGA,174811.70,3721.9539367,N,07958.3903747,W,2,05,1.63,364.7611,M,-32.8285,M,0.9,0000*40"
67,0,0.000000,16.375914,"$GPGGA,174811.80,3721.9539457,N,07958.3903686,W,2,05,1.63,364.7647,M,-32.8285,M,1.0,0000*4C"
68,0,0.000000,16.479976,"$GPGGA,174811.90,3721.9539445,N,07958.3903748,W,2,05,1.63,364.7621,M,-32.8285,M,1.1,0000*4C"
69,0,0.000000,16.606305,"$GPGGA,174812.00,3721.9539530,N,07958.3903841,W,2,05,1.63,364.7733,M,-32.8285,M,1.2,0000*42"
69,0,0.000000,16.682065,"$GPGGA,174812.10,3721.9539690,N,07958.3903919,W,2,05,1.63,364.7534,M,-32.8285,M,1.3,0000*42"
70,0,0.000000,16.780934,"$GPGGA,174812.20,3721.9539839,N,07958.3904072,W,2,05,1.63,364.7307,M,-32.8285,M,1.4,0000*4E"
71,0,0.000000,16.876677,"$GPGGA,174812.30,3721.9539896,N,07958.3904282,W,2,05,1.63,364.7395,M,-32.8285,M,1.5,0000*4D"
73,0,0.000000,16.977136,"$GPGGA,174812.40,3721.9539937,N,07958.3904685,W,2,05,1.63,364.7321,M,-32.8285,M,1.6,0000*4F"
74,0,0.000000,17.076286,"$GPGGA,174812.50,3721.9540155,N,07958.3905127,W,2,05,1.63,364.7705,M,-32.8285,M,0.5,0000*42"
76,0,0.000000,17.179849,"$GPGGA,174812.60,3721.9540275,N,07958.3905275,W,2,05,1.63,364.7853,M,-32.8285,M,0.6,0000*4B"
78,0,0.000000,17.282045,"$GPGGA,174812.70,3721.9540497,N,07958.3905471,W,2,05,1.63,364.7870,M,-32.8285,M,0.7,0000*42"
78,0,0.000000,17.379104,"$GPGGA,174812.80,3721.9540801,N,07958.3905460,W,2,05,1.63,364.7187,M,-32.8285,M,0.8,0000*40"
78,0,0.000000,17.478297,"$GPGGA,174812.90,3721.9541015,N,07958.3905427,W,2,05,1.63,364.7813,M,-32.8285,M,0.9,0000*4B"
78,0,0.000000,17.603074,"$GPGGA,174813.00,3721.9541159,N,07958.3905509,W,2,05,1.63,364.7990,M,-32.8285,M,1.0,0000*45"
78,0,0.000000,17.675868,"$GPGGA,174813.10,3721.9541226,N,07958.3905567,W,2,05,1.63,364.7957,M,-32.8285,M,1.1,0000*4D"
78,0,0.000000,17.775644,"$GPGGA,174813.20,3721.9541224,N,07958.3905505,W,2,05,1.63,364.7941,M,-32.8285,M,1.2,0000*4C"
80,0,0.000000,17.879820,"$GPGGA,174813.30,3721.9541152,N,07958.3905488,W,2,05,1.63,364.7768,M,-32.8285,M,1.3,0000*4F"
80,0,0.000000,17.979032,"$GPGGA,174813.40,3721.9541196,N,07958.3905528,W,2,05,1.63,364.7903,M,-32.8285,M,1.4,0000*4F"
80,0,0.000000,18.079341,"$GPGGA,174813.50,3721.9541296,N,07958.3905568,W,2,05,1.63,364.7893,M,-32.8285,M,0.9,0000*4D"
81,0,0.000000,18.179748,"$GPGGA,174813.60,3721.9541481,N,07958.3905609,W,2,05,1.63,364.7811,M,-32.8285,M,1.0,0000*48"
82,0,0.000000,18.276386,"$GPGGA,174813.70,3721.9541649,N,07958.3905718,W,2,05,1.63,364.7945,M,-32.8285,M,1.1,0000*4F"
83,0,0.000000,18.376537,"$GPGGA,174813.80,3721.9541793,N,07958.3905784,W,2,05,1.63,364.8101,M,-32.8285,M,1.2,0000*47"
84,0,0.000000,18.476211,"$GPGGA,174813.90,3721.9542064,N,07958.3905953,W,2,05,1.63,364.7744,M,-32.8285,M,1.3,0000*47"
84,0,0.000000,18.606812,"$GPGGA,174814.00,3721.9542287,N,07958.3906008,W,2,05,1.63,364.7776,M,-32.8285,M,1.4,0000*44"
86,0,0.000000,18.680180,"$GPGGA,174814.10,3721.9542668,N,07958.3905849,W,2,05,1.63,364.7519,M,-32.8285,M,1.5,0000*44"
86,0,0.000000,18.779681,"$GPGGA,174814.20,3721.9542749,N,07958.3905972,W,2,05,1.63,364.7892,M,-32.8285,M,1.6,0000*41"
87,0,0.000000,18.878589,"$GPGGA,174814.30,3721.9542969,N,07958.3906080,W,2,05,1.63,364.8324,M,-32.8285,M,1.7,0000*43"
87,0,0.000000,18.976228,"$GPGGA,174814.40,3721.9543128,N,07958.3906158,W,2,05,1.63,364.8483,M,-32.8285,M,1.8,0000*49"
88,0,0.000000,19.075874,"$GPGGA,174814.50,3721.9543289,N,07958.3906393,W,2,05,1.63,364.8546,M,-32.8285,M,0.7,0000*43"
89,0,0.000000,19.176737,"$GPGGA,174814.60,3721.9543403,N,07958.3906818,W,2,05,1.63,364.8013,M,-32.8285,M,0.8,0000*46"
90,0,0.000000,19.279073,"$GPGGA,174814.70,3721.9543395,N,07958.3906973,W,2,05,1.63,364.8210,M,-32.8285,M,0.9,0000*43"
90,0,0.000000,19.379340,"$GPGGA,174814.80,3721.9543484,N,07958.3907148,W,2,05,1.63,364.8357,M,-32.8285,M,1.0,0000*40"
91,0,0.000000,19.479003,"$GPGGA,174814.90,3721.9543579,N,07958.3907257,W,2,05,1.63,364.8541,M,-32.8285,M,1.1,0000*4F"
91,0,0.000000,19.605854,"$GPGGA,174815.00,3721.9543733,N,07958.3907310,W,2,05,1.63,364.8438,M,-32.8285,M,1.2,0000*45"
91,0,0.000000,19.677245,"$GPGGA,174815.10,3721.9543918,N,07958.3907275,W,2,05,1.63,364.8430,M,-32.8285,M,1.3,0000*48"
91,0,0.000000,19.780519,"$GPGGA,174815.20,3721.9544119,N,07958.3907238,W,2,05,1.63,364.8245,M,-32.8285,M,1.4,0000*4F"
91,0,0.000000,19.876076,"$GPGGA,174815.30,3721.9544195,N,07958.3907269,W,2,05,1.63,364.8120,M,-32.8285,M,1.5,0000*4F"
91,0,0.000000,19.979149,"$GPGGA,174815.40,3721.9544169,N,07958.3907337,W,2,05,1.63,364.8015,M,-32.8285,M,1.6,0000*45"
91,0,0.000000,20.079720,"$GPGGA,174815.50,3721.9544177,N,07958.3907373,W,2,05,1.63,364.8010,M,-32.8285,M,0.5,0000*4C"
91,0,0.000000,20.178787,"$GPGGA,174815.60,3721.9544008,N,07958.3907367,W,2,05,1.63,364.8187,M,-32.8285,M,0.6,0000*4F"
91,0,0.000000,20.283286,"$GPGGA,174815.70,3721.9543799,N,07958.3907415,W,2,05,1.63,364.8546,M,-32.8285,M,0.7,0000*4C"
91,0,0.000000,20.375985,"$GPGGA,174815.80,3721.9543684,N,07958.3907343,W,2,05,1.63,364.8452,M,-32.8285,M,0.8,0000*41"
91,0,0.000000,20.475633,"$GPGGA,174815.90,3721.9543588,N,07958.3907253,W,2,05,1.63,364.8511,M,-32.8285,M,0.9,0000*48"
93,0,0.000000,22.079600,"$GPGGA,174817.50,3721.9543341,N,07958.3908414,W,2,05,1.63,364.8508,M,-32.8285,M,0.7,0000*49"
93,0,0.000000,22.181674,"$GPGGA,174817.60,3721.9543354,N,07958.3908517,W,2,05,1.63,364.8783,M,-32.8285,M,0.8,0000*42"
94,0,0.000000,22.279256,"$GPGGA,174817.70,3721.9543339,N,07958.3908687,W,2,05,1.63,364.8820,M,-32.8285,M,0.9,0000*45"
95,0,0.000000,22.380084,"$GPGGA,174817.80,3721.9543412,N,07958.3908730,W,2,05,1.63,364.9495,M,-32.8285,M,1.0,0000*42"
95,0,0.000000,22.477225,"$GPGGA,174817.90,3721.9543755,N,07958.3909254,W,2,05,1.64,364.8079,M,-32.8285,M,1.1,0000*44"
96,0,0.000000,22.603633,"$GPGGA,174818.00,3721.9543835,N,07958.3909359,W,2,05,1.64,364.8031,M,-32.8285,M,1.2,0000*48"
96,0,0.000000,22.675797,"$GPGGA,174818.10,3721.9543860,N,07958.3909371,W,2,05,1.64,364.7911,M,-32.8285,M,1.3,0000*46"
96,0,0.000000,22.779589,"$GPGGA,174818.20,3721.9543946,N,07958.3909565,W,2,05,1.64,364.8342,M,-32.8285,M,1.4,0000*47"
96,0,0.000000,22.880000,"$GPGGA,174818.30,3721.9543911,N,07958.3909618,W,2,05,1.64,364.8251,M,-32.8285,M,1.5,0000*4F"
96,0,0.000000,22.979015,"$GPGGA,174818.40,3721.9543859,N,07958.3909646,W,2,05,1.49,364.8291,M,-32.8285,M,1.6,0000*4E"
96,0,0.000000,23.078261,"$GPGGA,174818.50,3721.9543729,N,07958.3909592,W,2,05,1.49,364.8127,M,-32.8285,M,0.5,0000*41"
97,0,0.000000,23.177684,"$GPGGA,174818.60,3721.9543528,N,07958.3909410,W,2,05,1.64,364.8146,M,-32.8285,M,0.6,0000*41"
97,0,0.000000,23.277147,"$GPGGA,174818.70,3721.9543502,N,07958.3909362,W,2,05,1.64,364.8024,M,-32.8285,M,0.7,0000*4E"
97,0,0.000000,23.376746,"$GPGGA,174818.80,3721.9543464,N,07958.3909379,W,2,05,1.64,364.8050,M,-32.8285,M,0.8,0000*46"
97,0,0.000000,23.479654,"$GPGGA,174818.90,3721.9543516,N,07958.3909685,W,2,05,1.64,364.8041,M,-32.8285,M,0.9,0000*44"
98,0,0.000000,23.606485,"$GPGGA,174819.00,3721.9543640,N,07958.3909955,W,2,05,1.64,364.8069,M,-32.8285,M,1.0,0000*4C"
98,0,0.000000,23.679197,"$GPGGA,174819.10,3721.9543629,N,07958.3910015,W,2,05,1.64,364.8002,M,-32.8285,M,1.1,0000*4B"
98,0,0.000000,23.779338,"$GPGGA,174819.20,3721.9543591,N,07958.3910183,W,2,05,1.64,364.8105,M,-32.8285,M,1.2,0000*43"
98,0,0.000000,23.876674,"$GPGGA,174819.30,3721.9543589,N,07958.3910381,W,2,05,1.64,364.8126,M,-32.8285,M,1.3,0000*4B"
99,0,0.000000,23.975754,"$GPGGA,174819.40,3721.9543606,N,07958.3910687,W,2,05,1.64,364.8073,M,-32.8285,M,1.4,0000*4D"
100,0,0.000000,24.076358,"$GPGGA,174819.50,3721.9543782,N,07958.3910901,W,2,04,4.79,364.7854,M,-32.8285,M,0.9,0000*46"
101,0,0.000000,24.175056,"$GPGGA,174819.60,3721.9543841,N,07958.3910803,W,2,04,4.79,364.7092,M,-32.8285,M,1.0,0000*4C"
102,0,0.000000,24.278708,"$GPGGA,174819.70,3721.9543868,N,07958.3911038,W,2,04,4.79,364.7182,M,-32.8285,M,1.1,0000*46"
102,0,0.000000,24.378423,"$GPGGA,174819.80,3721.9543798,N,07958.3911905,W,2,04,4.79,364.8916,M,-32.8285,M,1.2,0000*47"
103,0,0.000000,24.478690,"$GPGGA,174819.90,3721.9543848,N,07958.3911792,W,2,04,4.79,364.8048,M,-32.8285,M,1.3,0000*47"
104,0,0.000000,24.603926,"$GPGGA,174820.00,3721.9543806,N,07958.3912047,W,2,04,4.79,364.8178,M,-32.8285,M,1.4,0000*47"
105,0,0.000000,24.675369,"$GPGGA,174820.10,3721.9543807,N,07958.3912242,W,2,04,4.79,364.7811,M,-32.8285,M,1.5,0000*48"
106,0,0.000000,24.776760,"$GPGGA,174820.20,3721.9543805,N,07958.3912450,W,2,04,4.79,364.7707,M,-32.8285,M,1.6,0000*47"
107,0,0.000000,24.878674,"$GPGGA,174820.30,3721.9544016,N,07958.3912559,W,2,04,4.79,364.6506,M,-32.8285,M,1.7,0000*40"
108,0,0.000000,24.978602,"$GPGGA,174820.40,3721.9543948,N,07958.3912869,W,2,04,4.79,364.7072,M,-32.8285,M,1.8,0000*44"
109,0,0.000000,25.078652,"$GPGGA,174820.50,3721.9543927,N,07958.3913184,W,2,04,4.79,364.7628,M,-32.8285,M,0.7,0000*40"
109,0,0.000000,25.179519,"$GPGGA,174820.60,3721.9543935,N,07958.3913317,W,2,04,4.79,364.7798,M,-32.8285,M,0.8,0000*4D"
110,0,0.000000,25.276666,"$GPGGA,174820.70,3721.9543921,N,07958.3913521,W,2,04,4.79,364.8000,M,-32.8285,M,0.9,0000*42"
110,0,0.000000,25.375514,"$GPGGA,174820.80,3721.9543909,N,07958.3913624,W,2,04,4.80,364.7938,M,-32.8285,M,1.0,0000*42"
111,0,0.000000,25.475268,"$GPGGA,174820.90,3721.9543874,N,07958.3913680,W,2,04,4.80,364.7963,M,-32.8285,M,1.1,0000*49"
111,0,0.000000,25.602155,"$GPGGA,174821.00,3721.9543939,N,07958.3913842,W,2,04,4.80,364.7514,M,-32.8285,M,1.2,0000*46"
111,0,0.000000,25.679838,"$GPGGA,174821.10,3721.9544005,N,07958.3913878,W,2,04,4.80,364.7295,M,-32.8285,M,1.3,0000*40"
111,0,0.000000,25.778742,"$GPGGA,174821.20,3721.9544008,N,07958.3913991,W,2,04,4.80,364.7358,M,-32.8285,M,1.4,0000*4F"
111,0,0.000000,25.878846,"$GPGGA,174821.30,3721.9544010,N,07958.3914207,W,2,04,4.80,364.7470,M,-32.8285,M,1.5,0000*48"
111,0,0.000000,25.976661,"$GPGGA,174821.40,3721.9544000,N,07958.3914213,W,2,04,4.80,364.7573,M,-32.8285,M,1.6,0000*4A"
112,0,0.000000,26.074820,"$GPGGA,174821.50,3721.9544011,N,07958.3914296,W,2,04,4.80,364.7636,M,-32.8285,M,0.5,0000*46"
112,0,0.000000,26.175967,"$GPGGA,174821.60,3721.9543989,N,07958.3914357,W,2,04,4.80,364.7639,M,-32.8285,M,0.6,0000*4A"
113,0,0.000000,26.278308,"$GPGGA,174821.70,3721.9543966,N,07958.3914381,W,2,04,4.80,364.7755,M,-32.8285,M,0.7,0000*4B"
113,0,0.000000,26.378821,"$GPGGA,174821.80,3721.9543974,N,07958.3914455,W,2,04,4.80,364.7760,M,-32.8285,M,0.8,0000*40"
113,0,0.000000,26.478085,"$GPGGA,174821.90,3721.9543970,N,07958.3914547,W,2,04,4.80,364.7850,M,-32.8285,M,0.9,0000*4A"
113,0,0.000000,26.605315,"$GPGGA,174822.00,3721.9543989,N,07958.3914580,W,2,04,4.80,364.7783,M,-32.8285,M,1.0,0000*44"
114,0,0.000000,26.678629,"$GPGGA,174822.10,3721.9544082,N,07958.3914689,W,2,04,4.80,364.7566,M,-32.8285,M,1.1,0000*42"
114,0,0.000000,26.774961,"$GPGGA,174822.20,3721.9544123,N,07958.3914725,W,2,04,4.81,364.7444,M,-32.8285,M,1.2,0000*4F"
115,0,0.000000,26.875002,"$GPGGA,174822.30,3721.9544174,N,07958.3914788,W,2,04,4.81,364.7369,M,-32.8285,M,1.3,0000*42"
115,0,0.000000,26.974693,"$GPGGA,174822.40,3721.9544214,N,07958.3914870,W,2,04,4.81,364.7171,M,-32.8285,M,1.4,0000*44"
116,0,0.000000,27.078712,"$GPGGA,174822.50,3721.9544258,N,07958.3914992,W,2,04,4.81,364.7191,M,-32.8285,M,0.9,0000*42"
117,0,0.000000,27.178613,"$GPGGA,174822.60,3721.9544286,N,07958.3915116,W,2,04,4.81,364.7313,M,-32.8285,M,1.0,0000*47"
117,0,0.000000,27.278160,"$GPGGA,174822.70,3721.9544237,N,07958.3915289,W,2,04,4.81,364.7582,M,-32.8285,M,1.1,0000*46"
118,0,0.000000,27.376587,"$GPGGA,174822.80,3721.9544179,N,07958.3915489,W,2,04,4.81,364.7473,M,-32.8285,M,1.2,0000*4A"
118,0,0.000000,27.474651,"$GPGGA,174822.90,3721.9544285,N,07958.3915634,W,2,04,4.81,364.7027,M,-32.8285,M,1.3,0000*4B"
119,0,0.000000,27.602906,"$GPGGA,174823.00,3721.9544261,N,07958.3915739,W,2,04,4.81,364.6898,M,-32.8285,M,1.4,0000*4F"
119,0,0.000000,27.675168,"$GPGGA,174823.10,3721.9544304,N,07958.3915803,W,2,04,4.81,364.6644,M,-32.8285,M,1.5,0000*44"
120,0,0.000000,27.778230,"$GPGGA,174823.20,3721.9544289,N,07958.3915897,W,2,04,4.81,364.6664,M,-32.8285,M,1.6,0000*4F"
121,0,0.000000,27.878568,"$GPGGA,174823.30,3721.9544284,N,07958.3915921,W,2,04,4.81,364.6332,M,-32.8285,M,1.7,0000*48"
122,0,0.000000,27.978991,"$GPGGA,174823.40,3721.9544299,N,07958.3915793,W,2,04,4.81,364.5431,M,-32.8285,M,1.8,0000*4C"
123,0,0.000000,28.073861,"$GPGGA,174823.50,3721.9544154,N,07958.3916819,W,1,09,1.23,364.7802,M,-32.8285,M,,*6B"
124,0,0.000000,28.171857,"$GPGGA,174823.60,3721.9544147,N,07958.3917016,W,1,09,1.23,364.7836,M,-32.8285,M,,*6B"
125,0,0.000000,28.272066,"$GPGGA,174823.70,3721.9544157,N,07958.3917213,W,1,09,1.23,364.7906,M,-32.8285,M,,*6E"
126,0,0.000000,28.376078,"$GPGGA,174823.80,3721.9544127,N,07958.3917594,W,1,09,1.23,364.7862,M,-32.8285,M,,*6D"
126,0,0.000000,28.475072,"$GPGGA,174823.90,3721.9544189,N,07958.3917760,W,1,09,1.23,364.7557,M,-32.8285,M,,*6A"
127,0,0.000000,28.628699,"$GPGGA,174824.00,3721.9544286,N,07958.3917075,W,1,09,1.23,364.5516,M,-32.8285,M,,*6C"
127,0,0.000000,28.696508,"$GPGGA,174824.10,3721.9544335,N,07958.3917166,W,1,09,1.23,364.5542,M,-32.8285,M,,*66"
129,0,0.000000,28.772762,"$GPGGA,174824.20,3721.9544316,N,07958.3917295,W,1,09,1.23,364.5560,M,-32.8285,M,,*6B"
130,0,0.000000,28.872214,"$GPGGA,174824.30,3721.9544326,N,07958.3917409,W,1,09,1.23,364.5315,M,-32.8285,M,,*6E"
131,0,0.000000,28.971744,"$GPGGA,174824.40,3721.9544255,N,07958.3917760,W,1,09,1.23,364.5175,M,-32.8285,M,,*64"
132,0,0.000000,29.071458,"$GPGGA,174824.50,3721.9544366,N,07958.3917999,W,1,08,1.29,364.4844,M,-32.8285,M,,*6D"
133,0,0.000000,29.174474,"$GPGGA,174824.60,3721.9544382,N,07958.3918256,W,1,09,1.23,364.4834,M,-32.8285,M,,*6F"
134,0,0.000000,29.274473,"$GPGGA,174824.70,3721.9544540,N,07958.3918623,W,1,09,1.23,364.4986,M,-32.8285,M,,*68"
135,0,0.000000,29.374399,"$GPGGA,174824.80,3721.9544578,N,07958.3918800,W,1,09,1.23,364.4981,M,-32.8285,M,,*64"
135,0,0.000000,29.473274,"$GPGGA,174824.90,3721.9544625,N,07958.3918996,W,1,09,1.23,364.4901,M,-32.8285,M,,*68"
136,0,0.000000,29.623559,"$GPGGA,174825.00,3721.9544708,N,07958.3919189,W,1,08,1.29,364.4871,M,-32.8285,M,,*64"
137,0,0.000000,29.691324,"$GPGGA,174825.10,3721.9544700,N,07958.3919236,W,1,09,1.23,364.4715,M,-32.8285,M,,*6C"
137,0,0.000000,29.770880,"$GPGGA,174825.20,3721.9544654,N,07958.3919353,W,1,09,1.23,364.4842,M,-32.8285,M,,*60"
137,0,0.000000,29.874284,"$GPGGA,174825.30,3721.9544547,N,07958.3919520,W,1,09,1.23,364.4918,M,-32.8285,M,,*6C"
137,0,0.000000,29.974610,"$GPGGA,174825.40,3721.9544463,N,07958.3919697,W,1,09,1.23,364.5113,M,-32.8285,M,,*61"
138,0,0.000000,30.074829,"$GPGGA,174825.50,3721.9544444,N,07958.3919839,W,1,09,1.23,364.5162,M,-32.8285,M,,*69"
139,0,0.000000,30.173177,"$GPGGA,174825.60,3721.9544485,N,07958.3920002,W,1,09,1.23,364.5320,M,-32.8285,M,,*69"
139,0,0.000000,30.270805,"$GPGGA,174825.70,3721.9544573,N,07958.3920176,W,1,09,1.23,364.5254,M,-32.8285,M,,*60"
140,0,0.000000,30.371618,"$GPGGA,174825.80,3721.9544697,N,07958.3920358,W,1,09,1.23,364.5186,M,-32.8285,M,,*64"
140,0,0.000000,30.471802,"$GPGGA,174825.90,3721.9544749,N,07958.3920612,W,1,09,1.23,364.5492,M,-32.8285,M,,*6C"
141,0,0.000000,30.628154,"$GPGGA,174826.00,3721.9544767,N,07958.3920791,W,1,09,1.23,364.5473,M,-32.8285,M,,*6F"
141,0,0.000000,30.696004,"$GPGGA,174826.10,3721.9544855,N,07958.3920853,W,1,09,1.23,364.5171,M,-32.8285,M,,*66"
141,0,0.000000,30.774195,"$GPGGA,174826.20,3721.9544835,N,07958.3920908,W,1,09,1.23,364.5051,M,-32.8285,M,,*6F"
141,0,0.000000,30.873582,"$GPGGA,174826.30,3721.9544510,N,07958.3921409,W,1,09,1.23,364.5698,M,-32.8285,M,,*6A"
142,0,0.000000,30.971200,"$GPGGA,174826.40,3721.9544535,N,07958.3921412,W,1,09,1.23,364.5443,M,-32.8285,M,,*64"
143,0,0.000000,31.070852,"$GPGGA,174826.50,3721.9544551,N,07958.3921521,W,1,09,1.23,364.5563,M,-32.8285,M,,*65"
143,0,0.000000,31.170716,"$GPGGA,174826.60,3721.9544579,N,07958.3921473,W,1,09,1.23,364.5436,M,-32.8285,M,,*6B"
144,0,0.000000,31.275085,"$GPGGA,174826.70,3721.9544626,N,07958.3921559,W,1,09,1.23,364.5258,M,-32.8285,M,,*64"
144,0,0.000000,31.374919,"$GPGGA,174826.80,3721.9544776,N,07958.3921569,W,1,09,1.23,364.4706,M,-32.8285,M,,*63"
145,0,0.000000,31.475835,"$GPGGA,174826.90,3721.9544924,N,07958.3921799,W,1,09,1.23,364.4694,M,-32.8285,M,,*6C"
146,0,0.000000,31.626722,"$GPGGA,174827.00,3721.9544933,N,07958.3921935,W,1,09,1.23,364.4883,M,-32.8285,M,,*62"
147,0,0.000000,31.694479,"$GPGGA,174827.10,3721.9544966,N,07958.3922225,W,1,09,1.23,364.5284,M,-32.8285,M,,*66"
148,0,0.000000,31.772112,"$GPGGA,174827.20,3721.9544938,N,07958.3922369,W,1,09,1.23,364.5464,M,-32.8285,M,,*6F"
149,0,0.000000,31.871647,"$GPGGA,174827.30,3721.9544906,N,07958.3922526,W,1,09,1.23,364.5416,M,-32.8285,M,,*6B"
149,0,0.000000,31.974715,"$GPGGA,174827.40,3721.9544990,N,07958.3922710,W,1,09,1.23,364.4754,M,-32.8285,M,,*60"
150,0,0.000000,32.074021,"$GPGGA,174827.50,3721.9545073,N,07958.3922847,W,1,09,1.23,364.4515,M,-32.8285,M,,*6E"
151,0,0.000000,32.174635,"$GPGGA,174827.60,3721.9545083,N,07958.3923046,W,1,09,1.23,364.4551,M,-32.8285,M,,*6A"
152,0,0.000000,32.273720,"$GPGGA,174827.70,3721.9545108,N,07958.3923445,W,1,10,1.04,364.5377,M,-32.8285,M,,*60"
153,0,0.000000,32.371502,"$GPGGA,174827.80,3721.9545172,N,07958.3923582,W,1,10,1.04,364.5426,M,-32.8285,M,,*6B"
154,0,0.000000,32.471312,"$GPGGA,174827.90,3721.9545155,N,07958.3923837,W,1,10,1.04,364.5487,M,-32.8285,M,,*67"
155,0,0.000000,32.625305,"$GPGGA,174828.00,3721.9545278,N,07958.3924020,W,1,10,1.04,364.5236,M,-32.8285,M,,*68"
155,0,0.000000,32.693041,"$GPGGA,174828.10,3721.9545442,N,07958.3923988,W,1,10,1.04,364.5256,M,-32.8285,M,,*6C"
156,0,0.000000,32.774364,"$GPGGA,174828.20,3721.9545402,N,07958.3924377,W,1,10,1.04,364.5552,M,-32.8285,M,,*65"
156,0,0.000000,32.874536,"$GPGGA,174828.30,3721.9545453,N,07958.3924557,W,1,10,1.04,364.6048,M,-32.8285,M,,*69"
157,0,0.000000,32.973900,"$GPGGA,174828.40,3721.9545489,N,07958.3924484,W,1,10,1.04,364.5929,M,-32.8285,M,,*6B"
157,0,0.000000,33.071901,"$GPGGA,174828.50,3721.9545521,N,07958.3924629,W,1,10,1.04,364.6021,M,-32.8285,M,,*6E"
158,0,0.000000,33.172106,"$GPGGA,174828.60,3721.9545556,N,07958.3924680,W,1,10,1.04,364.6009,M,-32.8285,M,,*64"
158,0,0.000000,33.271593,"$GPGGA,174828.70,3721.9545594,N,07958.3924753,W,1,10,1.04,364.5957,M,-32.8285,M,,*65"
159,0,0.000000,33.375640,"$GPGGA,174828.80,3721.9545546,N,07958.3925033,W,1,10,1.04,364.5580,M,-32.8285,M,,*63"
160,0,0.000000,33.484894,"$GPGGA,174828.90,3721.9545581,N,07958.3925272,W,1,10,1.04,364.5616,M,-32.8285,M,,*62"
162,0,0.000000,33.629339,"$GPGGA,174829.00,3721.9545594,N,07958.3925508,W,1,10,1.04,364.5754,M,-32.8285,M,,*63"
163,0,0.000000,33.697370,"$GPGGA,174829.10,3721.9545703,N,07958.3925746,W,1,10,1.04,364.5618,M,-32.8285,M,,*6F"
164,0,0.000000,33.771788,"$GPGGA,174829.20,3721.9545789,N,07958.3925850,W,1,10,1.04,364.5407,M,-32.8285,M,,*6A"
165,0,0.000000,33.871317,"$GPGGA,174829.30,3721.9545871,N,07958.3925985,W,1,10,1.04,364.5285,M,-32.8285,M,,*66"
166,0,0.000000,33.971355,"$GPGGA,174829.40,3721.9545951,N,07958.3925897,W,1,10,1.04,364.4553,M,-32.8285,M,,*6D"
166,0,0.000000,34.074710,"$GPGGA,174829.50,3721.9545960,N,07958.3926095,W,1,10,1.04,364.4591,M,-32.8285,M,,*69"
167,0,0.000000,34.174795,"$GPGGA,174829.60,3721.9546037,N,07958.3926287,W,1,10,1.04,364.4856,M,-32.8285,M,,*65"
168,0,0.000000,34.274662,"$GPGGA,174829.70,3721.9546130,N,07958.3926553,W,1,10,1.04,364.4993,M,-32.8285,M,,*64"
169,0,0.000000,34.373992,"$GPGGA,174829.80,3721.9546221,N,07958.3926682,W,1,10,1.04,364.4685,M,-32.8285,M,,*6F"
170,0,0.000000,34.472276,"$GPGGA,174829.90,3721.9546545,N,07958.3926935,W,1,10,1.04,364.3344,M,-32.8285,M,,*67"
172,0,0.000000,34.624967,"$GPGGA,174830.00,3721.9546598,N,07958.3927727,W,1,09,1.17,364.5233,M,-32.8285,M,,*67"
172,0,0.000000,34.692767,"$GPGGA,174830.10,3721.9546691,N,07958.3927981,W,1,10,1.04,364.5791,M,-32.8285,M,,*69"
173,0,0.000000,34.774417,"$GPGGA,174830.20,3721.9546775,N,07958.3928227,W,1,09,1.23,364.6094,M,-32.8285,M,,*65"
174,0,0.000000,34.875197,"$GPGGA,174830.30,3721.9546957,N,07958.3928484,W,1,09,1.23,364.6223,M,-32.8285,M,,*6B"
175,0,0.000000,34.973625,"$GPGGA,174830.40,3721.9547100,N,07958.3928745,W,1,10,1.04,364.6516,M,-32.8285,M,,*65"
176,0,0.000000,35.073017,"$GPGGA,174830.50,3721.9547103,N,07958.3928923,W,1,10,1.04,364.6772,M,-32.8285,M,,*69"
176,0,0.000000,35.172222,"$GPGGA,174830.60,3721.9547116,N,07958.3929070,W,1,10,1.04,364.6766,M,-32.8285,M,,*65"
177,0,0.000000,35.271083,"$GPGGA,174830.70,3721.9547155,N,07958.3929262,W,1,10,1.04,364.6659,M,-32.8285,M,,*6F"
178,0,0.000000,35.371157,"$GPGGA,174830.80,3721.9547439,N,07958.3929458,W,1,10,1.04,364.5853,M,-32.8285,M,,*67"
179,0,0.000000,35.476062,"$GPGGA,174830.90,3721.9547481,N,07958.3929705,W,1,10,1.04,364.6283,M,-32.8285,M,,*6A"
179,0,0.000000,35.628717,"$GPGGA,174831.00,3721.9547627,N,07958.3929931,W,1,10,1.04,364.6245,M,-32.8285,M,,*6F"
179,0,0.000000,35.696448,"$GPGGA,174831.10,3721.9547694,N,07958.3930098,W,1,10,1.04,364.6147,M,-32.8285,M,,*65"
179,0,0.000000,35.774194,"$GPGGA,174831.20,3721.9547872,N,07958.3930117,W,1,11,0.92,364.6110,M,-32.8285,M,,*6B"
179,0,0.000000,35.872113,"$GPGGA,174831.30,3721.9547896,N,07958.3930155,W,1,11,0.92,364.6209,M,-32.8285,M,,*6D"
179,0,0.000000,35.971729,"$GPGGA,174831.40,3721.9547836,N,07958.3930152,W,1,11,0.92,364.6153,M,-32.8285,M,,*6B"
180,0,0.000000,36.071744,"$GPGGA,174831.50,3721.9547857,N,07958.3930173,W,1,11,0.92,364.6081,M,-32.8285,M,,*60"
180,0,0.000000,36.175251,"$GPGGA,174831.60,3721.9547970,N,07958.3930236,W,1,11,0.92,364.6268,M,-32.8285,M,,*60"
180,0,0.000000,36.275149,"$GPGGA,174831.70,3721.9548086,N,07958.3930270,W,1,11,0.92,364.6295,M,-32.8285,M,,*6E"
180,0,0.000000,36.375235,"$GPGGA,174831.80,3721.9548144,N,07958.3930366,W,1,11,0.92,364.6388,M,-32.8285,M,,*65"
180,0,0.000000,36.474261,"$GPGGA,174831.90,3721.9548184,N,07958.3930499,W,1,11,0.92,364.6483,M,-32.8285,M,,*63"
181,0,0.000000,37.075070,"$GPGGA,174832.50,3721.9548260,N,07958.3930476,W,1,10,0.96,364.6132,M,-32.8285,M,,*6E"
181,0,0.000000,37.182127,"$GPGGA,174832.60,3721.9548167,N,07958.3930480,W,1,10,0.96,364.6191,M,-32.8285,M,,*69"
181,0,0.000000,37.272377,"$GPGGA,174832.70,3721.9548114,N,07958.3930502,W,1,10,0.96,364.6024,M,-32.8285,M,,*68"
182,0,0.000000,37.698430,"$GPGGA,174833.10,3721.9547908,N,07958.3930679,W,1,11,0.92,364.5957,M,-32.8285,M,,*61"
183,0,0.000000,37.775042,"$GPGGA,174833.20,3721.9547926,N,07958.3930698,W,1,11,0.92,364.5999,M,-32.8285,M,,*63"
183,0,0.000000,37.874830,"$GPGGA,174833.30,3721.9547926,N,07958.3930716,W,1,11,0.92,364.5980,M,-32.8285,M,,*6D"
183,0,0.000000,37.973440,"$GPGGA,174833.40,3721.9547932,N,07958.3930836,W,1,11,0.92,364.6126,M,-32.8285,M,,*65"
184,0,0.000000,38.071892,"$GPGGA,174833.50,3721.9547958,N,07958.3930977,W,1,11,0.92,364.6253,M,-32.8285,M,,*6D"
185,0,0.000000,38.173851,"$GPGGA,174833.60,3721.9547948,N,07958.3931010,W,1,11,0.92,364.6334,M,-32.8285,M,,*66"
185,0,0.000000,38.275251,"$GPGGA,174833.70,3721.9548030,N,07958.3931149,W,1,11,0.92,364.6301,M,-32.8285,M,,*65"
186,0,0.000000,38.374489,"$GPGGA,174833.80,3721.9548078,N,07958.3931395,W,1,11,0.92,364.6024,M,-32.8285,M,,*61"
187,0,0.000000,38.475009,"$GPGGA,174833.90,3721.9548032,N,07958.3931590,W,1,11,0.92,364.5800,M,-32.8285,M,,*60"
188,0,0.000000,38.630450,"$GPGGA,174834.00,3721.9547915,N,07958.3931955,W,1,11,0.92,364.6180,M,-32.8285,M,,*6A"
188,0,0.000000,38.700929,"$GPGGA,174834.10,3721.9547950,N,07958.3932206,W,1,11,0.92,364.6315,M,-32.8285,M,,*6A"
189,0,0.000000,38.771966,"$GPGGA,174834.20,3721.9547888,N,07958.3932568,W,1,11,0.92,364.6391,M,-32.8285,M,,*6E"
190,0,0.000000,38.871851,"$GPGGA,174834.30,3721.9547819,N,07958.3932887,W,1,11,0.92,364.6312,M,-32.8285,M,,*60"
190,0,0.000000,38.975166,"$GPGGA,174834.40,3721.9547666,N,07958.3933512,W,1,11,0.92,364.7105,M,-32.8285,M,,*64"
191,0,0.000000,39.076283,"$GPGGA,174834.50,3721.9547676,N,07958.3933716,W,1,11,0.92,364.7159,M,-32.8285,M,,*6B"
192,0,0.000000,39.175510,"$GPGGA,174834.60,3721.9547773,N,07958.3933896,W,1,11,0.92,364.7007,M,-32.8285,M,,*61"
193,0,0.000000,39.275763,"$GPGGA,174834.70,3721.9548174,N,07958.3934054,W,1,11,0.92,364.5460,M,-32.8285,M,,*68"
194,0,0.000000,39.373652,"$GPGGA,174834.80,3721.9548254,N,07958.3934301,W,1,11,0.92,364.5129,M,-32.8285,M,,*6D"
195,0,0.000000,39.471751,"$GPGGA,174834.90,3721.9548334,N,07958.3934516,W,1,11,0.92,364.5314,M,-32.8285,M,,*67"
196,0,0.000000,39.626837,"$GPGGA,174835.00,3721.9547766,N,07958.3935008,W,1,11,0.92,364.9780,M,-32.8285,M,,*6D"
197,0,0.000000,39.694614,"$GPGGA,174835.10,3721.9547911,N,07958.3935027,W,1,11,0.92,364.9940,M,-32.8285,M,,*6D"
197,0,0.000000,39.775342,"$GPGGA,174835.20,3721.9547970,N,07958.3935123,W,1,11,0.92,364.9982,M,-32.8285,M,,*62"
198,0,0.000000,39.874720,"$GPGGA,174835.30,3721.9548086,N,07958.3935230,W,1,11,0.92,365.0156,M,-32.8285,M,,*64"
199,0,0.000000,39.974451,"$GPGGA,174835.40,3721.9548099,N,07958.3935458,W,1,11,0.92,365.0270,M,-32.8285,M,,*62"
199,0,0.000000,40.072822,"$GPGGA,174835.50,3721.9548198,N,07958.3935598,W,1,11,0.92,365.0392,M,-32.8285,M,,*63"
200,0,0.000000,40.172081,"$GPGGA,174835.60,3721.9548265,N,07958.3935731,W,1,11,0.92,365.0307,M,-32.8285,M,,*6C"
200,0,0.000000,40.272067,"$GPGGA,174835.70,3721.9548317,N,07958.3935829,W,1,11,0.92,365.0122,M,-32.8285,M,,*6A"
201,0,0.000000,40.374919,"$GPGGA,174835.80,3721.9548387,N,07958.3936057,W,1,10,1.04,364.9859,M,-32.8285,M,,*6C"
202,0,0.000000,40.474832,"$GPGGA,174835.90,3721.9548446,N,07958.3936220,W,1,10,1.04,364.9683,M,-32.8285,M,,*6C"
203,0,0.000000,40.628288,"$GPGGA,174836.00,3721.9548420,N,07958.3936429,W,1,10,1.04,364.9858,M,-32.8285,M,,*61"
203,0,0.000000,40.696067,"$GPGGA,174836.10,3721.9548343,N,07958.3936846,W,1,10,1.04,365.0344,M,-32.8285,M,,*69"
203,0,0.000000,40.773216,"$GPGGA,174836.20,3721.9548415,N,07958.3936963,W,1,10,1.04,365.0557,M,-32.8285,M,,*6C"
203,0,0.000000,40.871043,"$GPGGA,174836.30,3721.9548498,N,07958.3937068,W,1,10,1.04,365.0460,M,-32.8285,M,,*6E"
204,0,0.000000,40.971134,"$GPGGA,174836.40,3721.9548521,N,07958.3937196,W,1,09,1.05,365.0365,M,-32.8285,M,,*61"
204,0,0.000000,41.070716,"$GPGGA,174836.50,3721.9548565,N,07958.3937295,W,1,10,1.04,365.0362,M,-32.8285,M,,*6E"
205,0,0.000000,41.175071,"$GPGGA,174836.60,3721.9548582,N,07958.3937334,W,1,10,1.04,365.0309,M,-32.8285,M,,*63"
205,0,0.000000,41.274149,"$GPGGA,174836.70,3721.9548610,N,07958.3937389,W,1,09,1.05,365.0357,M,-32.8285,M,,*6E"
206,0,0.000000,41.374411,"$GPGGA,174836.80,3721.9548681,N,07958.3937545,W,1,09,1.05,365.0575,M,-32.8285,M,,*69"
206,0,0.000000,41.473075,"$GPGGA,174836.90,3721.9548958,N,07958.3937369,W,1,09,1.05,364.9771,M,-32.8285,M,,*65"
207,0,0.000000,41.624075,"$GPGGA,174837.00,3721.9548752,N,07958.3937847,W,1,09,1.05,365.0751,M,-32.8285,M,,*64"
208,0,0.000000,41.691832,"$GPGGA,174837.10,3721.9548839,N,07958.3937959,W,1,09,1.05,365.0555,M,-32.8285,M,,*6F"
208,0,0.000000,41.770847,"$GPGGA,174837.20,3721.9548822,N,07958.3938117,W,1,10,1.04,365.0707,M,-32.8285,M,,*67"
209,0,0.000000,41.874199,"$GPGGA,174837.30,3721.9548914,N,07958.3938233,W,1,09,1.23,365.0405,M,-32.8285,M,,*6B"
209,0,0.000000,41.974502,"$GPGGA,174837.40,3721.9548982,N,07958.3938373,W,1,09,1.23,365.0436,M,-32.8285,M,,*66"
210,0,0.000000,42.073880,"$GPGGA,174837.50,3721.9549009,N,07958.3938574,W,1,08,1.29,365.0602,M,-32.8285,M,,*63"
211,0,0.000000,42.172905,"$GPGGA,174837.60,3721.9549093,N,07958.3938713,W,1,09,1.05,365.0361,M,-32.8285,M,,*6F"
211,0,0.000000,42.270885,"$GPGGA,174837.70,3721.9549084,N,07958.3938860,W,1,10,1.04,365.0294,M,-32.8285,M,,*61"
211,0,0.000000,42.371030,"$GPGGA,174837.80,3721.9548956,N,07958.3939170,W,1,10,1.04,365.0437,M,-32.8285,M,,*6F"
211,0,0.000000,42.470555,"$GPGGA,174837.90,3721.9549037,N,07958.3939297,W,1,10,1.04,365.0201,M,-32.8285,M,,*68"
211,0,0.000000,42.628797,"$GPGGA,174838.00,3721.9549102,N,07958.3939407,W,1,10,1.04,365.0053,M,-32.8285,M,,*63"
211,0,0.000000,42.696636,"$GPGGA,174838.10,3721.9549112,N,07958.3939425,W,1,10,1.04,365.0180,M,-32.8285,M,,*6C"
211,0,0.000000,42.774141,"$GPGGA,174838.20,3721.9549083,N,07958.3939418,W,1,10,1.04,365.0175,M,-32.8285,M,,*62"
211,0,0.000000,42.872507,"$GPGGA,174838.30,3721.9549105,N,07958.3939371,W,1,10,1.04,365.0123,M,-32.8285,M,,*67"
211,0,0.000000,42.971197,"$GPGGA,174838.40,3721.9549090,N,07958.3939331,W,1,10,1.04,365.0319,M,-32.8285,M,,*62"
211,0,0.000000,43.071374,"$GPGGA,174838.50,3721.9549085,N,07958.3939318,W,1,10,1.04,365.0356,M,-32.8285,M,,*67"
211,0,0.000000,43.171278,"$GPGGA,174838.60,3721.9549142,N,07958.3939310,W,1,10,1.04,365.0111,M,-32.8285,M,,*67"
213,0,0.000000,46.373043,"$GPGGA,174841.80,3721.9549072,N,07958.3939387,W,1,10,0.96,365.0395,M,-32.8285,M,,*6F"
213,0,0.000000,46.476632,"$GPGGA,174841.90,3721.9549071,N,07958.3939396,W,1,10,0.96,365.0445,M,-32.8285,M,,*67"
213,0,0.000000,46.626558,"$GPGGA,174842.00,3721.9549112,N,07958.3939406,W,1,10,0.96,365.0366,M,-32.8285,M,,*61"
213,0,0.000000,46.694346,"$GPGGA,174842.10,3721.9549157,N,07958.3939544,W,1,10,0.96,365.0326,M,-32.8285,M,,*62"
214,0,0.000000,46.778662,"$GPGGA,174842.20,3721.9549185,N,07958.3939557,W,1,10,0.96,365.0392,M,-32.8285,M,,*63"
214,0,0.000000,46.874010,"$GPGGA,174842.30,3721.9549264,N,07958.3939675,W,1,10,0.96,365.0285,M,-32.8285,M,,*6A"
215,0,0.000000,46.975185,"$GPGGA,174842.40,3721.9549376,N,07958.3939747,W,1,10,0.96,364.9986,M,-32.8285,M,,*6F"
217,0,0.000000,47.073126,"$GPGGA,174842.50,3721.9549421,N,07958.3939846,W,1,10,0.96,364.9626,M,-32.8285,M,,*60"
218,0,0.000000,47.172131,"$GPGGA,174842.60,3721.9549452,N,07958.3940473,W,1,10,0.96,365.0953,M,-32.8285,M,,*66"
220,0,0.000000,47.272326,"$GPGGA,174842.70,3721.9549637,N,07958.3940422,W,1,10,0.96,364.7497,M,-32.8285,M,,*61"
221,0,0.000000,47.371296,"$GPGGA,174842.80,3721.9549658,N,07958.3940517,W,1,10,0.96,364.8679,M,-32.8285,M,,*6D"
222,0,0.000000,47.475399,"$GPGGA,174842.90,3721.9549816,N,07958.3940540,W,1,10,0.96,364.7972,M,-32.8285,M,,*61"
224,0,0.000000,47.629401,"$GPGGA,174843.00,3721.9549916,N,07958.3940778,W,1,10,0.96,364.7534,M,-32.8285,M,,*6F"
225,0,0.000000,47.697256,"$GPGGA,174843.10,3721.9550011,N,07958.3940936,W,1,10,0.96,364.7242,M,-32.8285,M,,*6A"
225,0,0.000000,47.773676,"$GPGGA,174843.20,3721.9550098,N,07958.3941004,W,1,10,0.96,364.7213,M,-32.8285,M,,*65"
226,0,0.000000,47.871747,"$GPGGA,174843.30,3721.9550150,N,07958.3941077,W,1,10,0.96,364.7170,M,-32.8285,M,,*63"
227,0,0.000000,47.971649,"$GPGGA,174843.40,3721.9550242,N,07958.3941236,W,1,10,0.96,364.7265,M,-32.8285,M,,*64"
228,0,0.000000,48.071303,"$GPGGA,174843.50,3721.9550325,N,07958.3941541,W,1,10,0.96,364.7591,M,-32.8285,M,,*6E"
230,0,0.000000,48.174554,"$GPGGA,174843.60,3721.9550290,N,07958.3941865,W,1,10,0.96,364.7552,M,-32.8285,M,,*66"
231,0,0.000000,48.275539,"$GPGGA,174843.70,3721.9550218,N,07958.3942245,W,1,10,0.96,364.7553,M,-32.8285,M,,*6D"
232,0,0.000000,48.373957,"$GPGGA,174843.80,3721.9550318,N,07958.3942569,W,1,10,0.96,364.7483,M,-32.8285,M,,*66"
234,0,0.000000,48.473634,"$GPGGA,174843.90,3721.9550417,N,07958.3942810,W,1,10,0.96,364.7506,M,-32.8285,M,,*60"
234,0,0.000000,48.626886,"$GPGGA,174844.00,3721.9550450,N,07958.3943035,W,1,11,0.88,364.7844,M,-32.8285,M,,*66"
235,0,0.000000,48.694667,"$GPGGA,174844.10,3721.9550468,N,07958.3943208,W,1,11,0.88,364.7619,M,-32.8285,M,,*66"
236,0,0.000000,48.771635,"$GPGGA,174844.20,3721.9550455,N,07958.3943435,W,1,11,0.88,364.7164,M,-32.8285,M,,*6E"
237,0,0.000000,48.874511,"$GPGGA,174844.30,3721.9550449,N,07958.3943635,W,1,11,0.88,364.7029,M,-32.8285,M,,*68"
238,0,0.000000,48.974706,"$GPGGA,174844.40,3721.9550323,N,07958.3943953,W,1,11,0.88,364.7583,M,-32.8285,M,,*6E"
239,0,0.000000,49.074565,"$GPGGA,174844.50,3721.9550318,N,07958.3944076,W,1,11,0.88,364.7608,M,-32.8285,M,,*6E"
240,0,0.000000,49.173479,"$GPGGA,174844.60,3721.9550294,N,07958.3944211,W,1,11,0.88,364.7558,M,-32.8285,M,,*6D"
240,0,0.000000,49.272252,"$GPGGA,174844.70,3721.9550281,N,07958.3944295,W,1,11,0.88,364.7992,M,-32.8285,M,,*6E"
241,0,0.000000,49.372641,"$GPGGA,174844.80,3721.9550290,N,07958.3944240,W,1,11,0.88,364.7357,M,-32.8285,M,,*6A"
241,0,0.000000,49.476813,"$GPGGA,174844.90,3721.9550856,N,07958.3945078,W,1,11,0.88,364.7437,M,-32.8285,M,,*62"
242,0,0.000000,49.631784,"$GPGGA,174845.00,3721.9550848,N,07958.3945251,W,1,11,0.88,364.7304,M,-32.8285,M,,*6B"
242,0,0.000000,49.711715,"$GPGGA,174845.10,3721.9550786,N,07958.3945471,W,1,11,0.88,364.7285,M,-32.8285,M,,*6B"
242,0,0.000000,49.774991,"$GPGGA,174845.20,3721.9550849,N,07958.3945593,W,1,11,0.88,364.7393,M,-32.8285,M,,*6F"
243,0,0.000000,49.874437,"$GPGGA,174845.30,3721.9550843,N,07958.3945754,W,1,11,0.88,364.7510,M,-32.8285,M,,*60"
244,0,0.000000,49.971638,"$GPGGA,174845.40,3721.9551012,N,07958.3945794,W,1,11,0.88,364.7688,M,-32.8285,M,,*64"
244,0,0.000000,50.070652,"$GPGGA,174845.50,3721.9550896,N,07958.3946099,W,1,10,1.00,364.7446,M,-32.8285,M,,*69"
245,0,0.000000,50.171005,"$GPGGA,174845.60,3721.9550941,N,07958.3946441,W,1,09,1.19,364.6848,M,-32.8285,M,,*63"
246,0,0.000000,50.274718,"$GPGGA,174845.70,3721.9550897,N,07958.3946656,W,1,10,1.00,364.6935,M,-32.8285,M,,*67"
247,0,0.000000,50.374390,"$GPGGA,174845.80,3721.9550883,N,07958.3946906,W,1,10,1.00,364.6814,M,-32.8285,M,,*65"
247,0,0.000000,50.475108,"$GPGGA,174845.90,3721.9550797,N,07958.3947180,W,1,10,1.00,364.6727,M,-32.8285,M,,*66"
247,0,0.000000,50.627526,"$GPGGA,174846.00,3721.9550717,N,07958.3947439,W,1,09,1.19,364.6662,M,-32.8285,M,,*63"
247,0,0.000000,50.695374,"$GPGGA,174846.10,3721.9550760,N,07958.3947591,W,1,09,1.19,364.6661,M,-32.8285,M,,*62"
247,0,0.000000,50.771257,"$GPGGA,174846.20,3721.9550729,N,07958.3947735,W,1,10,1.00,364.6927,M,-32.8285,M,,*6D"
247,0,0.000000,50.871374,"$GPGGA,174846.30,3721.9550736,N,07958.3947777,W,1,09,1.15,364.6932,M,-32.8285,M,,*6C"
247,0,0.000000,50.974316,"$GPGGA,174846.40,3721.9550697,N,07958.3947790,W,1,09,1.19,364.6995,M,-32.8285,M,,*69"
247,0,0.000000,51.073757,"$GPGGA,174846.50,3721.9550692,N,07958.3947759,W,1,09,1.19,364.7010,M,-32.8285,M,,*6D"
247,0,0.000000,51.174838,"$GPGGA,174846.60,3721.9550753,N,07958.3947730,W,1,09,1.19,364.6937,M,-32.8285,M,,*60"
247,0,0.000000,51.273009,"$GPGGA,174846.70,3721.9550736,N,07958.3947727,W,1,09,1.19,364.7042,M,-32.8285,M,,*6E"
247,0,0.000000,51.370945,"$GPGGA,174846.80,3721.9550800,N,07958.3947751,W,1,09,1.19,364.7013,M,-32.8285,M,,*6E"
248,0,0.000000,51.624017,"$GPGGA,174847.00,3721.9550725,N,07958.3947884,W,1,09,1.19,364.7191,M,-32.8285,M,,*63"
249,0,0.000000,51.773297,"$GPGGA,174847.20,3721.9550815,N,07958.3947971,W,1,08,1.58,364.7092,M,-32.8285,M,,*60"
249,0,0.000000,51.873897,"$GPGGA,174847.30,3721.9550859,N,07958.3947987,W,1,08,1.58,364.6903,M,-32.8285,M,,*60"
249,0,0.000000,51.973541,"$GPGGA,174847.40,3721.9550889,N,07958.3948016,W,1,08,1.58,364.6898,M,-32.8285,M,,*67"
249,0,0.000000,52.071298,"$GPGGA,174847.50,3721.9550953,N,07958.3948050,W,1,08,1.58,364.6765,M,-32.8285,M,,*6F"
250,0,0.000000,52.173294,"$GPGGA,174847.60,3721.9551007,N,07958.3948078,W,1,08,1.58,364.6592,M,-32.8285,M,,*65"
250,0,0.000000,52.270775,"$GPGGA,174847.70,3721.9551048,N,07958.3948159,W,1,08,1.58,364.6575,M,-32.8285,M,,*64"
251,0,0.000000,52.374021,"$GPGGA,174847.80,3721.9551137,N,07958.3948242,W,1,08,1.58,364.6444,M,-32.8285,M,,*68"
251,0,0.000000,52.473671,"$GPGGA,174847.90,3721.9551216,N,07958.3948451,W,1,07,1.85,364.7034,M,-32.8285,M,,*60"
251,0,0.000000,52.624582,"$GPGGA,174848.00,3721.9551318,N,07958.3948548,W,1,07,1.85,364.7238,M,-32.8285,M,,*6E"
251,0,0.000000,52.692422,"$GPGGA,174848.10,3721.9551470,N,07958.3948571,W,1,07,1.85,364.7308,M,-32.8285,M,,*6E"
252,0,0.000000,52.771225,"$GPGGA,174848.20,3721.9551519,N,07958.3948655,W,1,07,1.85,364.7473,M,-32.8285,M,,*6D"
252,0,0.000000,52.872066,"$GPGGA,174848.30,3721.9551510,N,07958.3948730,W,1,07,1.85,364.7350,M,-32.8285,M,,*61"
253,0,0.000000,52.970366,"$GPGGA,174848.40,3721.9551545,N,07958.3948806,W,1,07,1.85,364.7334,M,-32.8285,M,,*6E"
253,0,0.000000,53.069978,"$GPGGA,174848.50,3721.9551543,N,07958.3948850,W,1,07,1.85,364.6969,M,-32.8285,M,,*69"
253,0,0.000000,53.173707,"$GPGGA,174848.60,3721.9551513,N,07958.3948978,W,1,07,1.85,364.7020,M,-32.8285,M,,*61"
253,0,0.000000,53.274008,"$GPGGA,174848.70,3721.9551539,N,07958.3949009,W,1,07,1.85,364.6989,M,-32.8285,M,,*6D"
254,0,0.000000,53.373448,"$GPGGA,174848.80,3721.9551563,N,07958.3949012,W,1,07,1.85,364.6762,M,-32.8285,M,,*6C"
254,0,0.000000,53.475341,"$GPGGA,174848.90,3721.9551518,N,07958.3949108,W,1,07,1.85,364.6930,M,-32.8285,M,,*62"
255,0,0.000000,53.621900,"$GPGGA,174849.00,3721.9551547,N,07958.3949109,W,1,07,1.85,364.6721,M,-32.8285,M,,*6F"
255,0,0.000000,53.689687,"$GPGGA,174849.10,3721.9551563,N,07958.3949188,W,1,07,1.85,364.6690,M,-32.8285,M,,*6A"
255,0,0.000000,53.773859,"$GPGGA,174849.20,3721.9551611,N,07958.3949211,W,1,07,1.85,364.6949,M,-32.8285,M,,*67"
255,0,0.000000,53.873647,"$GPGGA,174849.30,3721.9551616,N,07958.3949245,W,1,07,1.85,364.6963,M,-32.8285,M,,*68"
256,0,0.000000,53.973188,"$GPGGA,174849.40,3721.9551630,N,07958.3949323,W,1,07,1.85,364.7021,M,-32.8285,M,,*64"
256,0,0.000000,54.075854,"$GPGGA,174849.50,3721.9551652,N,07958.3949394,W,1,07,1.85,364.6946,M,-32.8285,M,,*64"
257,0,0.000000,54.171663,"$GPGGA,174849.60,3721.9551691,N,07958.3949449,W,1,07,1.85,364.6795,M,-32.8285,M,,*6F"
257,0,0.000000,54.270029,"$GPGGA,174849.70,3721.9551732,N,07958.3949475,W,1,07,1.85,364.6623,M,-32.8285,M,,*65"
258,0,0.000000,54.369783,"$GPGGA,174849.80,3721.9551735,N,07958.3949496,W,1,07,1.85,364.6534,M,-32.8285,M,,*65"
258,0,0.000000,54.469655,"$GPGGA,174849.90,3721.9551714,N,07958.3949550,W,1,07,1.85,364.6541,M,-32.8285,M,,*6E"
259,0,0.000000,54.625642,"$GPGGA,174850.00,3721.9551610,N,07958.3949582,W,1,07,1.85,364.6516,M,-32.8285,M,,*67"
260,0,0.000000,54.693388,"$GPGGA,174850.10,3721.9551532,N,07958.3949621,W,1,07,1.85,364.6456,M,-32.8285,M,,*6A"
260,0,0.000000,54.774138,"$GPGGA,174850.20,3721.9551625,N,07958.3949054,W,1,07,1.85,364.4058,M,-32.8285,M,,*60"
260,0,0.000000,54.871865,"$GPGGA,174850.30,3721.9551747,N,07958.3949087,W,1,07,1.85,364.4201,M,-32.8285,M,,*64"
260,0,0.000000,54.970620,"$GPGGA,174850.40,3721.9551576,N,07958.3949102,W,1,07,1.85,364.3772,M,-32.8285,M,,*69"
261,0,0.000000,55.071381,"$GPGGA,174850.50,3721.9551367,N,07958.3949237,W,1,07,1.85,364.3600,M,-32.8285,M,,*6F"
261,0,0.000000,55.170228,"$GPGGA,174850.60,3721.9551208,N,07958.3949269,W,1,07,1.85,364.3044,M,-32.8285,M,,*69"
262,0,0.000000,55.274599,"$GPGGA,174850.70,3721.9551002,N,07958.3949403,W,1,07,1.85,364.3308,M,-32.8285,M,,*61"
262,0,0.000000,55.372801,"$GPGGA,174850.80,3721.9550823,N,07958.3949544,W,1,07,1.85,364.3702,M,-32.8285,M,,*68"
263,0,0.000000,55.472722,"$GPGGA,174850.90,3721.9550643,N,07958.3949679,W,1,07,1.85,364.3488,M,-32.8285,M,,*6D"
264,0,0.000000,55.622616,"$GPGGA,174851.00,3721.9550447,N,07958.3949921,W,1,07,1.85,364.3466,M,-32.8285,M,,*61"
265,0,0.000000,55.690319,"$GPGGA,174851.10,3721.9550246,N,07958.3950093,W,1,07,1.85,364.3137,M,-32.8285,M,,*6E"
265,0,0.000000,55.770551,"$GPGGA,174851.20,3721.9550140,N,07958.3950037,W,1,07,1.85,364.2496,M,-32.8285,M,,*69"
266,0,0.000000,55.869531,"$GPGGA,174851.30,3721.9550105,N,07958.3950041,W,1,07,1.85,364.2339,M,-32.8285,M,,*6A"
266,0,0.000000,55.973723,"$GPGGA,174851.40,3721.9550170,N,07958.3950237,W,1,07,1.85,364.2439,M,-32.8285,M,,*6B"
267,0,0.000000,56.073293,"$GPGGA,174851.50,3721.9550283,N,07958.3950562,W,1,07,1.85,364.3325,M,-32.8285,M,,*69"
268,0,0.000000,56.173510,"$GPGGA,174851.60,3721.9550431,N,07958.3950765,W,1,07,1.85,364.3507,M,-32.8285,M,,*66"
269,0,0.000000,56.271529,"$GPGGA,174851.70,3721.9550698,N,07958.3951019,W,1,07,1.85,364.3858,M,-32.8285,M,,*6C"
270,0,0.000000,56.370218,"$GPGGA,174851.80,3721.9550932,N,07958.3951235,W,1,08,1.40,364.3448,M,-32.8285,M,,*6B"
270,0,0.000000,56.470745,"$GPGGA,174851.90,3721.9551059,N,07958.3951508,W,1,08,1.40,364.3440,M,-32.8285,M,,*6E"
272,0,0.000000,56.621326,"$GPGGA,174852.00,3721.9551085,N,07958.3951747,W,1,07,2.41,364.3447,M,-32.8285,M,,*66"
272,0,0.000000,56.689369,"$GPGGA,174852.10,3721.9551032,N,07958.3951915,W,1,07,2.41,364.3543,M,-32.8285,M,,*67"
272,0,0.000000,56.774403,"$GPGGA,174852.20,3721.9551089,N,07958.3952261,W,1,07,2.41,364.3913,M,-32.8285,M,,*66"
272,0,0.000000,56.873554,"$GPGGA,174852.30,3721.9551153,N,07958.3952517,W,1,07,2.41,364.4042,M,-32.8285,M,,*6D"
272,0,0.000000,56.981705,"$GPGGA,174852.40,3721.9551186,N,07958.3952595,W,1,07,2.41,364.3923,M,-32.8285,M,,*61"
272,0,0.000000,57.069840,"$GPGGA,174852.50,3721.9551253,N,07958.3952803,W,1,07,2.41,364.3959,M,-32.8285,M,,*64"
273,0,0.000000,57.170617,"$GPGGA,174852.60,3721.9551256,N,07958.3953048,W,1,08,1.52,364.4390,M,-32.8285,M,,*62"
273,0,0.000000,57.270050,"$GPGGA,174852.70,3721.9551293,N,07958.3953074,W,1,08,1.52,364.4421,M,-32.8285,M,,*68"
273,0,0.000000,57.373851,"$GPGGA,174852.80,3721.9551299,N,07958.3953085,W,1,08,1.52,364.4369,M,-32.8285,M,,*68"
273,0,0.000000,57.473915,"$GPGGA,174852.90,3721.9551275,N,07958.3953132,W,1,08,1.52,364.4457,M,-32.8285,M,,*6C"
274,0,0.000000,57.625904,"$GPGGA,174853.00,3721.9551345,N,07958.3953051,W,1,08,1.52,364.4319,M,-32.8285,M,,*6F"
274,0,0.000000,57.693652,"$GPGGA,174853.10,3721.9551326,N,07958.3953097,W,1,07,2.41,364.4368,M,-32.8285,M,,*69"
275,0,0.000000,57.770171,"$GPGGA,174853.20,3721.9551382,N,07958.3953041,W,1,07,2.41,364.4303,M,-32.8285,M,,*62"
275,0,0.000000,57.870662,"$GPGGA,174853.30,3721.9551347,N,07958.3953143,W,1,07,2.41,364.4270,M,-32.8285,M,,*6C"
275,0,0.000000,57.970642,"$GPGGA,174853.40,3721.9551272,N,07958.3953479,W,1,07,2.41,364.4351,M,-32.8285,M,,*62"
276,0,0.000000,58.072938,"$GPGGA,174853.50,3721.9551417,N,07958.3953784,W,1,07,2.41,364.4161,M,-32.8285,M,,*66"
277,0,0.000000,58.174086,"$GPGGA,174853.60,3721.9551200,N,07958.3953725,W,1,07,2.41,364.4222,M,-32.8285,M,,*6A"
278,0,0.000000,58.274963,"$GPGGA,174853.70,3721.9551159,N,07958.3953849,W,1,07,2.41,364.4099,M,-32.8285,M,,*63"
279,0,0.000000,58.372492,"$GPGGA,174853.80,3721.9551023,N,07958.3953950,W,1,07,2.41,364.3953,M,-32.8285,M,,*61"
280,0,0.000000,58.470030,"$GPGGA,174853.90,3721.9550994,N,07958.3954099,W,1,07,2.41,364.4141,M,-32.8285,M,,*63"
281,0,0.000000,58.621547,"$GPGGA,174854.00,3721.9551198,N,07958.3954363,W,1,07,2.41,364.4744,M,-32.8285,M,,*6D"
281,0,0.000000,58.689347,"$GPGGA,174854.10,3721.9551172,N,07958.3954592,W,1,07,2.41,364.4607,M,-32.8285,M,,*66"
281,0,0.000000,58.773659,"$GPGGA,174854.20,3721.9551236,N,07958.3954685,W,1,07,2.41,364.3909,M,-32.8285,M,,*65"
281,0,0.000000,58.873300,"$GPGGA,174854.30,3721.9551191,N,07958.3954769,W,1,07,2.41,364.4093,M,-32.8285,M,,*64"
281,0,0.000000,58.973311,"$GPGGA,174854.40,3721.9551176,N,07958.3954758,W,1,07,2.41,364.3979,M,-32.8285,M,,*62"
281,0,0.000000,59.071804,"$GPGGA,174854.50,3721.9551198,N,07958.3954752,W,1,07,2.41,364.3984,M,-32.8285,M,,*6B"
281,0,0.000000,59.172052,"$GPGGA,174854.60,3721.9551182,N,07958.3954737,W,1,07,2.41,364.4081,M,-32.8285,M,,*6B"
281,0,0.000000,59.270201,"$GPGGA,174854.70,3721.9551153,N,07958.3954734,W,1,07,2.41,364.4054,M,-32.8285,M,,*6D"
281,0,0.000000,59.370306,"$GPGGA,174854.80,3721.9551141,N,07958.3954770,W,1,07,2.41,364.4190,M,-32.8285,M,,*68"
281,0,0.000000,59.473660,"$GPGGA,174854.90,3721.9551013,N,07958.3954770,W,1,07,2.41,364.4096,M,-32.8285,M,,*68"
