;GPS@@@
;Ver=1.1.0
;DIP=2009-00152-00
;Date=2026-Jan-12 12:49:56
;----------------------------------------------------------------------------------------------------------------------------------------------------------------------------------------
traces,odo_tick,pos(m),time_elapsed(s),GPS
2,0,0.000000,19.963865,"$GPGGA,183019.30,3721.9585698,N,07958.3510958,W,2,05,2.15,372.3829,M,-32.8285,M,0.7,0000*4A"
2,0,0.000000,20.062689,"$GPGGA,183019.40,3721.9585679,N,07958.3510949,W,2,05,2.15,372.3838,M,-32.8285,M,0.8,0000*4D"
2,0,0.000000,20.162775,"$GPGGA,183019.50,3721.9585634,N,07958.3510974,W,2,05,2.15,372.3771,M,-32.8285,M,0.9,0000*48"
3,0,0.000000,20.266652,"$GPGGA,183019.60,3721.9585554,N,07958.3510965,W,2,05,2.15,372.3692,M,-32.8285,M,1.0,0000*4A"
4,0,0.000000,20.366164,"$GPGGA,183019.70,3721.9585452,N,07958.3510963,W,2,05,2.15,372.3619,M,-32.8285,M,1.1,0000*48"
5,0,0.000000,20.465837,"$GPGGA,183019.80,3721.9585396,N,07958.3510947,W,2,05,2.15,372.3566,M,-32.8285,M,1.2,0000*46"
5,0,0.000000,20.565990,"$GPGGA,183019.90,3721.9585311,N,07958.3510893,W,2,05,2.15,372.3461,M,-32.8285,M,1.3,0000*47"
6,0,0.000000,20.691292,"$GPGGA,183020.00,3721.9585201,N,07958.3510823,W,2,05,2.15,372.3088,M,-32.8285,M,1.4,0000*4B"
6,0,0.000000,20.763070,"$GPGGA,183020.10,3721.9585132,N,07958.3510750,W,2,05,2.15,372.2839,M,-32.8285,M,1.5,0000*40"
6,0,0.000000,20.862824,"$GPGGA,183020.20,3721.9585046,N,07958.3510727,W,2,05,2.15,372.2792,M,-32.8285,M,1.6,0000*4C"
6,0,0.000000,20.965564,"$GPGGA,183020.30,3721.9584943,N,07958.3510691,W,2,05,2.15,372.2904,M,-32.8285,M,0.5,0000*4F"
7,0,0.000000,21.065757,"$GPGGA,183020.40,3721.9584850,N,07958.3510670,W,2,05,2.15,372.2860,M,-32.8285,M,0.6,0000*44"
7,0,0.000000,21.167439,"$GPGGA,183020.50,3721.9584779,N,07958.3510665,W,2,05,2.15,372.2876,M,-32.8285,M,0.7,0000*43"
7,0,0.000000,21.266659,"$GPGGA,183020.60,3721.9584726,N,07958.3510634,W,2,05,2.15,372.2996,M,-32.8285,M,0.8,0000*4E"
7,0,0.000000,21.363720,"$GPGGA,183020.70,3721.9584717,N,07958.3510640,W,2,05,2.15,372.2915,M,-32.8285,M,0.9,0000*44"
8,0,0.000000,21.462455,"$GPGGA,183020.80,3721.9584651,N,07958.3510555,W,2,05,2.15,372.2913,M,-32.8285,M,1.0,0000*41"
9,0,0.000000,21.562617,"$GPGGA,183020.90,3721.9584565,N,07958.3510517,W,2,05,2.15,372.2929,M,-32.8285,M,1.1,0000*4A"
9,0,0.000000,21.693848,"$GPGGA,183021.00,3721.9584519,N,07958.3510606,W,2,05,2.15,372.2668,M,-32.8285,M,1.2,0000*43"
9,0,0.000000,21.766103,"$GPGGA,183021.10,3721.9584459,N,07958.3510656,W,2,05,2.15,372.2458,M,-32.8285,M,1.3,0000*42"
9,0,0.000000,21.866050,"$GPGGA,183021.20,3721.9584337,N,07958.3510612,W,2,05,2.15,372.2535,M,-32.8285,M,1.4,0000*43"
10,0,0.000000,21.965840,"$GPGGA,183021.30,3721.9584234,N,07958.3510597,W,2,05,2.15,372.2566,M,-32.8285,M,0.3,0000*4E"
10,0,0.000000,22.066708,"$GPGGA,183021.40,3721.9584095,N,07958.3510493,W,2,05,2.14,372.2768,M,-32.8285,M,0.4,0000*4F"
11,0,0.000000,22.162948,"$GPGGA,183021.50,3721.9584015,N,07958.3510424,W,2,05,2.14,372.2872,M,-32.8285,M,0.5,0000*4F"
11,0,0.000000,22.263178,"$GPGGA,183021.60,3721.9583928,N,07958.3510386,W,2,05,2.14,372.2843,M,-32.8285,M,0.6,0000*42"
12,0,0.000000,22.366116,"$GPGGA,183021.70,3721.9583852,N,07958.3510263,W,2,05,2.14,372.2746,M,-32.8285,M,0.7,0000*4E"
12,0,0.000000,22.465349,"$GPGGA,183021.80,3721.9583810,N,07958.3510229,W,2,05,2.14,372.2091,M,-32.8285,M,0.8,0000*4B"
13,0,0.000000,22.566720,"$GPGGA,183021.90,3721.9583760,N,07958.3510040,W,2,05,2.14,372.1882,M,-32.8285,M,0.9,0000*47"
13,0,0.000000,22.693971,"$GPGGA,183022.00,3721.9583660,N,07958.3509936,W,2,05,2.14,372.1950,M,-32.8285,M,1.0,0000*4A"
14,0,0.000000,22.764942,"$GPGGA,183022.10,3721.9583468,N,07958.3509891,W,2,05,2.14,372.2182,M,-32.8285,M,1.1,0000*48"
15,0,0.000000,22.862497,"$GPGGA,183022.20,3721.9583284,N,07958.3509849,W,2,05,2.14,372.2357,M,-32.8285,M,1.2,0000*43"
15,0,0.000000,22.962071,"$GPGGA,183022.30,3721.9583150,N,07958.3509754,W,2,05,2.14,372.2437,M,-32.8285,M,1.3,0000*4B"
16,0,0.000000,23.066508,"$GPGGA,183022.40,3721.9583062,N,07958.3509660,W,2,05,2.14,372.2243,M,-32.8285,M,0.8,0000*45"
17,0,0.000000,23.165740,"$GPGGA,183022.50,3721.9583050,N,07958.3509567,W,2,05,2.14,372.1991,M,-32.8285,M,0.9,0000*47"
18,0,0.000000,23.265875,"$GPGGA,183022.60,3721.9583036,N,07958.3509426,W,2,05,2.14,372.1727,M,-32.8285,M,1.0,0000*4B"
18,0,0.000000,23.366411,"$GPGGA,183022.70,3721.9582897,N,07958.3509469,W,2,05,2.14,372.1701,M,-32.8285,M,1.1,0000*46"
19,0,0.000000,23.475320,"$GPGGA,183022.80,3721.9582712,N,07958.3509506,W,2,06,1.70,372.1830,M,-32.8285,M,1.2,0000*4F"
19,0,0.000000,23.563471,"$GPGGA,183022.90,3721.9582618,N,07958.3509320,W,2,06,1.70,372.1614,M,-32.8285,M,1.3,0000*4E"
20,0,0.000000,23.691341,"$GPGGA,183023.00,3721.9582537,N,07958.3509261,W,2,06,1.70,372.1503,M,-32.8285,M,1.4,0000*4E"
20,0,0.000000,23.767228,"$GPGGA,183023.10,3721.9582442,N,07958.3509256,W,2,06,1.70,372.1422,M,-32.8285,M,1.5,0000*4B"
21,0,0.000000,23.866457,"$GPGGA,183023.20,3721.9582370,N,07958.3509248,W,2,06,1.70,372.1577,M,-32.8285,M,1.6,0000*43"
21,0,0.000000,23.967110,"$GPGGA,183023.30,3721.9582254,N,07958.3509192,W,2,06,1.70,372.1582,M,-32.8285,M,1.7,0000*4A"
22,0,0.000000,24.066671,"$GPGGA,183023.40,3721.9582184,N,07958.3509258,W,2,06,1.70,372.1523,M,-32.8285,M,0.6,0000*4D"
22,0,0.000000,24.166631,"$GPGGA,183023.50,3721.9581928,N,07958.3508834,W,2,06,1.70,372.0984,M,-32.8285,M,0.7,0000*41"
23,0,0.000000,24.262565,"$GPGGA,183023.60,3721.9581896,N,07958.3508763,W,2,06,1.70,372.0701,M,-32.8285,M,0.8,0000*47"
23,0,0.000000,24.362231,"$GPGGA,183023.70,3721.9581894,N,07958.3508721,W,2,06,1.70,372.0471,M,-32.8285,M,0.9,0000*47"
24,0,0.000000,24.462151,"$GPGGA,183023.80,3721.9581830,N,07958.3508677,W,2,06,1.70,372.0424,M,-32.8285,M,1.0,0000*4C"
25,0,0.000000,24.566270,"$GPGGA,183023.90,3721.9581741,N,07958.3508560,W,2,06,1.70,372.0373,M,-32.8285,M,1.1,0000*45"
26,0,0.000000,24.694940,"$GPGGA,183024.00,3721.9581632,N,07958.3508534,W,2,06,1.70,372.0254,M,-32.8285,M,1.2,0000*48"
26,0,0.000000,24.766220,"$GPGGA,183024.10,3721.9581500,N,07958.3508554,W,2,06,1.70,372.0113,M,-32.8285,M,1.3,0000*4C"
27,0,0.000000,24.863904,"$GPGGA,183024.20,3721.9581409,N,07958.3508639,W,2,06,1.70,371.9719,M,-32.8285,M,1.4,0000*4E"
28,0,0.000000,24.963238,"$GPGGA,183024.30,3721.9581206,N,07958.3508554,W,2,06,1.70,371.9872,M,-32.8285,M,1.5,0000*4D"
29,0,0.000000,25.062792,"$GPGGA,183024.40,3721.9580983,N,07958.3508486,W,2,06,1.70,371.9944,M,-32.8285,M,0.4,0000*47"
30,0,0.000000,25.165932,"$GPGGA,183024.50,3721.9580862,N,07958.3508430,W,2,06,1.70,371.9764,M,-32.8285,M,0.5,0000*48"
31,0,0.000000,25.266619,"$GPGGA,183024.60,3721.9580684,N,07958.3508173,W,2,06,1.70,371.9795,M,-32.8285,M,0.6,0000*42"
32,0,0.000000,25.366579,"$GPGGA,183024.70,3721.9580772,N,07958.3507916,W,2,06,1.70,371.9067,M,-32.8285,M,0.7,0000*44"
33,0,0.000000,25.466514,"$GPGGA,183024.80,3721.9580797,N,07958.3507618,W,2,06,1.70,371.8968,M,-32.8285,M,0.8,0000*49"
33,0,0.000000,25.564358,"$GPGGA,183024.90,3721.9580609,N,07958.3507356,W,2,06,1.70,371.9118,M,-32.8285,M,0.9,0000*4E"
34,0,0.000000,25.690869,"$GPGGA,183025.00,3721.9580518,N,07958.3507173,W,2,06,1.70,371.8865,M,-32.8285,M,1.0,0000*4A"
35,0,0.000000,25.766555,"$GPGGA,183025.10,3721.9580437,N,07958.3507068,W,2,06,1.70,371.8454,M,-32.8285,M,1.1,0000*43"
36,0,0.000000,25.862451,"$GPGGA,183025.20,3721.9580269,N,07958.3506886,W,2,06,1.70,371.8399,M,-32.8285,M,1.2,0000*41"
37,0,0.000000,25.966110,"$GPGGA,183025.30,3721.9580009,N,07958.3506602,W,2,06,1.70,371.8364,M,-32.8285,M,1.3,0000*45"
38,0,0.000000,26.065763,"$GPGGA,183025.40,3721.9579858,N,07958.3506458,W,2,06,1.70,371.8094,M,-32.8285,M,0.8,0000*43"
39,0,0.000000,26.165989,"$GPGGA,183025.50,3721.9579776,N,07958.3506414,W,2,06,1.70,371.8057,M,-32.8285,M,0.9,0000*47"
39,0,0.000000,26.265545,"$GPGGA,183025.60,3721.9579658,N,07958.3506398,W,2,06,1.70,371.8062,M,-32.8285,M,1.0,0000*44"
39,0,0.000000,26.363144,"$GPGGA,183025.70,3721.9579457,N,07958.3506350,W,2,06,1.70,371.7899,M,-32.8285,M,1.1,0000*4E"
39,0,0.000000,26.463289,"$GPGGA,183025.80,3721.9579306,N,07958.3506310,W,2,06,1.70,371.7837,M,-32.8285,M,1.2,0000*41"
40,0,0.000000,26.562360,"$GPGGA,183025.90,3721.9579157,N,07958.3506277,W,2,06,1.70,371.7621,M,-32.8285,M,1.3,0000*4E"
40,0,0.000000,26.695198,"$GPGGA,183026.00,3721.9579093,N,07958.3506156,W,2,06,1.70,371.7458,M,-32.8285,M,1.4,0000*46"
41,0,0.000000,26.766668,"$GPGGA,183026.10,3721.9579061,N,07958.3506059,W,2,06,1.70,371.7251,M,-32.8285,M,1.5,0000*4A"
41,0,0.000000,26.865980,"$GPGGA,183026.20,3721.9579040,N,07958.3506017,W,2,06,1.70,371.7149,M,-32.8285,M,1.6,0000*49"
41,0,0.000000,26.963987,"$GPGGA,183026.30,3721.9579032,N,07958.3505975,W,2,06,1.70,371.7070,M,-32.8285,M,0.5,0000*4A"
42,0,0.000000,27.062399,"$GPGGA,183026.40,3721.9578923,N,07958.3505877,W,2,06,1.70,371.6976,M,-32.8285,M,0.6,0000*4B"
42,0,0.000000,27.164943,"$GPGGA,183026.50,3721.9578740,N,07958.3505818,W,2,06,1.70,371.7218,M,-32.8285,M,0.7,0000*4B"
43,0,0.000000,27.261512,"$GPGGA,183026.60,3721.9578634,N,07958.3505702,W,2,06,1.70,371.7344,M,-32.8285,M,0.8,0000*49"
43,0,0.000000,27.365960,"$GPGGA,183026.70,3721.9578495,N,07958.3505590,W,2,06,1.70,371.7393,M,-32.8285,M,0.9,0000*43"
44,0,0.000000,27.465994,"$GPGGA,183026.80,3721.9578416,N,07958.3505444,W,2,06,1.70,371.7326,M,-32.8285,M,1.0,0000*49"
44,0,0.000000,27.565836,"$GPGGA,183026.90,3721.9578381,N,07958.3505258,W,2,06,1.70,371.7178,M,-32.8285,M,1.1,0000*42"
46,0,0.000000,27.694376,"$GPGGA,183027.00,3721.9578385,N,07958.3505077,W,2,06,1.70,371.6935,M,-32.8285,M,1.2,0000*42"
47,0,0.000000,27.764191,"$GPGGA,183027.10,3721.9578348,N,07958.3504820,W,2,06,1.70,371.6807,M,-32.8285,M,1.3,0000*48"
49,0,0.000000,27.866188,"$GPGGA,183027.20,3721.9578176,N,07958.3504599,W,2,06,1.70,371.7014,M,-32.8285,M,1.4,0000*47"
50,0,0.000000,27.966887,"$GPGGA,183027.30,3721.9577915,N,07958.3504503,W,2,06,1.70,371.6610,M,-32.8285,M,0.3,0000*42"
51,0,0.000000,28.066491,"$GPGGA,183027.40,3721.9577717,N,07958.3504402,W,2,06,1.70,371.5998,M,-32.8285,M,0.4,0000*42"
53,0,0.000000,28.165875,"$GPGGA,183027.50,3721.9577368,N,07958.3504545,W,2,06,1.70,371.6171,M,-32.8285,M,0.5,0000*40"
55,0,0.000000,28.266080,"$GPGGA,183027.60,3721.9576962,N,07958.3504612,W,2,06,1.70,371.6071,M,-32.8285,M,0.6,0000*41"
56,0,0.000000,28.365734,"$GPGGA,183027.70,3721.9576619,N,07958.3504604,W,2,06,1.70,371.6467,M,-32.8285,M,0.7,0000*46"
58,0,0.000000,28.468217,"$GPGGA,183027.80,3721.9576361,N,07958.3504361,W,2,06,1.70,371.5835,M,-32.8285,M,0.8,0000*42"
59,0,0.000000,28.562670,"$GPGGA,183027.90,3721.9576198,N,07958.3504472,W,2,06,1.70,371.5503,M,-32.8285,M,0.9,0000*4B"
60,0,0.000000,28.695597,"$GPGGA,183028.00,3721.9575910,N,07958.3504360,W,2,06,1.70,371.5534,M,-32.8285,M,1.0,0000*4E"
61,0,0.000000,28.766768,"$GPGGA,183028.10,3721.9575827,N,07958.3504215,W,2,06,1.70,371.4813,M,-32.8285,M,1.1,0000*41"
62,0,0.000000,28.867012,"$GPGGA,183028.20,3721.9575635,N,07958.3503897,W,2,06,1.70,371.4693,M,-32.8285,M,1.2,0000*4D"
63,0,0.000000,28.966088,"$GPGGA,183028.30,3721.9575648,N,07958.3503967,W,2,06,1.70,371.3433,M,-32.8285,M,0.7,0000*43"
64,0,0.000000,29.065045,"$GPGGA,183028.40,3721.9575394,N,07958.3503945,W,2,06,1.70,371.3737,M,-32.8285,M,0.8,0000*48"
65,0,0.000000,29.164069,"$GPGGA,183028.50,3721.9575537,N,07958.3503437,W,2,06,1.70,371.1218,M,-32.8285,M,0.9,0000*45"
66,0,0.000000,29.263594,"$GPGGA,183028.60,3721.9574827,N,07958.3503493,W,2,06,1.70,371.4013,M,-32.8285,M,1.0,0000*41"
67,0,0.000000,29.363935,"$GPGGA,183028.70,3721.9574662,N,07958.3503510,W,2,06,1.70,371.3960,M,-32.8285,M,1.1,0000*4E"
68,0,0.000000,29.466439,"$GPGGA,183028.80,3721.9574488,N,07958.3503316,W,2,06,1.70,371.4100,M,-32.8285,M,1.2,0000*4D"
69,0,0.000000,29.565675,"$GPGGA,183028.90,3721.9574227,N,07958.3503017,W,2,06,1.70,371.4123,M,-32.8285,M,1.3,0000*4D"
70,0,0.000000,29.694971,"$GPGGA,183029.00,3721.9574132,N,07958.3502946,W,2,06,1.70,371.3558,M,-32.8285,M,1.4,0000*46"
70,0,0.000000,29.766436,"$GPGGA,183029.10,3721.9573973,N,07958.3502921,W,2,06,1.70,371.3565,M,-32.8285,M,1.5,0000*43"
71,0,0.000000,29.862694,"$GPGGA,183029.20,3721.9573780,N,07958.3502802,W,2,06,1.70,371.3387,M,-32.8285,M,1.6,0000*4B"
72,0,0.000000,29.962285,"$GPGGA,183029.30,3721.9573698,N,07958.3502758,W,2,06,1.70,371.2778,M,-32.8285,M,0.5,0000*45"
73,0,0.000000,30.062489,"$GPGGA,183029.40,3721.9573556,N,07958.3502708,W,2,06,1.70,371.2386,M,-32.8285,M,0.6,0000*40"
74,0,0.000000,30.165789,"$GPGGA,183029.50,3721.9573276,N,07958.3502582,W,2,06,1.70,371.2537,M,-32.8285,M,0.7,0000*49"
75,0,0.000000,30.276234,"$GPGGA,183029.60,3721.9573068,N,07958.3502413,W,2,06,1.70,371.2746,M,-32.8285,M,0.8,0000*45"
75,0,0.000000,30.366421,"$GPGGA,183029.70,3721.9572956,N,07958.3502030,W,2,06,1.70,371.2295,M,-32.8285,M,0.9,0000*4E"
76,0,0.000000,30.465703,"$GPGGA,183029.80,3721.9572772,N,07958.3501653,W,2,06,1.70,371.2065,M,-32.8285,M,1.0,0000*4C"
77,0,0.000000,30.563627,"$GPGGA,183029.90,3721.9572579,N,07958.3501502,W,2,06,1.70,371.1913,M,-32.8285,M,1.1,0000*49"
78,0,0.000000,30.692096,"$GPGGA,183030.00,3721.9572629,N,07958.3501855,W,2,06,1.70,371.1640,M,-32.8285,M,1.2,0000*4B"
79,0,0.000000,30.763454,"$GPGGA,183030.10,3721.9572477,N,07958.3501844,W,2,06,1.70,371.1522,M,-32.8285,M,1.3,0000*45"
80,0,0.000000,30.869803,"$GPGGA,183030.20,3721.9572106,N,07958.3501632,W,2,06,1.70,371.1402,M,-32.8285,M,1.4,0000*4E"
82,0,0.000000,30.965534,"$GPGGA,183030.30,3721.9571965,N,07958.3501604,W,2,06,1.70,371.1037,M,-32.8285,M,0.3,0000*40"
84,0,0.000000,31.066414,"$GPGGA,183030.40,3721.9571809,N,07958.3501591,W,2,06,1.70,371.0799,M,-32.8285,M,0.4,0000*46"
85,0,0.000000,31.165436,"$GPGGA,183030.50,3721.9571686,N,07958.3501552,W,2,06,1.70,371.0320,M,-32.8285,M,0.5,0000*46"
87,0,0.000000,31.262966,"$GPGGA,183030.60,3721.9571458,N,07958.3501459,W,2,06,1.70,370.9976,M,-32.8285,M,0.6,0000*4C"
88,0,0.000000,31.362675,"$GPGGA,183030.70,3721.9571279,N,07958.3501251,W,2,06,1.70,370.9631,M,-32.8285,M,0.7,0000*4B"
89,0,0.000000,31.462210,"$GPGGA,183030.80,3721.9571054,N,07958.3500827,W,2,06,1.70,370.9187,M,-32.8285,M,0.8,0000*46"
90,0,0.000000,31.566455,"$GPGGA,183030.90,3721.9570770,N,07958.3500793,W,2,06,1.70,370.8735,M,-32.8285,M,0.9,0000*48"
92,0,0.000000,31.694302,"$GPGGA,183031.00,3721.9570206,N,07958.3500570,W,2,06,1.70,370.8569,M,-32.8285,M,1.0,0000*48"
93,0,0.000000,31.765966,"$GPGGA,183031.10,3721.9570075,N,07958.3500442,W,2,06,1.70,370.7748,M,-32.8285,M,1.1,0000*40"
95,0,0.000000,31.865293,"$GPGGA,183031.20,3721.9569967,N,07958.3500305,W,2,06,1.70,370.7097,M,-32.8285,M,1.2,0000*43"
97,0,0.000000,31.965151,"$GPGGA,183031.30,3721.9569605,N,07958.3500184,W,2,06,1.70,370.7257,M,-32.8285,M,0.7,0000*48"
99,0,0.000000,32.063229,"$GPGGA,183031.40,3721.9569390,N,07958.3499961,W,2,06,1.70,370.7254,M,-32.8285,M,0.8,0000*48"
100,0,0.000000,32.167312,"$GPGGA,183031.50,3721.9569116,N,07958.3499967,W,2,06,1.70,370.6533,M,-32.8285,M,0.9,0000*45"
102,0,0.000000,32.266677,"$GPGGA,183031.60,3721.9568879,N,07958.3499725,W,2,06,1.70,370.6101,M,-32.8285,M,1.0,0000*42"
104,0,0.000000,32.366662,"$GPGGA,183031.70,3721.9568529,N,07958.3499274,W,2,06,1.70,370.5646,M,-32.8285,M,1.1,0000*4C"
107,0,0.000000,32.465772,"$GPGGA,183031.80,3721.9568369,N,07958.3499174,W,2,06,1.70,370.5104,M,-32.8285,M,1.2,0000*40"
109,0,0.000000,32.566400,"$GPGGA,183031.90,3721.9567908,N,07958.3499035,W,2,06,1.70,370.5153,M,-32.8285,M,1.3,0000*44"
112,0,0.000000,32.692246,"$GPGGA,183032.00,3721.9567545,N,07958.3498743,W,2,06,1.70,370.5009,M,-32.8285,M,1.4,0000*45"
114,0,0.000000,32.763702,"$GPGGA,183032.10,3721.9567059,N,07958.3498446,W,2,06,1.70,370.5190,M,-32.8285,M,1.5,0000*4A"
118,0,0.000000,32.862014,"$GPGGA,183032.20,3721.9566778,N,07958.3498361,W,2,06,1.70,370.4633,M,-32.8285,M,1.6,0000*42"
121,0,0.000000,32.965862,"$GPGGA,183032.30,3721.9566676,N,07958.3497836,W,2,06,1.70,370.4448,M,-32.8285,M,0.5,0000*46"
123,0,0.000000,33.066506,"$GPGGA,183032.40,3721.9566548,N,07958.3497545,W,2,06,1.70,370.4412,M,-32.8285,M,0.6,0000*4A"
125,0,0.000000,33.165735,"$GPGGA,183032.50,3721.9566391,N,07958.3497453,W,2,06,1.70,370.4095,M,-32.8285,M,0.7,0000*45"
126,0,0.000000,33.265590,"$GPGGA,183032.60,3721.9566082,N,07958.3497247,W,2,06,1.70,370.3803,M,-32.8285,M,0.8,0000*4B"
126,0,0.000000,33.366427,"$GPGGA,183032.70,3721.9565789,N,07958.3497024,W,2,06,1.70,370.3133,M,-32.8285,M,0.9,0000*49"
127,0,0.000000,33.463006,"$GPGGA,183032.80,3721.9565426,N,07958.3496965,W,2,06,1.70,370.2992,M,-32.8285,M,1.0,0000*47"
128,0,0.000000,33.566887,"$GPGGA,183032.90,3721.9565093,N,07958.3496932,W,2,06,1.70,370.2567,M,-32.8285,M,1.1,0000*49"
129,0,0.000000,33.695166,"$GPGGA,183033.00,3721.9564885,N,07958.3497023,W,2,06,1.70,370.2689,M,-32.8285,M,1.2,0000*47"
129,0,0.000000,33.766657,"$GPGGA,183033.10,3721.9564726,N,07958.3497100,W,2,06,1.70,370.2646,M,-32.8285,M,1.3,0000*42"
130,0,0.000000,33.866533,"$GPGGA,183033.20,3721.9564620,N,07958.3497091,W,2,06,1.70,370.2590,M,-32.8285,M,1.4,0000*40"
131,0,0.000000,33.966247,"$GPGGA,183033.30,3721.9564517,N,07958.3496973,W,2,06,1.70,370.2471,M,-32.8285,M,0.3,0000*4A"
132,0,0.000000,34.064489,"$GPGGA,183033.40,3721.9564399,N,07958.3496844,W,2,06,1.70,370.2570,M,-32.8285,M,0.4,0000*4F"
134,0,0.000000,34.163653,"$GPGGA,183033.50,3721.9564207,N,07958.3496785,W,2,06,1.70,370.2521,M,-32.8285,M,0.5,0000*4F"
135,0,0.000000,34.266703,"$GPGGA,183033.60,3721.9563955,N,07958.3496697,W,2,06,1.70,370.2558,M,-32.8285,M,0.6,0000*48"
137,0,0.000000,34.366243,"$GPGGA,183033.70,3721.9563784,N,07958.3496619,W,2,06,1.70,370.2555,M,-32.8285,M,0.7,0000*41"
138,0,0.000000,34.468290,"$GPGGA,183033.80,3721.9563617,N,07958.3496517,W,2,06,1.70,370.2522,M,-32.8285,M,0.8,0000*47"
140,0,0.000000,34.565563,"$GPGGA,183033.90,3721.9563318,N,07958.3496368,W,2,06,1.70,370.2557,M,-32.8285,M,0.9,0000*41"
142,0,0.000000,34.695091,"$GPGGA,183034.00,3721.9563172,N,07958.3496187,W,2,06,1.70,370.2289,M,-32.8285,M,1.0,0000*4E"
142,0,0.000000,34.766507,"$GPGGA,183034.10,3721.9562986,N,07958.3495812,W,2,06,1.70,370.2193,M,-32.8285,M,1.1,0000*42"
143,0,0.000000,34.862884,"$GPGGA,183034.20,3721.9562724,N,07958.3495886,W,2,06,1.70,370.1921,M,-32.8285,M,1.2,0000*4B"
144,0,0.000000,34.962525,"$GPGGA,183034.30,3721.9562374,N,07958.3496236,W,2,06,1.70,370.1787,M,-32.8285,M,0.7,0000*4F"
145,0,0.000000,35.066026,"$GPGGA,183034.40,3721.9562157,N,07958.3496093,W,2,06,1.70,370.1756,M,-32.8285,M,0.8,0000*45"
146,0,0.000000,35.165676,"$GPGGA,183034.50,3721.9562035,N,07958.3496031,W,2,06,1.70,370.1797,M,-32.8285,M,0.9,0000*45"
147,0,0.000000,35.264837,"$GPGGA,183034.60,3721.9561824,N,07958.3495912,W,2,06,1.70,370.1539,M,-32.8285,M,1.0,0000*48"
147,0,0.000000,35.365541,"$GPGGA,183034.70,3721.9561623,N,07958.3495776,W,2,06,1.70,370.1329,M,-32.8285,M,1.1,0000*4A"
148,0,0.000000,35.463829,"$GPGGA,183034.80,3721.9561446,N,07958.3495809,W,2,06,1.70,370.1236,M,-32.8285,M,1.2,0000*4F"
149,0,0.000000,35.562133,"$GPGGA,183034.90,3721.9561160,N,07958.3495866,W,2,06,1.70,370.1214,M,-32.8285,M,1.3,0000*47"
150,0,0.000000,35.691197,"$GPGGA,183035.00,3721.9560888,N,07958.3495796,W,2,06,1.70,370.0974,M,-32.8285,M,1.4,0000*4A"
151,0,0.000000,35.762686,"$GPGGA,183035.10,3721.9560643,N,07958.3495570,W,2,06,1.70,370.0858,M,-32.8285,M,1.5,0000*46"
151,0,0.000000,35.866078,"$GPGGA,183035.20,3721.9560375,N,07958.3495451,W,2,06,1.70,370.1031,M,-32.8285,M,1.6,0000*42"
152,0,0.000000,35.966087,"$GPGGA,183035.30,3721.9560173,N,07958.3495266,W,2,06,1.70,370.0982,M,-32.8285,M,1.7,0000*44"
153,0,0.000000,36.068779,"$GPGGA,183035.40,3721.9559981,N,07958.3495156,W,2,06,1.70,370.0815,M,-32.8285,M,0.6,0000*43"
154,0,0.000000,36.163610,"$GPGGA,183035.50,3721.9559708,N,07958.3495090,W,2,06,1.70,370.0642,M,-32.8285,M,0.7,0000*4B"
155,0,0.000000,36.266642,"$GPGGA,183035.60,3721.9559517,N,07958.3494924,W,2,06,1.70,370.0436,M,-32.8285,M,0.8,0000*4D"
156,0,0.000000,36.362522,"$GPGGA,183035.70,3721.9559274,N,07958.3494762,W,2,06,1.70,370.0101,M,-32.8285,M,0.9,0000*42"
157,0,0.000000,36.465998,"$GPGGA,183035.80,3721.9559035,N,07958.3494720,W,2,06,1.70,370.0160,M,-32.8285,M,1.0,0000*43"
158,0,0.000000,36.565492,"$GPGGA,183035.90,3721.9558651,N,07958.3494692,W,2,06,1.70,370.0407,M,-32.8285,M,1.1,0000*4A"
160,0,0.000000,36.693453,"$GPGGA,183036.00,3721.9558457,N,07958.3494553,W,2,06,1.70,370.0232,M,-32.8285,M,1.2,0000*49"
161,0,0.000000,36.765578,"$GPGGA,183036.10,3721.9558219,N,07958.3494568,W,2,06,1.70,370.0253,M,-32.8285,M,1.3,0000*4A"
161,0,0.000000,36.863809,"$GPGGA,183036.20,3721.9557974,N,07958.3494572,W,2,06,1.70,370.0002,M,-32.8285,M,1.4,0000*4C"
162,0,0.000000,36.961758,"$GPGGA,183036.30,3721.9557800,N,07958.3494493,W,2,06,1.70,370.0048,M,-32.8285,M,0.3,0000*49"
162,0,0.000000,37.062858,"$GPGGA,183036.40,3721.9557684,N,07958.3494414,W,2,06,1.70,369.9963,M,-32.8285,M,0.4,0000*45"
163,0,0.000000,37.165698,"$GPGGA,183036.50,3721.9557560,N,07958.3494286,W,2,06,1.70,369.9863,M,-32.8285,M,0.5,0000*40"
163,0,0.000000,37.265270,"$GPGGA,183036.60,3721.9557466,N,07958.3494136,W,2,06,1.70,369.9575,M,-32.8285,M,0.6,0000*45"
163,0,0.000000,37.365705,"$GPGGA,183036.70,3721.9557398,N,07958.3494058,W,2,06,1.70,369.9129,M,-32.8285,M,0.7,0000*47"
164,0,0.000000,37.465193,"$GPGGA,183036.80,3721.9557259,N,07958.3494019,W,2,06,1.70,369.9003,M,-32.8285,M,0.8,0000*47"
165,0,0.000000,37.565648,"$GPGGA,183036.90,3721.9557132,N,07958.3493988,W,2,06,1.70,369.9015,M,-32.8285,M,0.9,0000*48"
166,0,0.000000,37.690643,"$GPGGA,183037.00,3721.9556927,N,07958.3494005,W,2,06,1.70,369.9206,M,-32.8285,M,1.0,0000*4E"
167,0,0.000000,37.762015,"$GPGGA,183037.10,3721.9556673,N,07958.3494092,W,2,06,1.70,369.8734,M,-32.8285,M,1.1,0000*4B"
168,0,0.000000,37.861931,"$GPGGA,183037.20,3721.9556488,N,07958.3494069,W,2,06,1.70,369.8729,M,-32.8285,M,1.2,0000*45"
169,0,0.000000,37.967609,"$GPGGA,183037.30,3721.9556299,N,07958.3493844,W,2,06,1.70,369.8638,M,-32.8285,M,0.7,0000*47"
170,0,0.000000,38.066111,"$GPGGA,183037.40,3721.9556113,N,07958.3493450,W,2,06,1.70,369.8806,M,-32.8285,M,0.8,0000*44"
171,0,0.000000,38.165867,"$GPGGA,183037.50,3721.9555918,N,07958.3493331,W,2,06,1.70,369.8662,M,-32.8285,M,0.9,0000*48"
172,0,0.000000,38.263508,"$GPGGA,183037.60,3721.9555832,N,07958.3493257,W,2,06,1.70,369.8157,M,-32.8285,M,1.0,0000*4A"
173,0,0.000000,38.363253,"$GPGGA,183037.70,3721.9555635,N,07958.3493111,W,2,06,1.70,369.7780,M,-32.8285,M,1.1,0000*41"
173,0,0.000000,38.461690,"$GPGGA,183037.80,3721.9555383,N,07958.3493013,W,2,06,1.70,369.8017,M,-32.8285,M,1.2,0000*40"
174,0,0.000000,38.568956,"$GPGGA,183037.90,3721.9555220,N,07958.3493037,W,2,06,1.70,369.8024,M,-32.8285,M,1.3,0000*4E"
175,0,0.000000,38.693092,"$GPGGA,183038.00,3721.9555065,N,07958.3493028,W,2,06,1.70,369.7710,M,-32.8285,M,1.4,0000*4D"
176,0,0.000000,38.765109,"$GPGGA,183038.10,3721.9554959,N,07958.3492974,W,2,06,1.70,369.7477,M,-32.8285,M,1.5,0000*49"
176,0,0.000000,38.865194,"$GPGGA,183038.20,3721.9554882,N,07958.3492805,W,2,06,1.70,369.7315,M,-32.8285,M,1.6,0000*4A"
177,0,0.000000,38.963213,"$GPGGA,183038.30,3721.9554781,N,07958.3492629,W,2,06,1.70,369.7281,M,-32.8285,M,0.5,0000*49"
177,0,0.000000,39.061681,"$GPGGA,183038.40,3721.9554646,N,07958.3492518,W,2,04,3.34,369.7376,M,-32.8285,M,0.6,0000*4F"
177,0,0.000000,39.161503,"$GPGGA,183038.50,3721.9554545,N,07958.3492495,W,2,04,3.34,369.7424,M,-32.8285,M,0.7,0000*4B"
177,0,0.000000,39.261608,"$GPGGA,183038.60,3721.9554458,N,07958.3492462,W,2,04,3.34,369.7439,M,-32.8285,M,0.8,0000*4E"
177,0,0.000000,39.365625,"$GPGGA,183038.70,3721.9554365,N,07958.3492457,W,2,04,3.34,369.7450,M,-32.8285,M,0.9,0000*4E"
177,0,0.000000,39.464908,"$GPGGA,183038.80,3721.9554318,N,07958.3492437,W,2,04,3.34,369.7272,M,-32.8285,M,1.0,0000*43"
178,0,0.000000,39.565621,"$GPGGA,183038.90,3721.9554286,N,07958.3492424,W,2,04,3.34,369.7278,M,-32.8285,M,1.1,0000*4D"
178,0,0.000000,39.689932,"$GPGGA,183039.00,3721.9554289,N,07958.3492408,W,2,04,3.34,369.7171,M,-32.8285,M,1.2,0000*4D"
179,0,0.000000,39.761614,"$GPGGA,183039.10,3721.9554240,N,07958.3492381,W,2,04,3.34,369.7081,M,-32.8285,M,1.3,0000*40"
179,0,0.000000,39.862438,"$GPGGA,183039.20,3721.9554167,N,07958.3492333,W,2,04,3.34,369.6887,M,-32.8285,M,1.4,0000*44"
180,0,0.000000,39.964032,"$GPGGA,183039.30,3721.9554135,N,07958.3492298,W,2,04,3.34,369.6626,M,-32.8285,M,1.5,0000*46"
180,0,0.000000,40.071943,"$GPGGA,183039.40,3721.9554023,N,07958.3492256,W,2,04,3.34,369.6632,M,-32.8285,M,0.4,0000*40"
181,0,0.000000,40.165148,"$GPGGA,183039.50,3721.9553898,N,07958.3492224,W,2,04,3.34,369.6569,M,-32.8285,M,0.5,0000*47"
182,0,0.000000,40.265767,"$GPGGA,183039.60,3721.9553735,N,07958.3492252,W,2,04,3.34,369.6617,M,-32.8285,M,0.6,0000*44"
183,0,0.000000,40.363794,"$GPGGA,183039.70,3721.9553508,N,07958.3492225,W,2,04,3.34,369.6616,M,-32.8285,M,0.7,0000*49"
183,0,0.000000,40.461646,"$GPGGA,183039.80,3721.9553350,N,07958.3492084,W,2,04,3.34,369.6630,M,-32.8285,M,0.8,0000*4F"
183,0,0.000000,40.561851,"$GPGGA,183039.90,3721.9553206,N,07958.3492008,W,2,04,3.34,369.6533,M,-32.8285,M,0.9,0000*49"
184,0,0.000000,40.710097,"$GPGGA,183040.00,3721.9552937,N,07958.3491811,W,1,08,1.56,369.6673,M,-32.8285,M,,*6C"
185,0,0.000000,40.777879,"$GPGGA,183040.10,3721.9552852,N,07958.3491797,W,1,08,1.56,369.6529,M,-32.8285,M,,*62"
185,0,0.000000,40.860750,"$GPGGA,183040.20,3721.9552760,N,07958.3491787,W,1,08,1.56,369.6431,M,-32.8285,M,,*66"
186,0,0.000000,40.964900,"$GPGGA,183040.30,3721.9552770,N,07958.3491857,W,2,04,3.34,369.5688,M,-32.8285,M,0.7,0000*47"
187,0,0.000000,41.066828,"$GPGGA,183040.40,3721.9552666,N,07958.3491764,W,2,04,3.34,369.5185,M,-32.8285,M,0.8,0000*4C"
188,0,0.000000,41.162220,"$GPGGA,183040.50,3721.9552040,N,07958.3491782,W,2,04,3.34,369.6491,M,-32.8285,M,0.9,0000*45"
188,0,0.000000,41.262457,"$GPGGA,183040.60,3721.9552264,N,07958.3491584,W,2,04,3.34,369.5328,M,-32.8285,M,1.0,0000*48"
189,0,0.000000,41.366137,"$GPGGA,183040.70,3721.9552169,N,07958.3491539,W,2,04,3.34,369.5145,M,-32.8285,M,1.1,0000*49"
189,0,0.000000,41.468023,"$GPGGA,183040.80,3721.9552038,N,07958.3491392,W,2,04,3.34,369.4760,M,-32.8285,M,1.2,0000*47"
190,0,0.000000,41.565029,"$GPGGA,183040.90,3721.9551972,N,07958.3491309,W,2,04,3.34,369.4420,M,-32.8285,M,1.3,0000*46"
191,0,0.000000,41.692108,"$GPGGA,183041.00,3721.9551866,N,07958.3491279,W,2,04,3.34,369.4318,M,-32.8285,M,1.4,0000*47"
192,0,0.000000,41.765460,"$GPGGA,183041.10,3721.9551772,N,07958.3491325,W,2,04,3.34,369.4098,M,-32.8285,M,1.5,0000*4E"
193,0,0.000000,41.861204,"$GPGGA,183041.20,3721.9551440,N,07958.3491166,W,2,04,3.34,369.4237,M,-32.8285,M,1.6,0000*4E"
194,0,0.000000,41.961703,"$GPGGA,183041.30,3721.9551330,N,07958.3491012,W,2,04,3.34,369.4108,M,-32.8285,M,0.5,0000*40"
195,0,0.000000,42.061267,"$GPGGA,183041.40,3721.9551264,N,07958.3490923,W,2,04,3.34,369.3846,M,-32.8285,M,0.6,0000*4A"
195,0,0.000000,42.164864,"$GPGGA,183041.50,3721.9551159,N,07958.3490862,W,2,04,3.34,369.3779,M,-32.8285,M,0.7,0000*40"
196,0,0.000000,42.265662,"$GPGGA,183041.60,3721.9551063,N,07958.3490886,W,2,04,3.34,369.3597,M,-32.8285,M,0.8,0000*4C"
196,0,0.000000,42.364770,"$GPGGA,183041.70,3721.9550978,N,07958.3490849,W,2,04,3.34,369.3510,M,-32.8285,M,0.9,0000*42"
197,0,0.000000,42.463697,"$GPGGA,183041.80,3721.9550838,N,07958.3490762,W,2,04,3.34,369.3450,M,-32.8285,M,1.0,0000*43"
197,0,0.000000,42.562530,"$GPGGA,183041.90,3721.9550751,N,07958.3490692,W,2,04,3.34,369.3433,M,-32.8285,M,1.1,0000*48"
198,0,0.000000,42.688274,"$GPGGA,183042.00,3721.9550694,N,07958.3490662,W,2,04,3.34,369.3321,M,-32.8285,M,1.2,0000*42"
198,0,0.000000,42.761963,"$GPGGA,183042.10,3721.9550628,N,07958.3490645,W,2,04,3.34,369.3119,M,-32.8285,M,1.3,0000*49"
199,0,0.000000,42.865111,"$GPGGA,183042.20,3721.9550560,N,07958.3490616,W,2,04,3.34,369.2989,M,-32.8285,M,1.4,0000*44"
201,0,0.000000,42.966254,"$GPGGA,183042.30,3721.9550386,N,07958.3490586,W,2,04,3.34,369.2591,M,-32.8285,M,1.5,0000*45"
202,0,0.000000,43.076176,"$GPGGA,183042.40,3721.9550182,N,07958.3490539,W,2,04,3.34,369.2477,M,-32.8285,M,0.4,0000*49"
203,0,0.000000,43.163992,"$GPGGA,183042.50,3721.9549976,N,07958.3490480,W,2,04,3.34,369.2583,M,-32.8285,M,0.5,0000*4B"
204,0,0.000000,43.261726,"$GPGGA,183042.60,3721.9549811,N,07958.3490184,W,2,04,3.34,369.3238,M,-32.8285,M,0.6,0000*4C"
205,0,0.000000,43.361525,"$GPGGA,183042.70,3721.9549635,N,07958.3489919,W,2,04,3.34,369.3688,M,-32.8285,M,0.7,0000*4F"
206,0,0.000000,43.462479,"$GPGGA,183042.80,3721.9549178,N,07958.3489574,W,2,04,3.34,369.4227,M,-32.8285,M,0.8,0000*40"
207,0,0.000000,43.565625,"$GPGGA,183042.90,3721.9548988,N,07958.3489413,W,2,04,3.34,369.4149,M,-32.8285,M,0.9,0000*4D"
208,0,0.000000,43.691592,"$GPGGA,183043.00,3721.9548982,N,07958.3489954,W,2,04,3.34,369.1144,M,-32.8285,M,1.0,0000*41"
209,0,0.000000,43.765229,"$GPGGA,183043.10,3721.9548808,N,07958.3489815,W,2,04,3.34,369.1055,M,-32.8285,M,1.1,0000*47"
209,0,0.000000,43.864470,"$GPGGA,183043.20,3721.9548579,N,07958.3489693,W,2,04,3.34,369.1063,M,-32.8285,M,1.2,0000*49"
211,0,0.000000,43.962796,"$GPGGA,183043.30,3721.9548269,N,07958.3489667,W,2,04,3.34,369.1156,M,-32.8285,M,0.7,0000*46"
212,0,0.000000,44.062079,"$GPGGA,183043.40,3721.9548124,N,07958.3489848,W,2,04,3.34,369.0841,M,-32.8285,M,0.8,0000*49"
213,0,0.000000,44.162024,"$GPGGA,183043.50,3721.9547989,N,07958.3489787,W,2,04,3.34,369.0864,M,-32.8285,M,0.9,0000*42"
214,0,0.000000,44.265007,"$GPGGA,183043.60,3721.9547871,N,07958.3489729,W,2,04,3.34,369.0752,M,-32.8285,M,1.0,0000*41"
216,0,0.000000,44.366023,"$GPGGA,183043.70,3721.9547673,N,07958.3489583,W,2,04,3.34,369.0389,M,-32.8285,M,1.1,0000*4D"
217,0,0.000000,44.465689,"$GPGGA,183043.80,3721.9547508,N,07958.3489413,W,2,04,3.34,369.0273,M,-32.8285,M,1.2,0000*42"
218,0,0.000000,44.565199,"$GPGGA,183043.90,3721.9547212,N,07958.3489293,W,2,04,3.34,369.0314,M,-32.8285,M,1.3,0000*40"
219,0,0.000000,44.688329,"$GPGGA,183044.00,3721.9546969,N,07958.3488973,W,2,04,3.34,368.9521,M,-32.8285,M,1.4,0000*43"
220,0,0.000000,44.761394,"$GPGGA,183044.10,3721.9546725,N,07958.3488594,W,2,04,3.34,368.9540,M,-32.8285,M,1.5,0000*47"
221,0,0.000000,44.861921,"$GPGGA,183044.20,3721.9546643,N,07958.3488423,W,2,04,3.34,368.9398,M,-32.8285,M,1.6,0000*48"
223,0,0.000000,44.965131,"$GPGGA,183044.30,3721.9546475,N,07958.3488324,W,2,04,3.34,368.9145,M,-32.8285,M,0.5,0000*4E"
224,0,0.000000,45.065277,"$GPGGA,183044.40,3721.9546191,N,07958.3488360,W,2,04,3.34,368.9019,M,-32.8285,M,0.6,0000*4D"
226,0,0.000000,45.165428,"$GPGGA,183044.50,3721.9546049,N,07958.3488193,W,2,04,3.34,368.8509,M,-32.8285,M,0.7,0000*42"
227,0,0.000000,45.269272,"$GPGGA,183044.60,3721.9545906,N,07958.3487907,W,2,04,3.34,368.8141,M,-32.8285,M,0.8,0000*4D"
228,0,0.000000,45.362595,"$GPGGA,183044.70,3721.9545468,N,07958.3487753,W,2,04,3.34,368.8467,M,-32.8285,M,0.9,0000*46"
229,0,0.000000,45.462118,"$GPGGA,183044.80,3721.9545324,N,07958.3487726,W,2,04,3.34,368.7944,M,-32.8285,M,1.0,0000*4F"
230,0,0.000000,45.562645,"$GPGGA,183044.90,3721.9545243,N,07958.3487529,W,2,04,3.34,368.7662,M,-32.8285,M,1.1,0000*49"
232,0,0.000000,45.692194,"$GPGGA,183045.00,3721.9545036,N,07958.3487442,W,2,04,3.34,368.7710,M,-32.8285,M,1.2,0000*4A"
232,0,0.000000,45.766004,"$GPGGA,183045.10,3721.9544867,N,07958.3487326,W,2,04,3.34,368.7430,M,-32.8285,M,1.3,0000*43"
233,0,0.000000,45.864275,"$GPGGA,183045.20,3721.9544660,N,07958.3487091,W,2,04,3.34,368.7363,M,-32.8285,M,1.4,0000*40"
234,0,0.000000,45.965254,"$GPGGA,183045.30,3721.9544465,N,07958.3486923,W,2,04,3.34,368.7242,M,-32.8285,M,0.3,0000*43"
236,0,0.000000,46.062129,"$GPGGA,183045.40,3721.9544237,N,07958.3487045,W,2,04,3.34,368.7336,M,-32.8285,M,0.4,0000*48"
237,0,0.000000,46.161784,"$GPGGA,183045.50,3721.9544070,N,07958.3486834,W,2,04,3.34,368.7359,M,-32.8285,M,0.5,0000*4F"
238,0,0.000000,46.261746,"$GPGGA,183045.60,3721.9543874,N,07958.3486671,W,2,04,3.34,368.7366,M,-32.8285,M,0.6,0000*47"
239,0,0.000000,46.365584,"$GPGGA,183045.70,3721.9543645,N,07958.3486636,W,2,04,3.34,368.7163,M,-32.8285,M,0.7,0000*4F"
240,0,0.000000,46.465041,"$GPGGA,183045.80,3721.9543483,N,07958.3486394,W,2,04,3.34,368.6924,M,-32.8285,M,0.8,0000*40"
241,0,0.000000,46.571297,"$GPGGA,183045.90,3721.9543254,N,07958.3486289,W,2,04,3.34,368.6766,M,-32.8285,M,0.9,0000*49"
242,0,0.000000,46.690195,"$GPGGA,183046.00,3721.9542952,N,07958.3485947,W,2,04,3.34,368.6814,M,-32.8285,M,1.0,0000*47"
243,0,0.000000,46.762493,"$GPGGA,183046.10,3721.9542771,N,07958.3485770,W,2,04,3.34,368.6520,M,-32.8285,M,1.1,0000*48"
244,0,0.000000,46.862670,"$GPGGA,183046.20,3721.9542568,N,07958.3485632,W,2,04,3.34,368.6376,M,-32.8285,M,1.2,0000*40"
245,0,0.000000,46.962260,"$GPGGA,183046.30,3721.9542449,N,07958.3485419,W,2,04,3.34,368.6028,M,-32.8285,M,0.7,0000*44"
246,0,0.000000,47.066062,"$GPGGA,183046.40,3721.9542308,N,07958.3485168,W,2,04,3.34,368.5871,M,-32.8285,M,0.8,0000*4A"
247,0,0.000000,47.165713,"$GPGGA,183046.50,3721.9542131,N,07958.3485040,W,2,04,3.34,368.5862,M,-32.8285,M,0.9,0000*4B"
249,0,0.000000,47.265475,"$GPGGA,183046.60,3721.9541915,N,07958.3484975,W,2,04,3.34,368.5538,M,-32.8285,M,1.0,0000*41"
250,0,0.000000,47.365091,"$GPGGA,183046.70,3721.9541816,N,07958.3484686,W,2,04,3.34,368.4996,M,-32.8285,M,1.1,0000*49"
251,0,0.000000,47.463038,"$GPGGA,183046.80,3721.9541349,N,07958.3484488,W,2,04,3.34,368.5555,M,-32.8285,M,1.2,0000*4A"
253,0,0.000000,47.563859,"$GPGGA,183046.90,3721.9541222,N,07958.3484407,W,2,04,3.34,368.5277,M,-32.8285,M,1.3,0000*46"
254,0,0.000000,47.688605,"$GPGGA,183047.00,3721.9540932,N,07958.3484303,W,2,04,3.34,368.5138,M,-32.8285,M,1.4,0000*49"
255,0,0.000000,47.765037,"$GPGGA,183047.10,3721.9540835,N,07958.3484029,W,2,04,3.34,368.4485,M,-32.8285,M,1.5,0000*46"
256,0,0.000000,47.865439,"$GPGGA,183047.20,3721.9540776,N,07958.3483732,W,2,04,3.34,368.4267,M,-32.8285,M,1.6,0000*4E"
257,0,0.000000,47.964660,"$GPGGA,183047.30,3721.9540634,N,07958.3483642,W,2,04,3.34,368.4016,M,-32.8285,M,0.5,0000*48"
258,0,0.000000,48.064873,"$GPGGA,183047.40,3721.9540477,N,07958.3483512,W,2,04,3.34,368.3926,M,-32.8285,M,0.6,0000*42"
259,0,0.000000,48.162941,"$GPGGA,183047.50,3721.9540229,N,07958.3483474,W,2,04,3.34,368.3291,M,-32.8285,M,0.7,0000*49"
261,0,0.000000,48.262698,"$GPGGA,183047.60,3721.9540093,N,07958.3483233,W,2,04,3.34,368.3136,M,-32.8285,M,0.8,0000*4D"
262,0,0.000000,48.361802,"$GPGGA,183047.70,3721.9539998,N,07958.3482935,W,2,04,3.34,368.3118,M,-32.8285,M,0.9,0000*41"
263,0,0.000000,48.464623,"$GPGGA,183047.80,3721.9539838,N,07958.3482704,W,2,04,3.34,368.3481,M,-32.8285,M,1.0,0000*44"
264,0,0.000000,48.566104,"$GPGGA,183047.90,3721.9539808,N,07958.3482914,W,2,04,3.34,368.3427,M,-32.8285,M,1.1,0000*44"
264,0,0.000000,48.692761,"$GPGGA,183048.00,3721.9539005,N,07958.3482673,W,2,04,3.34,368.1821,M,-32.8285,M,1.2,0000*42"
265,0,0.000000,48.764763,"$GPGGA,183048.10,3721.9538859,N,07958.3482538,W,2,04,3.34,368.1928,M,-32.8285,M,1.3,0000*46"
266,0,0.000000,48.866417,"$GPGGA,183048.20,3721.9538809,N,07958.3482350,W,2,04,3.34,368.2033,M,-32.8285,M,1.4,0000*4F"
267,0,0.000000,48.961866,"$GPGGA,183048.30,3721.9538770,N,07958.3482123,W,2,04,3.34,368.1729,M,-32.8285,M,0.3,0000*40"
269,0,0.000000,49.061983,"$GPGGA,183048.40,3721.9538705,N,07958.3481915,W,2,04,3.34,368.1366,M,-32.8285,M,0.4,0000*43"
271,0,0.000000,49.165238,"$GPGGA,183048.50,3721.9538536,N,07958.3481696,W,2,04,3.34,368.0972,M,-32.8285,M,0.5,0000*4B"
272,0,0.000000,49.265308,"$GPGGA,183048.60,3721.9538159,N,07958.3481423,W,2,04,3.34,368.1016,M,-32.8285,M,0.6,0000*40"
274,0,0.000000,49.365463,"$GPGGA,183048.70,3721.9537904,N,07958.3481323,W,2,04,3.34,368.0850,M,-32.8285,M,0.7,0000*43"
275,0,0.000000,49.464977,"$GPGGA,183048.80,3721.9537685,N,07958.3481109,W,2,04,3.34,368.0772,M,-32.8285,M,0.8,0000*40"
276,0,0.000000,49.562367,"$GPGGA,183048.90,3721.9537674,N,07958.3480640,W,2,04,3.34,367.9964,M,-32.8285,M,0.9,0000*4A"
276,0,0.000000,49.688341,"$GPGGA,183049.00,3721.9537571,N,07958.3480444,W,2,04,3.34,367.9553,M,-32.8285,M,1.0,0000*42"
277,0,0.000000,49.762248,"$GPGGA,183049.10,3721.9537210,N,07958.3480595,W,2,04,3.34,367.9502,M,-32.8285,M,1.1,0000*4B"
278,0,0.000000,49.865704,"$GPGGA,183049.20,3721.9537073,N,07958.3480405,W,2,04,3.34,367.9192,M,-32.8285,M,1.2,0000*49"
280,0,0.000000,49.965358,"$GPGGA,183049.30,3721.9536905,N,07958.3480227,W,2,04,3.34,367.9155,M,-32.8285,M,0.7,0000*48"
281,0,0.000000,50.064736,"$GPGGA,183049.40,3721.9536734,N,07958.3480058,W,2,04,3.34,367.8982,M,-32.8285,M,0.8,0000*45"
283,0,0.000000,50.172567,"$GPGGA,183049.50,3721.9536655,N,07958.3479702,W,2,04,3.34,367.8895,M,-32.8285,M,0.9,0000*4A"
284,0,0.000000,50.262324,"$GPGGA,183049.60,3721.9536474,N,07958.3479484,W,2,04,3.34,367.9252,M,-32.8285,M,1.0,0000*4D"
285,0,0.000000,50.361495,"$GPGGA,183049.70,3721.9536332,N,07958.3479254,W,2,04,3.34,367.9196,M,-32.8285,M,1.1,0000*48"
286,0,0.000000,50.461373,"$GPGGA,183049.80,3721.9536238,N,07958.3478944,W,2,04,3.34,367.9573,M,-32.8285,M,1.2,0000*4B"
287,0,0.000000,50.560937,"$GPGGA,183049.90,3721.9536047,N,07958.3478781,W,2,04,3.34,367.9744,M,-32.8285,M,1.3,0000*40"
288,0,0.000000,50.691395,"$GPGGA,183050.00,3721.9535834,N,07958.3478828,W,2,04,3.34,367.9935,M,-32.8285,M,1.4,0000*4D"
289,0,0.000000,50.765157,"$GPGGA,183050.10,3721.9535661,N,07958.3478563,W,2,04,3.34,367.9787,M,-32.8285,M,1.5,0000*46"
291,0,0.000000,50.865017,"$GPGGA,183050.20,3721.9535479,N,07958.3478066,W,2,04,3.34,368.0002,M,-32.8285,M,1.6,0000*41"
292,0,0.000000,50.963549,"$GPGGA,183050.30,3721.9535399,N,07958.3478049,W,2,04,3.34,368.0353,M,-32.8285,M,0.5,0000*41"
293,0,0.000000,51.062842,"$GPGGA,183050.40,3721.9534906,N,07958.3478130,W,2,04,3.34,367.9211,M,-32.8285,M,0.6,0000*46"
295,0,0.000000,51.162509,"$GPGGA,183050.50,3721.9534660,N,07958.3477739,W,2,04,3.34,367.9945,M,-32.8285,M,0.7,0000*43"
296,0,0.000000,51.265874,"$GPGGA,183050.60,3721.9534440,N,07958.3477608,W,2,04,3.34,367.9763,M,-32.8285,M,0.8,0000*46"
298,0,0.000000,51.365367,"$GPGGA,183050.70,3721.9534218,N,07958.3477345,W,2,04,3.34,367.9621,M,-32.8285,M,0.9,0000*46"
300,0,0.000000,51.465570,"$GPGGA,183050.80,3721.9534021,N,07958.3477015,W,2,04,3.34,367.9537,M,-32.8285,M,1.0,0000*4B"
302,0,0.000000,51.564885,"$GPGGA,183050.90,3721.9533592,N,07958.3477181,W,2,04,3.34,367.8810,M,-32.8285,M,1.1,0000*44"
304,0,0.000000,51.693513,"$GPGGA,183051.00,3721.9533502,N,07958.3476617,W,2,04,3.34,367.9192,M,-32.8285,M,1.2,0000*4D"
306,0,0.000000,51.761506,"$GPGGA,183051.10,3721.9533287,N,07958.3476403,W,2,04,3.34,367.8831,M,-32.8285,M,1.3,0000*41"
308,0,0.000000,51.863576,"$GPGGA,183051.20,3721.9532707,N,07958.3476253,W,2,04,3.34,367.9856,M,-32.8285,M,1.4,0000*4A"
310,0,0.000000,51.966608,"$GPGGA,183051.30,3721.9532946,N,07958.3475629,W,2,04,3.34,367.8222,M,-32.8285,M,1.5,0000*43"
312,0,0.000000,52.065620,"$GPGGA,183051.40,3721.9532421,N,07958.3475432,W,2,04,3.34,367.8206,M,-32.8285,M,0.4,0000*46"
313,0,0.000000,52.165309,"$GPGGA,183051.50,3721.9532213,N,07958.3475310,W,2,04,3.34,367.8218,M,-32.8285,M,0.5,0000*49"
314,0,0.000000,52.264992,"$GPGGA,183051.60,3721.9531987,N,07958.3475061,W,2,04,3.34,367.7949,M,-32.8285,M,0.6,0000*49"
315,0,0.000000,52.363297,"$GPGGA,183051.70,3721.9531664,N,07958.3474823,W,2,04,3.34,367.7820,M,-32.8285,M,0.7,0000*4A"
316,0,0.000000,52.462517,"$GPGGA,183051.80,3721.9531517,N,07958.3474485,W,2,04,3.34,367.7206,M,-32.8285,M,0.8,0000*43"
316,0,0.000000,52.562248,"$GPGGA,183051.90,3721.9531310,N,07958.3474322,W,2,04,3.34,367.6978,M,-32.8285,M,0.9,0000*4B"
318,0,0.000000,52.687608,"$GPGGA,183052.00,3721.9531162,N,07958.3474215,W,2,04,3.34,367.6923,M,-32.8285,M,1.0,0000*45"
318,0,0.000000,52.765375,"$GPGGA,183052.10,3721.9531021,N,07958.3474144,W,2,04,3.34,367.6873,M,-32.8285,M,1.1,0000*40"
319,0,0.000000,52.865560,"$GPGGA,183052.20,3721.9530819,N,07958.3473869,W,2,04,3.34,367.7320,M,-32.8285,M,1.2,0000*4F"
320,0,0.000000,52.966010,"$GPGGA,183052.30,3721.9530628,N,07958.3473728,W,2,04,3.34,367.7149,M,-32.8285,M,0.7,0000*41"
321,0,0.000000,53.063579,"$GPGGA,183052.40,3721.9530420,N,07958.3473683,W,2,04,3.34,367.6834,M,-32.8285,M,0.8,0000*41"
322,0,0.000000,53.161546,"$GPGGA,183052.50,3721.9530212,N,07958.3473613,W,2,04,3.34,367.6827,M,-32.8285,M,0.9,0000*4D"
323,0,0.000000,53.261518,"$GPGGA,183052.60,3721.9530041,N,07958.3473323,W,2,04,3.34,367.6329,M,-32.8285,M,1.0,0000*41"
324,0,0.000000,53.361362,"$GPGGA,183052.70,3721.9529892,N,07958.3473164,W,2,04,3.34,367.6298,M,-32.8285,M,1.1,0000*45"
326,0,0.000000,53.464903,"$GPGGA,183052.80,3721.9529650,N,07958.3472936,W,2,04,3.34,367.6366,M,-32.8285,M,1.2,0000*47"
327,0,0.000000,53.564421,"$GPGGA,183052.90,3721.9529508,N,07958.3472725,W,2,04,3.34,367.6132,M,-32.8285,M,1.3,0000*46"
328,0,0.000000,53.692549,"$GPGGA,183053.00,3721.9529175,N,07958.3472645,W,2,04,3.34,367.5672,M,-32.8285,M,1.4,0000*40"
329,0,0.000000,53.764028,"$GPGGA,183053.10,3721.9528891,N,07958.3472484,W,2,04,3.34,367.5968,M,-32.8285,M,1.5,0000*49"
330,0,0.000000,53.861958,"$GPGGA,183053.20,3721.9528718,N,07958.3472477,W,2,04,3.34,367.5415,M,-32.8285,M,1.6,0000*4C"
332,0,0.000000,53.962152,"$GPGGA,183053.30,3721.9528549,N,07958.3472396,W,2,04,3.34,367.5271,M,-32.8285,M,1.7,0000*46"
333,0,0.000000,54.061666,"$GPGGA,183053.40,3721.9528309,N,07958.3472372,W,2,04,3.34,367.5254,M,-32.8285,M,0.6,0000*4E"
335,0,0.000000,54.170442,"$GPGGA,183053.50,3721.9527863,N,07958.3472234,W,2,04,3.34,367.5778,M,-32.8285,M,0.7,0000*4E"
336,0,0.000000,54.264736,"$GPGGA,183053.60,3721.9527745,N,07958.3471924,W,2,04,3.34,367.5439,M,-32.8285,M,0.8,0000*46"
337,0,0.000000,54.365333,"$GPGGA,183053.70,3721.9527481,N,07958.3472047,W,2,04,3.34,367.3613,M,-32.8285,M,0.9,0000*4E"
338,0,0.000000,54.463431,"$GPGGA,183053.80,3721.9527196,N,07958.3471879,W,2,04,3.34,367.4188,M,-32.8285,M,1.0,0000*4E"
340,0,0.000000,54.564125,"$GPGGA,183053.90,3721.9527087,N,07958.3471693,W,2,04,3.34,367.4877,M,-32.8285,M,1.1,0000*4C"
341,0,0.000000,54.687729,"$GPGGA,183054.00,3721.9527150,N,07958.3471463,W,2,04,3.34,367.3108,M,-32.8285,M,1.2,0000*41"
342,0,0.000000,54.765565,"$GPGGA,183054.10,3721.9527438,N,07958.3470836,W,2,04,3.34,367.4382,M,-32.8285,M,1.3,0000*40"
344,0,0.000000,54.878850,"$GPGGA,183054.20,3721.9526612,N,07958.3471130,W,2,04,3.34,367.4488,M,-32.8285,M,1.4,0000*4C"
346,0,0.000000,54.970936,"$GPGGA,183054.30,3721.9526476,N,07958.3470749,W,2,04,3.34,367.3771,M,-32.8285,M,0.3,0000*40"
348,0,0.000000,55.066864,"$GPGGA,183054.40,3721.9526196,N,07958.3470429,W,2,04,3.34,367.4217,M,-32.8285,M,0.4,0000*4C"
350,0,0.000000,55.165236,"$GPGGA,183054.50,3721.9526161,N,07958.3470506,W,2,04,3.34,367.2689,M,-32.8285,M,0.5,0000*4D"
351,0,0.000000,55.262562,"$GPGGA,183054.60,3721.9525828,N,07958.3470646,W,2,04,3.34,367.2790,M,-32.8285,M,0.6,0000*44"
353,0,0.000000,55.364212,"$GPGGA,183054.70,3721.9526488,N,07958.3469593,W,2,04,3.34,367.6159,M,-32.8285,M,0.7,0000*45"
354,0,0.000000,55.466158,"$GPGGA,183054.80,3721.9526246,N,07958.3469433,W,2,04,3.34,367.5575,M,-32.8285,M,0.8,0000*43"
355,0,0.000000,55.570015,"$GPGGA,183054.90,3721.9525899,N,07958.3470978,W,2,04,3.34,366.8293,M,-32.8285,M,0.9,0000*41"
357,0,0.000000,55.692081,"$GPGGA,183055.00,3721.9525698,N,07958.3470945,W,2,04,3.34,366.7610,M,-32.8285,M,1.0,0000*40"
358,0,0.000000,55.765552,"$GPGGA,183055.10,3721.9525529,N,07958.3470897,W,2,04,3.34,366.7426,M,-32.8285,M,1.1,0000*40"
359,0,0.000000,55.867255,"$GPGGA,183055.20,3721.9525481,N,07958.3470755,W,2,04,3.34,366.6901,M,-32.8285,M,1.2,0000*4B"
360,0,0.000000,55.961207,"$GPGGA,183055.30,3721.9525289,N,07958.3470754,W,2,04,3.34,366.6603,M,-32.8285,M,0.7,0000*4C"
360,0,0.000000,56.061392,"$GPGGA,183055.40,3721.9525023,N,07958.3470549,W,2,05,1.91,366.6372,M,-32.8285,M,0.8,0000*47"
361,0,0.000000,56.164971,"$GPGGA,183055.50,3721.9524924,N,07958.3470337,W,2,05,1.91,366.6185,M,-32.8285,M,0.9,0000*4D"
362,0,0.000000,56.265328,"$GPGGA,183055.60,3721.9524631,N,07958.3470208,W,2,05,1.91,366.6366,M,-32.8285,M,1.0,0000*4F"
364,0,0.000000,56.563901,"$GPGGA,183055.90,3721.9524180,N,07958.3469930,W,2,05,1.91,366.5789,M,-32.8285,M,1.3,0000*40"
365,0,0.000000,56.689289,"$GPGGA,183056.00,3721.9523941,N,07958.3469779,W,2,05,1.91,366.5708,M,-32.8285,M,1.4,0000*45"
366,0,0.000000,56.761781,"$GPGGA,183056.10,3721.9523749,N,07958.3469762,W,2,05,1.91,366.5265,M,-32.8285,M,1.5,0000*47"
368,0,0.000000,56.861189,"$GPGGA,183056.20,3721.9523513,N,07958.3469549,W,2,05,1.91,366.5123,M,-32.8285,M,1.6,0000*40"
369,0,0.000000,56.964391,"$GPGGA,183056.30,3721.9523234,N,07958.3469429,W,2,05,1.91,366.5175,M,-32.8285,M,0.5,0000*45"
370,0,0.000000,57.067267,"$GPGGA,183056.40,3721.9523064,N,07958.3469214,W,2,05,1.91,366.4645,M,-32.8285,M,0.6,0000*4B"
371,0,0.000000,57.167307,"$GPGGA,183056.50,3721.9522820,N,07958.3469129,W,2,05,1.91,366.4333,M,-32.8285,M,0.7,0000*4B"
373,0,0.000000,57.265978,"$GPGGA,183056.60,3721.9522629,N,07958.3469081,W,2,05,1.91,366.4100,M,-32.8285,M,0.8,0000*41"
374,0,0.000000,57.364689,"$GPGGA,183056.70,3721.9522438,N,07958.3468544,W,2,05,1.91,366.3727,M,-32.8285,M,0.9,0000*4A"
376,0,0.000000,57.462276,"$GPGGA,183056.80,3721.9522261,N,07958.3468182,W,2,05,1.91,366.4083,M,-32.8285,M,1.0,0000*47"
378,0,0.000000,57.565855,"$GPGGA,183056.90,3721.9522090,N,07958.3468010,W,2,05,1.91,366.3811,M,-32.8285,M,1.1,0000*45"
380,0,0.000000,57.692463,"$GPGGA,183057.00,3721.9521830,N,07958.3467922,W,2,05,1.91,366.3781,M,-32.8285,M,1.2,0000*4E"
381,0,0.000000,57.764411,"$GPGGA,183057.10,3721.9521683,N,07958.3467901,W,2,05,1.91,366.3138,M,-32.8285,M,1.3,0000*4D"
383,0,0.000000,57.864250,"$GPGGA,183057.20,3721.9521264,N,07958.3467745,W,2,05,1.91,366.2767,M,-32.8285,M,1.4,0000*47"
384,0,0.000000,57.963366,"$GPGGA,183057.30,3721.9521126,N,07958.3467411,W,2,05,1.91,366.2345,M,-32.8285,M,1.5,0000*44"
386,0,0.000000,58.062045,"$GPGGA,183057.40,3721.9520874,N,07958.3467261,W,2,05,1.91,366.2087,M,-32.8285,M,0.4,0000*40"
387,0,0.000000,58.161558,"$GPGGA,183057.50,3721.9520484,N,07958.3467083,W,2,05,1.91,366.1978,M,-32.8285,M,0.5,0000*47"
389,0,0.000000,58.267761,"$GPGGA,183057.60,3721.9520390,N,07958.3466910,W,2,05,1.91,366.1862,M,-32.8285,M,0.6,0000*4D"
390,0,0.000000,58.364842,"$GPGGA,183057.70,3721.9520078,N,07958.3466659,W,2,05,1.91,366.2193,M,-32.8285,M,0.7,0000*4E"
392,0,0.000000,58.466505,"$GPGGA,183057.80,3721.9519799,N,07958.3466337,W,2,05,1.91,366.1719,M,-32.8285,M,0.8,0000*46"
393,0,0.000000,58.564610,"$GPGGA,183057.90,3721.9520036,N,07958.3466160,W,2,05,1.91,366.0747,M,-32.8285,M,0.9,0000*44"
394,0,0.000000,58.690765,"$GPGGA,183058.00,3721.9520043,N,07958.3465958,W,2,05,1.91,366.0068,M,-32.8285,M,1.0,0000*42"
395,0,0.000000,58.762610,"$GPGGA,183058.10,3721.9520009,N,07958.3465685,W,2,05,1.91,365.9738,M,-32.8285,M,1.1,0000*4B"
396,0,0.000000,58.862153,"$GPGGA,183058.20,3721.9519920,N,07958.3465666,W,2,05,1.91,365.8899,M,-32.8285,M,1.2,0000*4B"
398,0,0.000000,58.966632,"$GPGGA,183058.30,3721.9519717,N,07958.3465658,W,2,05,1.91,365.8671,M,-32.8285,M,0.7,0000*41"
400,0,0.000000,59.064541,"$GPGGA,183058.40,3721.9519711,N,07958.3465569,W,2,05,1.91,365.7170,M,-32.8285,M,0.8,0000*47"
401,0,0.000000,59.164984,"$GPGGA,183058.50,3721.9519111,N,07958.3465089,W,2,05,1.91,365.8270,M,-32.8285,M,0.9,0000*46"
403,0,0.000000,59.267400,"$GPGGA,183058.60,3721.9519018,N,07958.3464587,W,2,05,1.91,365.7991,M,-32.8285,M,1.0,0000*44"
403,0,0.000000,59.363982,"$GPGGA,183058.70,3721.9519108,N,07958.3464142,W,2,05,1.91,365.7220,M,-32.8285,M,1.1,0000*48"
404,0,0.000000,59.461870,"$GPGGA,183058.80,3721.9518917,N,07958.3463671,W,2,05,1.91,365.7067,M,-32.8285,M,1.2,0000*42"
405,0,0.000000,59.561232,"$GPGGA,183058.90,3721.9518631,N,07958.3463363,W,2,05,1.91,365.7563,M,-32.8285,M,1.3,0000*4E"
405,0,0.000000,59.688749,"$GPGGA,183059.00,3721.9518444,N,07958.3463365,W,2,05,1.91,365.7134,M,-32.8285,M,1.4,0000*41"
407,0,0.000000,59.763907,"$GPGGA,183059.10,3721.9518065,N,07958.3463341,W,2,05,1.91,365.7288,M,-32.8285,M,1.5,0000*44"
408,0,0.000000,59.865335,"$GPGGA,183059.20,3721.9517639,N,07958.3462830,W,2,05,1.91,365.8397,M,-32.8285,M,1.6,0000*48"
409,0,0.000000,59.965755,"$GPGGA,183059.30,3721.9517633,N,07958.3462918,W,2,05,1.91,365.7398,M,-32.8285,M,0.5,0000*4A"
410,0,0.000000,60.064073,"$GPGGA,183059.40,3721.9517532,N,07958.3462946,W,2,05,1.91,365.6710,M,-32.8285,M,0.6,0000*42"
411,0,0.000000,60.162900,"$GPGGA,183059.50,3721.9517209,N,07958.3462806,W,2,05,1.91,365.6736,M,-32.8285,M,0.7,0000*4C"
412,0,0.000000,60.262056,"$GPGGA,183059.60,3721.9516899,N,07958.3462525,W,2,05,1.91,365.7353,M,-32.8285,M,0.8,0000*48"
412,0,0.000000,60.365533,"$GPGGA,183059.70,3721.9516800,N,07958.3462442,W,2,05,1.91,365.7220,M,-32.8285,M,0.9,0000*4D"
413,0,0.000000,60.465222,"$GPGGA,183059.80,3721.9516679,N,07958.3462366,W,2,05,1.91,365.7161,M,-32.8285,M,1.0,0000*4D"
414,0,0.000000,60.564836,"$GPGGA,183059.90,3721.9516491,N,07958.3462277,W,2,05,1.91,365.6717,M,-32.8285,M,1.1,0000*4E"
415,0,0.000000,60.693255,"$GPGGA,183100.00,3721.9516338,N,07958.3462164,W,2,05,1.91,365.6429,M,-32.8285,M,1.2,0000*42"
417,0,0.000000,60.764772,"$GPGGA,183100.10,3721.9516235,N,07958.3462093,W,2,05,1.91,365.6137,M,-32.8285,M,1.3,0000*4D"
418,0,0.000000,60.862157,"$GPGGA,183100.20,3721.9516052,N,07958.3461971,W,2,05,1.91,365.6223,M,-32.8285,M,1.4,0000*4A"
420,0,0.000000,60.961888,"$GPGGA,183100.30,3721.9515781,N,07958.3461753,W,2,05,1.91,365.6565,M,-32.8285,M,0.3,0000*4C"
422,0,0.000000,61.061367,"$GPGGA,183100.40,3721.9515384,N,07958.3461868,W,2,05,1.91,365.5203,M,-32.8285,M,0.4,0000*4E"
424,0,0.000000,61.165159,"$GPGGA,183100.50,3721.9515163,N,07958.3461863,W,2,05,1.91,365.5336,M,-32.8285,M,0.5,0000*49"
426,0,0.000000,61.264691,"$GPGGA,183100.60,3721.9514827,N,07958.3461754,W,2,05,1.91,365.5324,M,-32.8285,M,0.6,0000*49"
428,0,0.000000,61.364838,"$GPGGA,183100.70,3721.9514470,N,07958.3461942,W,2,05,1.91,365.5058,M,-32.8285,M,0.7,0000*46"
430,0,0.000000,61.464610,"$GPGGA,183100.80,3721.9514368,N,07958.3461813,W,2,05,1.91,365.4648,M,-32.8285,M,0.8,0000*4B"
431,0,0.000000,61.563187,"$GPGGA,183100.90,3721.9514078,N,07958.3461649,W,2,05,1.91,365.4657,M,-32.8285,M,0.9,0000*46"
432,0,0.000000,61.689708,"$GPGGA,183101.00,3721.9513847,N,07958.3461508,W,2,05,1.91,365.4267,M,-32.8285,M,1.0,0000*44"
433,0,0.000000,61.761484,"$GPGGA,183101.10,3721.9513753,N,07958.3461462,W,2,05,1.91,365.3747,M,-32.8285,M,1.1,0000*43"
435,0,0.000000,61.865042,"$GPGGA,183101.20,3721.9513269,N,07958.3461583,W,2,05,1.91,365.4062,M,-32.8285,M,1.2,0000*46"
436,0,0.000000,61.964756,"$GPGGA,183101.30,3721.9513067,N,07958.3461249,W,2,05,1.91,365.4156,M,-32.8285,M,0.7,0000*48"
437,0,0.000000,62.065546,"$GPGGA,183101.40,3721.9512668,N,07958.3461110,W,2,05,1.91,365.3622,M,-32.8285,M,0.8,0000*44"
438,0,0.000000,62.165853,"$GPGGA,183101.50,3721.9512396,N,07958.3460787,W,2,05,1.91,365.3987,M,-32.8285,M,0.9,0000*49"
439,0,0.000000,62.261524,"$GPGGA,183101.60,3721.9512260,N,07958.3460701,W,2,05,1.91,365.3659,M,-32.8285,M,1.0,0000*48"
441,0,0.000000,62.360983,"$GPGGA,183101.70,3721.9511949,N,07958.3460693,W,2,05,1.91,365.3528,M,-32.8285,M,1.1,0000*44"
442,0,0.000000,62.460711,"$GPGGA,183101.80,3721.9511617,N,07958.3460465,W,2,05,1.91,365.4036,M,-32.8285,M,1.2,0000*4A"
444,0,0.000000,62.560341,"$GPGGA,183101.90,3721.9511287,N,07958.3460258,W,2,05,1.91,365.4263,M,-32.8285,M,1.3,0000*4D"
445,0,0.000000,62.691989,"$GPGGA,183102.00,3721.9511640,N,07958.3459937,W,2,05,1.91,365.1818,M,-32.8285,M,1.4,0000*44"
446,0,0.000000,62.763624,"$GPGGA,183102.10,3721.9511360,N,07958.3459778,W,2,05,1.91,365.1696,M,-32.8285,M,1.5,0000*4E"
448,0,0.000000,62.863175,"$GPGGA,183102.20,3721.9510704,N,07958.3460112,W,2,05,1.91,365.2290,M,-32.8285,M,1.6,0000*48"
449,0,0.000000,62.961788,"$GPGGA,183102.30,3721.9510484,N,07958.3459920,W,2,05,1.91,365.1837,M,-32.8285,M,0.5,0000*47"
450,0,0.000000,63.060302,"$GPGGA,183102.40,3721.9510464,N,07958.3459528,W,2,05,1.91,365.1271,M,-32.8285,M,0.6,0000*41"
452,0,0.000000,63.165426,"$GPGGA,183102.50,3721.9510292,N,07958.3459383,W,2,05,1.91,365.1342,M,-32.8285,M,0.7,0000*48"
453,0,0.000000,63.263880,"$GPGGA,183102.60,3721.9510094,N,07958.3459344,W,2,05,1.91,365.1709,M,-32.8285,M,0.8,0000*40"
455,0,0.000000,63.363885,"$GPGGA,183102.70,3721.9509800,N,07958.3459180,W,2,05,1.91,365.1734,M,-32.8285,M,0.9,0000*49"
456,0,0.000000,63.463314,"$GPGGA,183102.80,3721.9509691,N,07958.3458938,W,2,05,1.91,365.1795,M,-32.8285,M,1.0,0000*49"
457,0,0.000000,63.566928,"$GPGGA,183102.90,3721.9509734,N,07958.3458617,W,2,05,1.91,365.1821,M,-32.8285,M,1.1,0000*45"
457,0,0.000000,63.688889,"$GPGGA,183103.00,3721.9509644,N,07958.3458307,W,2,05,1.91,365.2095,M,-32.8285,M,1.2,0000*48"
458,0,0.000000,63.760779,"$GPGGA,183103.10,3721.9509461,N,07958.3458190,W,2,05,1.91,365.1396,M,-32.8285,M,1.3,0000*42"
459,0,0.000000,63.860575,"$GPGGA,183103.20,3721.9509393,N,07958.3458062,W,2,05,1.91,365.1292,M,-32.8285,M,1.4,0000*45"
460,0,0.000000,63.960309,"$GPGGA,183103.30,3721.9509324,N,07958.3457986,W,2,05,1.91,365.1335,M,-32.8285,M,0.3,0000*4E"
461,0,0.000000,64.064355,"$GPGGA,183103.40,3721.9509175,N,07958.3457926,W,2,05,1.91,365.1291,M,-32.8285,M,0.4,0000*4D"
462,0,0.000000,64.164125,"$GPGGA,183103.50,3721.9508912,N,07958.3458058,W,2,05,1.91,365.1101,M,-32.8285,M,0.5,0000*40"
463,0,0.000000,64.264097,"$GPGGA,183103.60,3721.9508604,N,07958.3457995,W,2,05,1.91,365.1105,M,-32.8285,M,0.6,0000*4B"
465,0,0.000000,64.361706,"$GPGGA,183103.70,3721.9508200,N,07958.3457718,W,2,05,1.91,365.1604,M,-32.8285,M,0.7,0000*46"
467,0,0.000000,64.461266,"$GPGGA,183103.80,3721.9507959,N,07958.3457582,W,2,05,1.91,365.1332,M,-32.8285,M,0.8,0000*4F"
469,0,0.000000,64.561597,"$GPGGA,183103.90,3721.9507656,N,07958.3457489,W,2,05,1.91,365.1335,M,-32.8285,M,0.9,0000*42"
471,0,0.000000,64.691133,"$GPGGA,183104.00,3721.9507271,N,07958.3457580,W,2,05,1.91,365.0759,M,-32.8285,M,1.0,0000*42"
472,0,0.000000,64.764374,"$GPGGA,183104.10,3721.9506902,N,07958.3457226,W,2,05,1.91,365.1144,M,-32.8285,M,1.1,0000*4C"
474,0,0.000000,64.865097,"$GPGGA,183104.20,3721.9506657,N,07958.3457029,W,2,05,1.91,365.0313,M,-32.8285,M,1.2,0000*4F"
475,0,0.000000,64.964946,"$GPGGA,183104.30,3721.9506202,N,07958.3457010,W,2,05,1.91,365.0116,M,-32.8285,M,0.7,0000*43"
476,0,0.000000,65.062405,"$GPGGA,183104.40,3721.9506024,N,07958.3456662,W,2,05,1.91,364.8643,M,-32.8285,M,0.8,0000*41"
477,0,0.000000,65.165592,"$GPGGA,183104.50,3721.9505502,N,07958.3456125,W,2,05,1.91,365.1011,M,-32.8285,M,0.9,0000*4E"
478,0,0.000000,65.261094,"$GPGGA,183104.60,3721.9505340,N,07958.3456023,W,2,05,1.91,365.0786,M,-32.8285,M,1.0,0000*4A"
480,0,0.000000,65.360391,"$GPGGA,183104.70,3721.9505221,N,07958.3456068,W,2,05,1.91,365.0245,M,-32.8285,M,1.1,0000*49"
482,0,0.000000,65.464932,"$GPGGA,183104.80,3721.9505000,N,07958.3456187,W,2,05,1.91,364.9811,M,-32.8285,M,1.2,0000*47"
484,0,0.000000,65.565002,"$GPGGA,183104.90,3721.9504828,N,07958.3455914,W,2,05,1.91,364.8801,M,-32.8285,M,1.3,0000*45"
485,0,0.000000,65.691756,"$GPGGA,183105.00,3721.9504659,N,07958.3455712,W,2,05,1.91,364.8846,M,-32.8285,M,1.4,0000*49"
486,0,0.000000,65.763219,"$GPGGA,183105.10,3721.9504583,N,07958.3455257,W,2,05,1.91,365.0363,M,-32.8285,M,1.5,0000*4C"
487,0,0.000000,65.861682,"$GPGGA,183105.20,3721.9504309,N,07958.3455459,W,2,05,1.91,364.9721,M,-32.8285,M,1.6,0000*4A"
488,0,0.000000,65.965763,"$GPGGA,183105.30,3721.9503975,N,07958.3455561,W,2,05,1.91,364.9257,M,-32.8285,M,0.5,0000*41"
490,0,0.000000,66.065732,"$GPGGA,183105.40,3721.9503836,N,07958.3455485,W,2,04,2.10,364.9285,M,-32.8285,M,0.6,0000*4C"
492,0,0.000000,66.165434,"$GPGGA,183105.50,3721.9504030,N,07958.3454952,W,2,05,1.91,364.9486,M,-32.8285,M,0.7,0000*4D"
493,0,0.000000,66.267895,"$GPGGA,183105.60,3721.9503947,N,07958.3454557,W,2,04,2.10,365.0205,M,-32.8285,M,0.8,0000*48"
494,0,0.000000,66.364760,"$GPGGA,183105.70,3721.9503860,N,07958.3454492,W,2,04,2.10,365.0351,M,-32.8285,M,0.9,0000*44"
496,0,0.000000,66.462164,"$GPGGA,183105.80,3721.9501673,N,07958.3454773,W,2,04,2.10,364.3275,M,-32.8285,M,1.0,0000*44"
498,0,0.000000,66.560886,"$GPGGA,183105.90,3721.9501234,N,07958.3454565,W,2,04,2.10,364.2136,M,-32.8285,M,1.1,0000*43"
500,0,0.000000,66.688526,"$GPGGA,183106.00,3721.9501028,N,07958.3454454,W,2,05,1.91,364.1682,M,-32.8285,M,1.2,0000*46"
501,0,0.000000,66.768418,"$GPGGA,183106.10,3721.9500953,N,07958.3454442,W,2,05,1.91,364.1737,M,-32.8285,M,1.3,0000*4A"
503,0,0.000000,66.865082,"$GPGGA,183106.20,3721.9500605,N,07958.3454543,W,2,05,1.91,364.0312,M,-32.8285,M,1.4,0000*40"
505,0,0.000000,66.964821,"$GPGGA,183106.30,3721.9499053,N,07958.3453892,W,2,05,1.91,363.7486,M,-32.8285,M,1.5,0000*48"
507,0,0.000000,67.063873,"$GPGGA,183106.40,3721.9498856,N,07958.3453791,W,2,05,1.91,363.7534,M,-32.8285,M,0.4,0000*47"
509,0,0.000000,67.163251,"$GPGGA,183106.50,3721.9499900,N,07958.3454154,W,2,05,1.91,364.0143,M,-32.8285,M,0.5,0000*48"
511,0,0.000000,67.262138,"$GPGGA,183106.60,3721.9499179,N,07958.3454099,W,2,05,1.91,363.8688,M,-32.8285,M,0.6,0000*41"
513,0,0.000000,67.362029,"$GPGGA,183106.70,3721.9498809,N,07958.3453879,W,2,05,1.91,363.8550,M,-32.8285,M,0.7,0000*49"
514,0,0.000000,67.465563,"$GPGGA,183106.80,3721.9498439,N,07958.3453729,W,2,05,1.91,363.8153,M,-32.8285,M,0.8,0000*4B"
516,0,0.000000,67.565091,"$GPGGA,183106.90,3721.9498027,N,07958.3453505,W,2,05,1.91,363.7915,M,-32.8285,M,0.9,0000*49"
518,0,0.000000,67.692607,"$GPGGA,183107.00,3721.9497720,N,07958.3453215,W,2,05,1.91,363.7563,M,-32.8285,M,1.0,0000*4D"
519,0,0.000000,67.765623,"$GPGGA,183107.10,3721.9497558,N,07958.3453103,W,2,05,1.91,363.7702,M,-32.8285,M,1.1,0000*41"
520,0,0.000000,67.866797,"$GPGGA,183107.20,3721.9496678,N,07958.3452922,W,2,05,1.91,363.6742,M,-32.8285,M,1.2,0000*4E"
521,0,0.000000,67.961477,"$GPGGA,183107.30,3721.9496344,N,07958.3452818,W,2,05,1.91,363.6980,M,-32.8285,M,1.3,0000*4C"
522,0,0.000000,68.061117,"$GPGGA,183107.40,3721.9494919,N,07958.3452570,W,2,05,1.91,363.3514,M,-32.8285,M,0.8,0000*46"
523,0,0.000000,68.164868,"$GPGGA,183107.50,3721.9496176,N,07958.3452341,W,2,05,1.91,363.8248,M,-32.8285,M,0.9,0000*44"
525,0,0.000000,68.264345,"$GPGGA,183107.60,3721.9495879,N,07958.3452263,W,2,05,1.91,363.7789,M,-32.8285,M,1.0,0000*4C"
526,0,0.000000,68.365086,"$GPGGA,183107.70,3721.9496239,N,07958.3452107,W,2,05,1.91,363.9513,M,-32.8285,M,1.1,0000*4F"
528,0,0.000000,68.465098,"$GPGGA,183107.80,3721.9495670,N,07958.3451926,W,2,05,1.91,363.7835,M,-32.8285,M,1.2,0000*46"
529,0,0.000000,68.563875,"$GPGGA,183107.90,3721.9495298,N,07958.3451861,W,2,05,1.91,363.7983,M,-32.8285,M,1.3,0000*4A"
531,0,0.000000,68.689420,"$GPGGA,183108.00,3721.9495004,N,07958.3451734,W,2,05,1.91,363.7790,M,-32.8285,M,1.4,0000*4F"
532,0,0.000000,68.761769,"$GPGGA,183108.10,3721.9494969,N,07958.3451369,W,2,05,1.91,363.8010,M,-32.8285,M,1.5,0000*40"
533,0,0.000000,68.864804,"$GPGGA,183108.20,3721.9494959,N,07958.3451011,W,2,05,1.91,363.8207,M,-32.8285,M,1.6,0000*4B"
538,0,0.000000,69.165298,"$GPGGA,183108.50,3721.9493880,N,07958.3450592,W,2,05,1.91,363.7195,M,-32.8285,M,0.7,0000*46"
540,0,0.000000,69.263856,"$GPGGA,183108.60,3721.9493500,N,07958.3450106,W,2,05,1.91,363.7532,M,-32.8285,M,0.8,0000*4F"
542,0,0.000000,69.361262,"$GPGGA,183108.70,3721.9493332,N,07958.3449820,W,2,05,1.91,363.7250,M,-32.8285,M,0.9,0000*4E"
544,0,0.000000,69.461559,"$GPGGA,183108.80,3721.9493083,N,07958.3449487,W,2,04,2.43,363.7046,M,-32.8285,M,1.0,0000*49"
545,0,0.000000,69.561241,"$GPGGA,183108.90,3721.9492857,N,07958.3449338,W,2,04,2.43,363.6422,M,-32.8285,M,1.1,0000*4D"
546,0,0.000000,69.692612,"$GPGGA,183109.00,3721.9492479,N,07958.3448967,W,2,04,2.43,363.6380,M,-32.8285,M,1.2,0000*48"
547,0,0.000000,69.766987,"$GPGGA,183109.10,3721.9491984,N,07958.3449179,W,2,04,2.43,363.6128,M,-32.8285,M,1.3,0000*42"
549,0,0.000000,69.865307,"$GPGGA,183109.20,3721.9491739,N,07958.3448755,W,2,04,2.43,363.5624,M,-32.8285,M,1.4,0000*4F"
550,0,0.000000,69.963214,"$GPGGA,183109.30,3721.9491602,N,07958.3448485,W,2,04,2.43,363.5594,M,-32.8285,M,0.3,0000*47"
552,0,0.000000,70.061900,"$GPGGA,183109.40,3721.9491505,N,07958.3448100,W,2,04,2.43,363.5688,M,-32.8285,M,0.4,0000*45"
554,0,0.000000,70.162391,"$GPGGA,183109.50,3721.9491371,N,07958.3447850,W,2,04,2.43,363.5554,M,-32.8285,M,0.5,0000*41"
556,0,0.000000,70.275047,"$GPGGA,183109.60,3721.9491019,N,07958.3447642,W,2,04,2.43,363.5173,M,-32.8285,M,0.6,0000*40"
557,0,0.000000,70.365076,"$GPGGA,183109.70,3721.9490710,N,07958.3447445,W,2,04,2.43,363.5118,M,-32.8285,M,0.7,0000*47"
559,0,0.000000,70.465030,"$GPGGA,183109.80,3721.9490670,N,07958.3447068,W,2,04,2.43,363.5481,M,-32.8285,M,0.8,0000*4E"
560,0,0.000000,70.564382,"$GPGGA,183109.90,3721.9490637,N,07958.3446607,W,2,04,2.43,363.5212,M,-32.8285,M,0.9,0000*4F"
